~Version ---------------------------------------------------
VERS.   2.0 : CWLS log ASCII Standard -VERSION 2.0
WRAP.    NO : One line per depth step
DLM . SPACE : Column Data Section Delimiter
~Well ------------------------------------------------------
STRT  .m                4000.50000 : START DEPTH
STOP  .m                5516.88000 : STOP DEPTH
STEP  .m                   0.15240 : STEP
NULL  .                    -999.25 : NULL VALUE
COMP  .                            : COMPANY
WELL  .                         X3 : WELL
FLD   .                            : FIELD
LOC   .                            : LOCATION
PROV  .                            : PROVINCE
CNTY  .                            : COUNTY
STAT  .                            : STATE
CTRY  .                            : COUNTRY
SRVC  .                            : SERVICE COMPANY
DATE  . 2024-04-15 17:03:00.591302 : DATE
UWI   .                            : UNIQUE WELL ID
API   .                            : API NUMBER
LIC   .                            : 
LATI  .                            : 
LONG  .                            : 
NS    .                            : 
EW    .                            : 
XCOORD.                            : 
YCOORD.                            : 
GDAT  .                            : 
SECT  .                            : 
RANG  .                            : 
TOWN  .                            : 
~Curve Information -----------------------------------------
DEPT .m      : 
DEPTH.None   : None
GR   .GAPI   : None
RHOB .g/cc   : None
NPHI .v/v    : None
DTC  .None   : None
PEF  .None   : None
RT   .ohm.m  : None
~Params ----------------------------------------------------
EKB.      : 
EGL.      : 
KB .      : 
GL .      : 
TD .      : 
TDD.      : 
TDL.      : 
~Other -----------------------------------------------------
~ASCII -----------------------------------------------------
# ...
 4425.69600 4425.69600   97.15350    2.21911    0.34960  144.21543    -999.25    1.34690
 4425.84840 4425.84840   96.54390    2.21655    0.35256  144.19206    -999.25    1.31938
 4426.00080 4426.00080   95.93150    2.21401    0.35547  144.16868    -999.25    1.29199
 4426.15320 4426.15320   94.78850    2.21507    0.34925  144.14530    -999.25    1.28961
 4426.30560 4426.30560   93.64550    2.21614    0.34303  144.12192    -999.25    1.28723
 4426.45800 4426.45800   92.50250    2.21721    0.33681  144.09854    -999.25    1.28486
 4426.61040 4426.61040   90.75230    2.21741    0.33391  144.07514    -999.25    1.28281
 4426.76280 4426.76280   88.77110    2.21729    0.33226  144.05173    -999.25    1.28089
 4426.91520 4426.91520   86.78990    2.21717    0.33062  144.02833    -999.25    1.27897
 4427.06760 4427.06760   86.05930    2.21698    0.33163  144.00493    -999.25    1.27714
 4427.22000 4427.22000   86.89750    2.21670    0.33599  143.98155    -999.25    1.27544
 4427.37240 4427.37240   87.73570    2.21643    0.34035  143.95817    -999.25    1.27373
 4427.52480 4427.52480   88.45610    2.21611    0.34450  143.93480    -999.25    1.27555
 4427.67720 4427.67720   88.57040    2.21556    0.34758  143.91142    -999.25    1.29555
 4427.82960 4427.82960   88.68470    2.21501    0.35066  143.88804    -999.25    1.31554
 4427.98200 4427.98200   88.79900    2.21446    0.35374  143.86466    -999.25    1.33554
 4428.13440 4428.13440   90.02210    2.21462    0.35356  143.84128    -999.25    1.31650
 4428.28680 4428.28680   91.39370    2.21486    0.35295  143.81790    -999.25    1.29224
 4428.43920 4428.43920   92.76530    2.21510    0.35234  143.79453    -999.25    1.26798
 4428.59160 4428.59160   92.23620    2.21628    0.34884  143.77113    -999.25    1.25901
 4428.74400 4428.74400   90.44550    2.21808    0.34341  143.74772    -999.25    1.26020
 4428.89640 4428.89640   88.65480    2.21988    0.33799  143.72431    -999.25    1.26139
 4429.04880 4429.04880   87.40700    2.21979    0.33380  143.70091    -999.25    1.26292
 4429.20120 4429.20120   87.31175    2.21571    0.33225  143.67754    -999.25    1.26518
 4429.35360 4429.35360   87.21650    2.21162    0.33069  143.65416    -999.25    1.26743
 4429.50600 4429.50600   87.13775    2.20760    0.32974  143.63078    -999.25    1.27055
 4429.65840 4429.65840   87.46160    2.20504    0.34349  143.60740    -999.25    1.29460
 4429.81080 4429.81080   87.78545    2.20248    0.35723  143.58402    -999.25    1.31864
 4429.96320 4429.96320   88.10930    2.19992    0.37098  143.56065    -999.25    1.34269
 4430.11560 4430.11560   89.45910    2.19932    0.38001  143.53724    -999.25    1.34783
 4430.26800 4430.26800   91.13550    2.19935    0.38754  143.51384    -999.25    1.34695
 4430.42040 4430.42040   92.81190    2.19938    0.39507  143.49043    -999.25    1.34606
 4430.57280 4430.57280   93.52370    2.20087    0.39877  143.46916    -999.25    1.34458
 4430.72520 4430.72520   93.18080    2.20395    0.39828  143.45023    -999.25    1.34245
 4430.87760 4430.87760   92.83790    2.20703    0.39779  143.43130    -999.25    1.34031
 4431.03000 4431.03000   92.27000    2.20932    0.39723  143.41237    -999.25    1.33865
 4431.18240 4431.18240   90.78410    2.20841    0.39638  143.39345    -999.25    1.33889
 4431.33480 4431.33480   89.29820    2.20749    0.39553  143.37452    -999.25    1.33914
 4431.48720 4431.48720   87.81230    2.20658    0.39467  143.35559    -999.25    1.33938
 4431.63960 4431.63960   87.04185    2.20820    0.39672  143.33666    -999.25    1.34172
 4431.79200 4431.79200   86.33700    2.21006    0.39904  143.31773    -999.25    1.34425
 4431.94440 4431.94440   85.63215    2.21192    0.40135  143.29881    -999.25    1.34678
 4432.09680 4432.09680   84.97570    2.21397    0.40239  143.27988    -999.25    1.34962
 4432.24920 4432.24920   84.34705    2.21614    0.40270  143.26095    -999.25    1.35263
 4432.40160 4432.40160   83.71840    2.21830    0.40300  143.24202    -999.25    1.35565
 4432.55400 4432.55400   83.28550    2.22013    0.39970  143.22309    -999.25    1.35895
 4432.70640 4432.70640   83.20930    2.22135    0.38983  143.20417    -999.25    1.36276
 4432.85880 4432.85880   83.13310    2.22257    0.37995  143.18524    -999.25    1.36657
 4433.01120 4433.01120   83.06810    2.22386    0.37023  143.16631    -999.25    1.37028
 4433.16360 4433.16360   83.14430    2.22599    0.36242  143.14738    -999.25    1.37272
 4433.31600 4433.31600   83.22050    2.22812    0.35462  143.12845    -999.25    1.37516
 4433.46840 4433.46840   83.29670    2.23026    0.34682  143.10952    -999.25    1.37759
 4433.62080 4433.62080   83.05580    2.23039    0.34315  143.09060    -999.25    1.37887
 4433.77320 4433.77320   82.73195    2.22999    0.34056  143.07167    -999.25    1.37985
 4433.92560 4433.92560   82.40810    2.22959    0.33796  143.05274    -999.25    1.38082
 4434.07800 4434.07800   81.63575    2.22991    0.33675  143.03380    -999.25    1.38119
 4434.23040 4434.23040   80.43560    2.23092    0.33684  143.01484    -999.25    1.38098
 4434.38280 4434.38280   79.23545    2.23193    0.33693  142.99588    -999.25    1.38076
 4434.53520 4434.53520   78.09250    2.23220    0.33739  142.97693    -999.25    1.38061
 4434.68760 4434.68760   77.14000    2.23004    0.33906  142.95800    -999.25    1.38068
 4434.84000 4434.84000   76.18750    2.22787    0.34074  142.93907    -999.25    1.38074
 4434.99240 4434.99240   75.23500    2.22571    0.34242  142.92014    -999.25    1.38080
 4435.14480 4435.14480   75.07890    2.22438    0.35052  142.90122    -999.25    1.38141
 4435.29720 4435.29720   74.96460    2.22310    0.35896  142.88229    -999.25    1.38205
 4435.44960 4435.44960   74.85030    2.22182    0.36741  142.86336    -999.25    1.38269
 4435.60200 4435.60200   74.79975    2.21934    0.37083  142.84443    -999.25    1.38392
 4435.75440 4435.75440   74.78070    2.21626    0.37178  142.82550    -999.25    1.38544
 4435.90680 4435.90680   74.76165    2.21318    0.37272  142.80658    -999.25    1.38697
 4436.05920 4436.05920   74.46880    2.21126    0.37345  142.78765    -999.25    1.38911
 4436.21160 4436.21160   73.74490    2.21117    0.37385  142.76872    -999.25    1.39222
 4436.36400 4436.36400   73.02100    2.21108    0.37425  142.74979    -999.25    1.39533
 4436.51640 4436.51640   72.28070    2.21123    0.37436  142.73086    -999.25    1.39827
 4436.66880 4436.66880   71.40440    2.21336    0.37217  142.71194    -999.25    1.39982
 4436.82120 4436.82120   70.52810    2.21550    0.36997  142.69301    -999.25    1.40138
 4436.97360 4436.97360   69.65180    2.21763    0.36778  142.67408    -999.25    1.40293
 4437.12600 4437.12600   69.84650    2.21898    0.37239  142.65515    -999.25    1.40146
 4437.27840 4437.27840   70.26560    2.22017    0.37842  142.63622    -999.25    1.39936
 4437.43080 4437.43080   70.68470    2.22136    0.38446  142.61729    -999.25    1.39725
 4437.58320 4437.58320   71.21820    2.22410    0.38991  142.59837    -999.25    1.39447
 4437.73560 4437.73560   71.84685    2.22812    0.39488  142.57944    -999.25    1.39112
 4437.88800 4437.88800   72.47550    2.23214    0.39985  142.56051    -999.25    1.38776
 4438.04040 4438.04040   73.31120    2.23521    0.40289  142.54158    -999.25    1.38413
 4438.19280 4438.19280   74.72090    2.23560    0.40061  142.52265    -999.25    1.37971
 4438.34520 4438.34520   76.13060    2.23600    0.39832  142.50373    -999.25    1.37529
 4438.49760 4438.49760   77.54030    2.23639    0.39604  142.48480    -999.25    1.37087
 4438.65000 4438.65000   78.12500    2.24111    0.38559  142.46584    -999.25    1.36822
 4438.80240 4438.80240   78.69650    2.24590    0.37501  142.44688    -999.25    1.36560
 4438.95480 4438.95480   79.26800    2.25068    0.36444  142.42792    -999.25    1.36298
 4439.10720 4439.10720   79.55810    2.24903    0.35849  142.40899    -999.25    1.36248
 4439.25960 4439.25960   79.72955    2.24468    0.35450  142.39006    -999.25    1.36287
