~Version ---------------------------------------------------
VERS.   2.0 : CWLS log ASCII Standard -VERSION 2.0
WRAP.    NO : One line per depth step
DLM . SPACE : Column Data Section Delimiter
~Well ------------------------------------------------------
STRT  .m                4000.50000 : START DEPTH
STOP  .m                5517.00000 : STOP DEPTH
STEP  .m                   0.50000 : STEP
NULL  .                    -999.25 : NULL VALUE
COMP  .                            : COMPANY
WELL  .                     X3.las : WELL
FLD   .                            : FIELD
LOC   .                            : LOCATION
PROV  .                            : PROVINCE
CNTY  .                            : COUNTY
STAT  .                            : STATE
CTRY  .                            : COUNTRY
SRVC  .                            : SERVICE COMPANY
DATE  . 2024-04-14 16:30:14.689995 : DATE
UWI   .                            : UNIQUE WELL ID
API   .                            : API NUMBER
LIC   .                            : 
LATI  .                            : 
LONG  .                            : 
NS    .                            : 
EW    .                            : 
XCOORD.                            : 
YCOORD.                            : 
GDAT  .                            : 
SECT  .                            : 
RANG  .                            : 
TOWN  .                            : 
~Curve Information -----------------------------------------
DEPT      .m      : 
DEPTH     .None   : None
DTC       .None   : None
GR        .GAPI   : None
NPHI      .v/v    : None
NPHIHC    .None   : None
PEF       .None   : None
PERM      .mD     : None
PHIE      .v/v    : None
PHIT      .v/v    : None
RHOB      .g/cc   : None
RHOBFC    .None   : None
RHOBHC    .None   : None
ROCKTYPE  .None   : None
RT        .ohm.m  : None
SW_J      .None   : None
SWE       .v/v    : None
SWT       .v/v    : None
TVDSS     .None   : None
VCALC     .None   : None
VCLB      .None   : None
VCLD      .None   : None
VCLW      .None   : None
VCOAL     .None   : None
VDOLO     .None   : None
VGAS      .None   : None
VOIL      .None   : None
VSAND     .v/v    : None
VSHALE    .v/v    : None
VSILT     .v/v    : None
VWATER    .None   : None
BADHOLE   .None   : None
BS        .None   : None
CALI      .None   : None
COAL_FLAG .None   : None
PERFORATED.None   : None
~Params ----------------------------------------------------
EKB.      : 
EGL.      : 
KB .      : 
GL .      : 
TD .      : 
TDD.      : 
TDL.      : 
~Other -----------------------------------------------------
~ASCII -----------------------------------------------------
# ...
 4347.00000 4347.00000  138.04350   90.00000    0.39320    0.48457    -999.25   38.62104    0.15331    0.25476    2.22420    2.29984    2.29984    2.00000    1.25620    1.00000    1.00000    1.00000 1299.07690    0.21596    0.10146    0.52927    0.63073    -999.25    0.00000    0.00000    0.00000    0.00000    -999.25    0.00000    0.15331    0.00000    0.00000    0.00000    0.00000    0.00000
 4347.50000 4347.50000  138.26090   89.93750    0.37150    0.47697    -999.25   28.61563    0.14056    0.24234    2.23050    2.32154    2.32154    2.00000    1.25490    1.00000    1.00000    1.00000 1299.22925    0.21784    0.10178    0.53982    0.64160    -999.25    0.00000    0.00000    0.00000    0.00000    -999.25    0.00000    0.14056    0.00000    0.00000    0.00000    0.00000    0.00000
 4348.00000 4348.00000  138.47830   94.18750    0.35100    0.48333    -999.25   19.51326    0.12021    0.22736    2.22800    2.34825    2.34825    2.00000    1.24950    1.00000    1.00000    1.00000 1299.38159    0.19311    0.10715    0.57952    0.68667    -999.25    0.00000    0.00000    0.00000    0.00000    -999.25    0.00000    0.12021    0.00000    0.00000    0.00000    0.00000    0.00000
 4348.50000 4348.50000  138.69560   94.37500    0.34800    0.48186    -999.25   17.30753    0.11522    0.22286    2.23360    2.35616    2.35616    2.00000    1.24860    1.00000    1.00000    1.00000 1299.53394    0.19156    0.10764    0.58558    0.69322    -999.25    0.00000    0.00000    0.00000    0.00000    -999.25    0.00000    0.11522    0.00000    0.00000    0.00000    0.00000    0.00000
 4349.00000 4349.00000  138.91300   93.87500    0.36520    0.48819    -999.25   24.54062    0.12941    0.23622    2.22390    2.33276    2.33276    2.00000    1.25180    1.00000    1.00000    1.00000 1299.68629    0.19275    0.10681    0.57104    0.67784    -999.25    0.00000    0.00000    0.00000    0.00000    -999.25    0.00000    0.12941    0.00000    0.00000    0.00000    0.00000    0.00000
 4349.50000 4349.50000  139.13040   93.12500    0.36510    0.48903    -999.25   26.66075    0.13314    0.23950    2.21750    2.32698    2.32698    2.00000    1.25770    1.00000    1.00000    1.00000 1299.83863    0.19427    0.10636    0.56622    0.67258    -999.25    0.00000    0.00000    0.00000    0.00000    -999.25    0.00000    0.13314    0.00000    0.00000    0.00000    0.00000    0.00000
 4350.00000 4350.00000  139.34780   94.50000    0.36680    0.49542    -999.25   26.78144    0.13127    0.23968    2.21300    2.32689    2.32689    2.00000    1.26230    1.00000    1.00000    1.00000 1299.99098    0.18332    0.10841    0.57699    0.68541    -999.25    0.00000    0.00000    0.00000    0.00000    -999.25    0.00000    0.13127    0.00000    0.00000    0.00000    0.00000    0.00000
 4350.50000 4350.50000  139.56520   95.81250    0.35930    0.49579    -999.25   22.25311    0.12230    0.23240    2.21670    2.33978    2.33978    2.00000    1.26260    1.00000    1.00000    1.00000 1300.14339    0.17603    0.11010    0.59157    0.70166    -999.25    0.00000    0.00000    0.00000    0.00000    -999.25    0.00000    0.12230    0.00000    0.00000    0.00000    0.00000    0.00000
 4351.00000 4351.00000  139.78260   92.56250    0.35930    0.48617    -999.25   27.56316    0.13570    0.24084    2.21180    2.32453    2.32453    2.00000    1.25440    1.00000    1.00000    1.00000 1300.29580    0.20047    0.10513    0.55869    0.66382    -999.25    0.00000    0.00000    0.00000    0.00000    -999.25    0.00000    0.13570    0.00000    0.00000    0.00000    0.00000    0.00000
 4351.50000 4351.50000  139.99970   91.93750    0.35320    0.48182    -999.25   26.22603    0.13470    0.23885    2.21270    2.32789    2.32789    2.00000    1.24640    1.00000    1.00000    1.00000 1300.44820    0.20622    0.10415    0.55493    0.65908    -999.25    0.00000    0.00000    0.00000    0.00000    -999.25    0.00000    0.13470    0.00000    0.00000    0.00000    0.00000    0.00000
 4352.00000 4352.00000  140.60840   93.00000    0.35160    0.48659    -999.25   23.75431    0.12837    0.23494    2.21290    2.33497    2.33497    2.00000    1.23910    1.00000    1.00000    1.00000 1300.60061    0.19435    0.10657    0.57071    0.67727    -999.25    0.00000    0.00000    0.00000    0.00000    -999.25    0.00000    0.12837    0.00000    0.00000    0.00000    0.00000    0.00000
 4352.50000 4352.50000  141.21710   97.93750    0.33710    0.49665    -999.25   15.37921    0.10525    0.21852    2.21350    2.36436    2.36436    2.00000    1.23790    1.00000    1.00000    1.00000 1300.75302    0.16187    0.11327    0.61961    0.73288    -999.25    0.00000    0.00000    0.00000    0.00000    -999.25    0.00000    0.10525    0.00000    0.00000    0.00000    0.00000    0.00000
 4353.00000 4353.00000  141.82580   98.68750    0.34910    0.49749    -999.25   15.48093    0.10527    0.21876    2.22620    2.36396    2.36396    2.00000    1.24080    1.00000    1.00000    1.00000 1300.90543    0.16062    0.11349    0.62062    0.73411    -999.25    0.00000    0.00000    0.00000    0.00000    -999.25    0.00000    0.10527    0.00000    0.00000    0.00000    0.00000    0.00000
 4353.50000 4353.50000  142.43450  100.00000    0.36810    0.50976    -999.25   19.59127    0.11189    0.22752    2.22100    2.34890    2.34890    2.00000    1.24310    1.00000    1.00000    1.00000 1301.05783    0.14727    0.11562    0.62521    0.74084    -999.25    0.00000    0.00000    0.00000    0.00000    -999.25    0.00000    0.11189    0.00000    0.00000    0.00000    0.00000    0.00000
 4354.00000 4354.00000  143.04350   95.93750    0.38920    0.50287    -999.25   27.89889    0.13083    0.24132    2.22670    2.32425    2.32425    2.00000    1.24700    1.00000    1.00000    1.00000 1301.21024    0.17187    0.11050    0.58681    0.69731    -999.25    0.00000    0.00000    0.00000    0.00000    -999.25    0.00000    0.13083    0.00000    0.00000    0.00000    0.00000    0.00000
 4354.50000 4354.50000  143.13500   96.87500    0.38210    0.50754    -999.25   29.37762    0.13183    0.24341    2.21160    2.32072    2.32072    2.00000    1.24590    1.00000    1.00000    1.00000 1301.36265    0.16565    0.11158    0.59094    0.70252    -999.25    0.00000    0.00000    0.00000    0.00000    -999.25    0.00000    0.13183    0.00000    0.00000    0.00000    0.00000    0.00000
 4355.00000 4355.00000  143.22650   92.87500    0.37040    0.49371    -999.25   31.96169    0.14058    0.24685    2.20640    2.31415    2.31415    2.00000    1.24580    1.00000    1.00000    1.00000 1301.51506    0.19285    0.10628    0.56030    0.66658    -999.25    0.00000    0.00000    0.00000    0.00000    -999.25    0.00000    0.14058    0.00000    0.00000    0.00000    0.00000    0.00000
 4355.50000 4355.50000  143.31810   91.93750    0.34980    0.48646    -999.25   28.12706    0.13660    0.24165    2.19990    2.32310    2.32310    2.00000    1.24880    1.00000    1.00000    1.00000 1301.66746    0.20071    0.10505    0.55764    0.66269    -999.25    0.00000    0.00000    0.00000    0.00000    -999.25    0.00000    0.13660    0.00000    0.00000    0.00000    0.00000    0.00000
 4356.00000 4356.00000  143.40960   88.62500    0.36840    0.48056    -999.25   38.57552    0.15458    0.25471    2.20320    2.29979    2.29979    2.00000    1.25610    1.00000    1.00000    1.00000 1301.81987    0.22290    0.10013    0.52239    0.62252    -999.25    0.00000    0.00000    0.00000    0.00000    -999.25    0.00000    0.15458    0.00000    0.00000    0.00000    0.00000    0.00000
 4356.50000 4356.50000  143.50110   92.68750    0.35870    0.48970    -999.25   27.94276    0.13522    0.24139    2.20690    2.32368    2.32368    2.00000    1.26540    1.00000    1.00000    1.00000 1301.97228    0.19483    0.10617    0.56378    0.66995    -999.25    0.00000    0.00000    0.00000    0.00000    -999.25    0.00000    0.13522    0.00000    0.00000    0.00000    0.00000    0.00000
 4357.00000 4357.00000  143.59270   94.25000    0.35940    0.49330    -999.25   24.97061    0.12858    0.23690    2.21170    2.33173    2.33173    2.00000    1.27680    1.00000    1.00000    1.00000 1302.12468    0.18448    0.10832    0.57862    0.68694    -999.25    0.00000    0.00000    0.00000    0.00000    -999.25    0.00000    0.12858    0.00000    0.00000    0.00000    0.00000    0.00000
