~Version ---------------------------------------------------
VERS.   2.0 : CWLS log ASCII Standard -VERSION 2.0
WRAP.    NO : One line per depth step
DLM . SPACE : Column Data Section Delimiter
~Well ------------------------------------------------------
STRT  .m                4000.50000 : START DEPTH
STOP  .m                5516.88000 : STOP DEPTH
STEP  .m                   0.15240 : STEP
NULL  .                    -999.25 : NULL VALUE
COMP  .                            : COMPANY
WELL  .                         X3 : WELL
FLD   .                            : FIELD
LOC   .                            : LOCATION
PROV  .                            : PROVINCE
CNTY  .                            : COUNTY
STAT  .                            : STATE
CTRY  .                            : COUNTRY
SRVC  .                            : SERVICE COMPANY
DATE  . 2024-04-15 17:03:00.591302 : DATE
UWI   .                            : UNIQUE WELL ID
API   .                            : API NUMBER
LIC   .                            : 
LATI  .                            : 
LONG  .                            : 
NS    .                            : 
EW    .                            : 
XCOORD.                            : 
YCOORD.                            : 
GDAT  .                            : 
SECT  .                            : 
RANG  .                            : 
TOWN  .                            : 
~Curve Information -----------------------------------------
DEPT .m      : 
DEPTH.None   : None
GR   .GAPI   : None
RHOB .g/cc   : None
NPHI .v/v    : None
DTC  .None   : None
PEF  .None   : None
RT   .ohm.m  : None
~Params ----------------------------------------------------
EKB.      : 
EGL.      : 
KB .      : 
GL .      : 
TD .      : 
TDD.      : 
TDL.      : 
~Other -----------------------------------------------------
~ASCII -----------------------------------------------------
 4000.50000 4000.50000   92.12500    2.23980    0.36710  139.39800    -999.25    1.28910
 4000.65240 4000.65240   91.68685    2.24516    0.36384  139.38779    -999.25    1.29486
 4000.80480 4000.80480   91.24870    2.25053    0.36058  139.37758    -999.25    1.30062
 4000.95720 4000.95720   90.81055    2.25589    0.35732  139.36737    -999.25    1.30638
 4001.10960 4001.10960   90.20800    2.25698    0.35739  139.35718    -999.25    1.29364
 4001.26200 4001.26200   89.54125    2.25640    0.35876  139.34700    -999.25    1.27368
 4001.41440 4001.41440   88.87450    2.25583    0.36013  139.33682    -999.25    1.25371
 4001.56680 4001.56680   88.46660    2.25689    0.36109  139.32664    -999.25    1.24266
 4001.71920 4001.71920   88.39040    2.26006    0.36151  139.31646    -999.25    1.24303
 4001.87160 4001.87160   88.31420    2.26323    0.36194  139.30628    -999.25    1.24339
 4002.02400 4002.02400   88.31900    2.26536    0.36187  139.29609    -999.25    1.24349
 4002.17640 4002.17640   88.75715    2.26195    0.35912  139.28588    -999.25    1.24218
 4002.32880 4002.32880   89.19530    2.25853    0.35638  139.27567    -999.25    1.24087
 4002.48120 4002.48120   89.63345    2.25512    0.35364  139.26546    -999.25    1.23956
 4002.63360 4002.63360   90.40560    2.25550    0.34544  139.25528    -999.25    1.23903
 4002.78600 4002.78600   91.22475    2.25642    0.33648  139.24510    -999.25    1.23860
 4002.93840 4002.93840   92.04390    2.25733    0.32752  139.23491    -999.25    1.23817
 4003.09080 4003.09080   92.62470    2.25674    0.32321  139.22472    -999.25    1.25295
 4003.24320 4003.24320   93.04380    2.25512    0.32205  139.21451    -999.25    1.27803
 4003.39560 4003.39560   93.46290    2.25351    0.32089  139.20429    -999.25    1.30312
 4003.54800 4003.54800   93.71400    2.25219    0.32047  139.19409    -999.25    1.32128
 4003.70040 4003.70040   93.59970    2.25152    0.32166  139.18391    -999.25    1.32439
 4003.85280 4003.85280   93.48540    2.25085    0.32285  139.17373    -999.25    1.32750
 4004.00520 4004.00520   93.37045    2.25011    0.32439  139.16355    -999.25    1.32981
 4004.15760 4004.15760   93.23710    2.24736    0.33576  139.15334    -999.25    1.30954
 4004.31000 4004.31000   93.10375    2.24462    0.34713  139.14313    -999.25    1.28927
 4004.46240 4004.46240   92.97040    2.24188    0.35850  139.13292    -999.25    1.26900
 4004.61480 4004.61480   93.81285    2.24058    0.35836  139.12418    -999.25    1.28324
 4004.76720 4004.76720   94.97490    2.23976    0.35446  139.11592    -999.25    1.30878
 4004.91960 4004.91960   96.13695    2.23893    0.35056  139.10766    -999.25    1.33432
 4005.07200 4005.07200   96.64200    2.23801    0.34903  139.09938    -999.25    1.34797
 4005.22440 4005.22440   96.41340    2.23697    0.35016  139.09109    -999.25    1.34834
 4005.37680 4005.37680   96.18480    2.23594    0.35129  139.08280    -999.25    1.34870
 4005.52920 4005.52920   96.07300    2.23511    0.35166  139.07451    -999.25    1.34915
 4005.68160 4005.68160   96.45400    2.23517    0.34886  139.06622    -999.25    1.34991
 4005.83400 4005.83400   96.83500    2.23523    0.34605  139.05793    -999.25    1.35067
 4005.98640 4005.98640   97.21600    2.23529    0.34325  139.04964    -999.25    1.35143
 4006.13880 4006.13880   95.06390    2.23430    0.34639  139.04135    -999.25    1.35150
 4006.29120 4006.29120   92.66360    2.23320    0.35011  139.03306    -999.25    1.35150
 4006.44360 4006.44360   90.26330    2.23211    0.35382  139.02477    -999.25    1.35150
 4006.59600 4006.59600   89.15900    2.23205    0.35562  139.01650    -999.25    1.35064
 4006.74840 4006.74840   88.81610    2.23259    0.35629  139.00824    -999.25    1.34926
 4006.90080 4006.90080   88.47320    2.23314    0.35696  138.99998    -999.25    1.34789
 4007.05320 4007.05320   88.19680    2.23305    0.35561  138.99171    -999.25    1.33815
 4007.20560 4007.20560   88.04440    2.23177    0.35049  138.98342    -999.25    1.31279
 4007.35800 4007.35800   87.89200    2.23049    0.34537  138.97512    -999.25    1.28743
 4007.51040 4007.51040   87.77860    2.22946    0.34054  138.96683    -999.25    1.26358
 4007.66280 4007.66280   88.19770    2.23174    0.33972  138.95854    -999.25    1.26035
 4007.81520 4007.81520   88.61680    2.23403    0.33890  138.95025    -999.25    1.25712
 4007.96760 4007.96760   89.03590    2.23631    0.33807  138.94196    -999.25    1.25389
 4008.12000 4008.12000   88.76500    2.23550    0.34006  138.93367    -999.25    1.25092
 4008.27240 4008.27240   88.30780    2.23386    0.34280  138.92538    -999.25    1.24802
 4008.42480 4008.42480   87.85060    2.23221    0.34555  138.91709    -999.25    1.24513
 4008.57720 4008.57720   87.31620    2.23205    0.34699  138.90882    -999.25    1.25513
 4008.72960 4008.72960   86.70660    2.23333    0.34718  138.90056    -999.25    1.27768
 4008.88200 4008.88200   86.09700    2.23461    0.34736  138.89230    -999.25    1.30024
 4009.03440 4009.03440   85.69810    2.23603    0.34808  138.88403    -999.25    1.31270
 4009.18680 4009.18680   86.02195    2.23792    0.35064  138.87574    -999.25    1.29054
 4009.33920 4009.33920   86.34580    2.23981    0.35320  138.86745    -999.25    1.26838
 4009.49160 4009.49160   86.66965    2.24170    0.35576  138.85916    -999.25    1.24622
 4009.64400 4009.64400   88.36150    2.24289    0.35161  138.85087    -999.25    1.24782
 4009.79640 4009.79640   90.13315    2.24405    0.34707  138.84258    -999.25    1.25081
 4009.94880 4009.94880   91.90480    2.24521    0.34253  138.83429    -999.25    1.25380
 4010.10120 4010.10120   92.36085    2.24467    0.34296  138.82599    -999.25    1.25678
 4010.25360 4010.25360   92.15130    2.24327    0.34592  138.81770    -999.25    1.25977
 4010.40600 4010.40600   91.94175    2.24186    0.34888  138.80941    -999.25    1.26276
 4010.55840 4010.55840   91.76140    2.24134    0.34814  138.80113    -999.25    1.26530
 4010.71080 4010.71080   91.62805    2.24222    0.34147  138.79287    -999.25    1.26713
 4010.86320 4010.86320   91.49470    2.24311    0.33479  138.78461    -999.25    1.26896
 4011.01560 4011.01560   91.21900    2.24409    0.32909  138.77635    -999.25    1.27061
 4011.16800 4011.16800   89.69500    2.24595    0.33196  138.76806    -999.25    1.27070
 4011.32040 4011.32040   88.17100    2.24781    0.33482  138.75977    -999.25    1.27079
 4011.47280 4011.47280   86.64700    2.24967    0.33769  138.75148    -999.25    1.27088
 4011.62520 4011.62520   86.73495    2.24985    0.33970  138.74319    -999.25    1.26910
 4011.77760 4011.77760   87.17310    2.24967    0.34153  138.73490    -999.25    1.26690
 4011.93000 4011.93000   87.61125    2.24948    0.34336  138.72661    -999.25    1.26471
 4012.08240 4012.08240   87.57560    2.24902    0.34621  138.71833    -999.25    1.26225
 4012.23480 4012.23480   87.13745    2.24832    0.34993  138.71007    -999.25    1.25957
 4012.38720 4012.38720   86.69930    2.24762    0.35365  138.70181    -999.25    1.25689
 4012.53960 4012.53960   86.47895    2.24652    0.35550  138.68536    -999.25    1.25397
 4012.69200 4012.69200   86.87900    2.24430    0.35202  138.64559    -999.25    1.25041
 4012.84440 4012.84440   87.27905    2.24207    0.34855  138.60581    -999.25    1.24684
 4012.99680 4012.99680   87.67910    2.23985    0.34507  138.56604    -999.25    1.24327
 4013.14920 4013.14920   88.26565    2.24013    0.34187  138.52629    -999.25    1.23989
 4013.30160 4013.30160   88.85620    2.24046    0.33867  138.48654    -999.25    1.23650
 4013.45400 4013.45400   89.44675    2.24080    0.33547  138.44680    -999.25    1.23312
 4013.60640 4013.60640   89.93090    2.24156    0.33527  138.40705    -999.25    1.23184
 4013.75880 4013.75880   90.36905    2.24250    0.33636  138.36730    -999.25    1.23148
 4013.91120 4013.91120   90.80720    2.24345    0.33746  138.32756    -999.25    1.23111
 4014.06360 4014.06360   91.53950    2.24522    0.33950  138.28781    -999.25    1.23104
