~Version ---------------------------------------------------
VERS.   2.0 : CWLS log ASCII Standard -VERSION 2.0
WRAP.    NO : One line per depth step
DLM . SPACE : Column Data Section Delimiter
~Well ------------------------------------------------------
STRT  .m                4000.50000 : START DEPTH
STOP  .m                5517.00000 : STOP DEPTH
STEP  .m                   0.50000 : STEP
NULL  .                    -999.25 : NULL VALUE
COMP  .                            : COMPANY
WELL  .                     X3.las : WELL
FLD   .                            : FIELD
LOC   .                            : LOCATION
PROV  .                            : PROVINCE
CNTY  .                            : COUNTY
STAT  .                            : STATE
CTRY  .                            : COUNTRY
SRVC  .                            : SERVICE COMPANY
DATE  . 2024-04-14 16:30:14.689995 : DATE
UWI   .                            : UNIQUE WELL ID
API   .                            : API NUMBER
LIC   .                            : 
LATI  .                            : 
LONG  .                            : 
NS    .                            : 
EW    .                            : 
XCOORD.                            : 
YCOORD.                            : 
GDAT  .                            : 
SECT  .                            : 
RANG  .                            : 
TOWN  .                            : 
~Curve Information -----------------------------------------
DEPT      .m      : 
DEPTH     .None   : None
DTC       .None   : None
GR        .GAPI   : None
NPHI      .v/v    : None
NPHIHC    .None   : None
PEF       .None   : None
PERM      .mD     : None
PHIE      .v/v    : None
PHIT      .v/v    : None
RHOB      .g/cc   : None
RHOBFC    .None   : None
RHOBHC    .None   : None
ROCKTYPE  .None   : None
RT        .ohm.m  : None
SW_J      .None   : None
SWE       .v/v    : None
SWT       .v/v    : None
TVDSS     .None   : None
VCALC     .None   : None
VCLB      .None   : None
VCLD      .None   : None
VCLW      .None   : None
VCOAL     .None   : None
VDOLO     .None   : None
VGAS      .None   : None
VOIL      .None   : None
VSAND     .v/v    : None
VSHALE    .v/v    : None
VSILT     .v/v    : None
VWATER    .None   : None
BADHOLE   .None   : None
BS        .None   : None
CALI      .None   : None
COAL_FLAG .None   : None
PERFORATED.None   : None
~Params ----------------------------------------------------
EKB.      : 
EGL.      : 
KB .      : 
GL .      : 
TD .      : 
TDD.      : 
TDL.      : 
~Other -----------------------------------------------------
~ASCII -----------------------------------------------------
 4000.50000 4000.50000  139.39800   92.12500    0.36710    0.48114    -999.25   21.94739    0.12639    0.23186    2.23980    2.34022    2.34022    2.00000    1.28910    1.00000    1.00000    1.00000 1193.47342    0.20102    0.10547    0.56711    0.67258    -999.25    0.00000    0.00000    0.00000    0.00000    -999.25    0.00000    0.12639    0.00000    0.00000    0.00000    0.00000    0.00000
 4001.00000 4001.00000  139.36450   90.68750    0.35640    0.46544    -999.25   17.58752    0.12120    0.22346    2.25740    2.35453    2.35453    2.00000    1.30800    1.00000    1.00000    1.00000 1193.62583    0.22065    0.10227    0.55589    0.65816    -999.25    0.00000    0.00000    0.00000    0.00000    -999.25    0.00000    0.12120    0.00000    0.00000    0.00000    0.00000    0.00000
 4001.50000 4001.50000  139.33110   88.50000    0.36090    0.46085    -999.25   20.85063    0.13053    0.22989    2.25550    2.34300    2.34300    2.00000    1.24250    1.00000    1.00000    1.00000 1193.77824    0.23450    0.09936    0.53561    0.63497    -999.25    0.00000    0.00000    0.00000    0.00000    -999.25    0.00000    0.13053    0.00000    0.00000    0.00000    0.00000    0.00000
 4002.00000 4002.00000  139.29770   88.25000    0.36230    0.45774    -999.25   18.96693    0.12713    0.22629    2.26590    2.34926    2.34926    2.00000    1.24370    1.00000    1.00000    1.00000 1193.93065    0.23664    0.09916    0.53707    0.63624    -999.25    0.00000    0.00000    0.00000    0.00000    -999.25    0.00000    0.12713    0.00000    0.00000    0.00000    0.00000    0.00000
 4002.50000 4002.50000  139.26420   89.68750    0.35330    0.46537    -999.25   17.44503    0.12085    0.22316    2.25470    2.35506    2.35506    2.00000    1.23940    1.00000    1.00000    1.00000 1194.08305    0.22050    0.10231    0.55635    0.65866    -999.25    0.00000    0.00000    0.00000    0.00000    -999.25    0.00000    0.12085    0.00000    0.00000    0.00000    0.00000    0.00000
 4003.00000 4003.00000  139.23080   92.37500    0.32390    0.46199    -999.25   10.10912    0.09834    0.20376    2.25770    2.38925    2.38925    2.00000    1.23800    1.00000    1.00000    1.00000 1194.23546    0.20866    0.10542    0.58758    0.69300    -999.25    0.00000    0.00000    0.00000    0.00000    -999.25    0.00000    0.09834    0.00000    0.00000    0.00000    0.00000    0.00000
 4003.50000 4003.50000  139.19730   93.75000    0.32010    0.46665    -999.25    9.41296    0.09398    0.20135    2.25240    2.39367    2.39367    2.00000    1.32030    1.00000    1.00000    1.00000 1194.38787    0.19837    0.10737    0.60028    0.70765    -999.25    0.00000    0.00000    0.00000    0.00000    -999.25    0.00000    0.09398    0.00000    0.00000    0.00000    0.00000    0.00000
 4004.00000 4004.00000  139.16390   93.37500    0.32400    0.46641    -999.25   10.68130    0.09923    0.20564    2.25020    2.38608    2.38608    2.00000    1.33050    1.00000    1.00000    1.00000 1194.54027    0.20270    0.10640    0.59167    0.69807    -999.25    0.00000    0.00000    0.00000    0.00000    -999.25    0.00000    0.09923    0.00000    0.00000    0.00000    0.00000    0.00000
 4004.50000 4004.50000  139.13040   92.93750    0.36130    0.48071    -999.25   19.64937    0.12138    0.22763    2.24120    2.34769    2.34769    2.00000    1.26400    1.00000    1.00000    1.00000 1194.69268    0.19791    0.10625    0.57446    0.68071    -999.25    0.00000    0.00000    0.00000    0.00000    -999.25    0.00000    0.12138    0.00000    0.00000    0.00000    0.00000    0.00000
 4005.00000 4005.00000  139.10330   96.75000    0.34850    0.48812    -999.25   14.56133    0.10557    0.21654    2.23850    2.36756    2.36756    2.00000    1.34780    1.00000    1.00000    1.00000 1194.84509    0.17490    0.11097    0.60857    0.71953    -999.25    0.00000    0.00000    0.00000    0.00000    -999.25    0.00000    0.10557    0.00000    0.00000    0.00000    0.00000    0.00000
 4005.50000 4005.50000  139.07610   96.00000    0.35220    0.49025    -999.25   15.94108    0.10887    0.21983    2.23510    2.36181    2.36181    2.00000    1.34900    1.00000    1.00000    1.00000 1194.99750    0.17420    0.11096    0.60597    0.71693    -999.25    0.00000    0.00000    0.00000    0.00000    -999.25    0.00000    0.10887    0.00000    0.00000    0.00000    0.00000    0.00000
 4006.00000 4006.00000  139.04890   97.25000    0.34300    0.49100    -999.25   13.16583    0.10031    0.21293    2.23530    2.37404    2.37404    2.00000    1.35150    1.00000    1.00000    1.00000 1195.14990    0.16660    0.11262    0.62047    0.73309    -999.25    0.00000    0.00000    0.00000    0.00000    -999.25    0.00000    0.10031    0.00000    0.00000    0.00000    0.00000    0.00000
 4006.50000 4006.50000  139.02170   89.37500    0.35520    0.47106    -999.25   23.70120    0.13331    0.23485    2.23170    2.33458    2.33458    2.00000    1.35150    1.00000    1.00000    1.00000 1195.30231    0.22128    0.10154    0.54386    0.64540    -999.25    0.00000    0.00000    0.00000    0.00000    -999.25    0.00000    0.13331    0.00000    0.00000    0.00000    0.00000    0.00000
 4007.00000 4007.00000  138.99460   88.25000    0.35740    0.46653    -999.25   25.45542    0.13823    0.23766    2.23350    2.32945    2.32945    2.00000    1.34700    1.00000    1.00000    1.00000 1195.45472    0.23172    0.09943    0.53061    0.63005    -999.25    0.00000    0.00000    0.00000    0.00000    -999.25    0.00000    0.13823    0.00000    0.00000    0.00000    0.00000    0.00000
 4007.50000 4007.50000  138.96740   87.75000    0.34060    0.46000    -999.25   22.74840    0.13494    0.23325    2.22930    2.33703    2.33703    2.00000    1.26380    1.00000    1.00000    1.00000 1195.60713    0.23906    0.09832    0.52769    0.62600    -999.25    0.00000    0.00000    0.00000    0.00000    -999.25    0.00000    0.13494    0.00000    0.00000    0.00000    0.00000    0.00000
 4008.00000 4008.00000  138.94020   89.12500    0.33790    0.46200    -999.25   18.75247    0.12523    0.22586    2.23680    2.35017    2.35017    2.00000    1.25320    1.00000    1.00000    1.00000 1195.75953    0.22884    0.10063    0.54530    0.64593    -999.25    0.00000    0.00000    0.00000    0.00000    -999.25    0.00000    0.12523    0.00000    0.00000    0.00000    0.00000    0.00000
 4008.50000 4008.50000  138.91300   87.62500    0.34690    0.46080    -999.25   24.12976    0.13750    0.23555    2.23140    2.33298    2.33298    2.00000    1.24370    1.00000    1.00000    1.00000 1195.91194    0.23977    0.09805    0.52468    0.62273    -999.25    0.00000    0.00000    0.00000    0.00000    -999.25    0.00000    0.13750    0.00000    0.00000    0.00000    0.00000    0.00000
 4009.00000 4009.00000  138.88590   85.62500    0.34750    0.45409    -999.25   25.14094    0.14168    0.23717    2.23560    2.32989    2.32989    2.00000    1.31770    1.00000    1.00000    1.00000 1196.06435    0.25291    0.09549    0.50992    0.60541    -999.25    0.00000    0.00000    0.00000    0.00000    -999.25    0.00000    0.14168    0.00000    0.00000    0.00000    0.00000    0.00000
 4009.50000 4009.50000  138.85870   86.68750    0.35590    0.46006    -999.25   24.02210    0.13753    0.23538    2.24180    2.33327    2.33327    2.00000    1.24500    1.00000    1.00000    1.00000 1196.21676    0.24089    0.09785    0.52373    0.62158    -999.25    0.00000    0.00000    0.00000    0.00000    -999.25    0.00000    0.13753    0.00000    0.00000    0.00000    0.00000    0.00000
 4010.00000 4010.00000  138.83150   92.50000    0.34100    0.47091    -999.25   14.91887    0.11209    0.21741    2.24560    2.36541    2.36541    2.00000    1.25480    1.00000    1.00000    1.00000 1196.36916    0.20562    0.10532    0.57696    0.68228    -999.25    0.00000    0.00000    0.00000    0.00000    -999.25    0.00000    0.11209    0.00000    0.00000    0.00000    0.00000    0.00000
 4010.50000 4010.50000  138.80430   91.81250    0.35070    0.47421    -999.25   18.15390    0.11983    0.22464    2.24100    2.35274    2.35274    2.00000    1.26460    1.00000    1.00000    1.00000 1196.52157    0.20649    0.10481    0.56887    0.67368    -999.25    0.00000    0.00000    0.00000    0.00000    -999.25    0.00000    0.11983    0.00000    0.00000    0.00000    0.00000    0.00000
