~Version ---------------------------------------------------
VERS.   2.0 : CWLS log ASCII Standard -VERSION 2.0
WRAP.    NO : One line per depth step
DLM . SPACE : Column Data Section Delimiter
~Well ------------------------------------------------------
STRT  .m                4000.50000 : START DEPTH
STOP  .m                5516.88000 : STOP DEPTH
STEP  .m                   0.15240 : STEP
NULL  .                    -999.25 : NULL VALUE
COMP  .                            : COMPANY
WELL  .                         X3 : WELL
FLD   .                            : FIELD
LOC   .                            : LOCATION
PROV  .                            : PROVINCE
CNTY  .                            : COUNTY
STAT  .                            : STATE
CTRY  .                            : COUNTRY
SRVC  .                            : SERVICE COMPANY
DATE  . 2024-04-15 17:03:00.591302 : DATE
UWI   .                            : UNIQUE WELL ID
API   .                            : API NUMBER
LIC   .                            : 
LATI  .                            : 
LONG  .                            : 
NS    .                            : 
EW    .                            : 
XCOORD.                            : 
YCOORD.                            : 
GDAT  .                            : 
SECT  .                            : 
RANG  .                            : 
TOWN  .                            : 
~Curve Information -----------------------------------------
DEPT .m      : 
DEPTH.None   : None
GR   .GAPI   : None
RHOB .g/cc   : None
NPHI .v/v    : None
DTC  .None   : None
PEF  .None   : None
RT   .ohm.m  : None
~Params ----------------------------------------------------
EKB.      : 
EGL.      : 
KB .      : 
GL .      : 
TD .      : 
TDD.      : 
TDL.      : 
~Other -----------------------------------------------------
~ASCII -----------------------------------------------------
# ...
 5207.50800 5207.50800   43.39794    2.15674    0.28311  106.12560    -999.25    0.87469
 5207.66040 5207.66040   43.63864    2.15757    0.28906  102.80328    -999.25    0.84982
 5207.81280 5207.81280   43.87934    2.15839    0.29500   99.48096    -999.25    0.82495
 5207.96520 5207.96520   44.12004    2.15921    0.30094   96.15864    -999.25    0.80008
 5208.11760 5208.11760   43.97468    2.16039    0.30197   96.57600    -999.25    0.79308
 5208.27000 5208.27000   43.71508    2.16167    0.30154   98.10000    -999.25    0.79138
 5208.42240 5208.42240   43.45548    2.16295    0.30112   99.62400    -999.25    0.78967
 5208.57480 5208.57480   44.28219    2.16599    0.30123  100.01104    -999.25    0.79012
 5208.72720 5208.72720   46.23587    2.17087    0.30190   99.21856    -999.25    0.79280
 5208.87960 5208.87960   48.18954    2.17575    0.30257   98.42608    -999.25    0.79548
 5209.03200 5209.03200   49.92556    2.18142    0.30279   97.79360    -999.25    0.79631
 5209.18440 5209.18440   50.84261    2.19011    0.30129   97.76312    -999.25    0.79019
 5209.33680 5209.33680   51.75966    2.19880    0.29980   97.73264    -999.25    0.78406
 5209.48920 5209.48920   52.67671    2.20748    0.29831   97.70216    -999.25    0.77793
 5209.64160 5209.64160   52.82975    2.20688    0.29695   97.13360    -999.25    0.78787
 5209.79400 5209.79400   52.92451    2.20557    0.29561   96.52400    -999.25    0.79902
 5209.94640 5209.94640   53.01927    2.20426    0.29427   95.91440    -999.25    0.81018
 5210.09880 5210.09880   52.88865    2.19696    0.29344   95.56168    -999.25    0.82943
 5210.25120 5210.25120   52.63576    2.18642    0.29290   95.34832    -999.25    0.85309
 5210.40360 5210.40360   52.38287    2.17587    0.29235   95.13496    -999.25    0.87674
 5210.55600 5210.55600   51.52163    2.16708    0.29104   95.42560    -999.25    0.89048
 5210.70840 5210.70840   49.61319    2.16132    0.28842   96.58384    -999.25    0.88716
 5210.86080 5210.86080   47.70475    2.15556    0.28579   97.74208    -999.25    0.88383
 5211.01320 5211.01320   45.79839    2.15032    0.28351   98.81584    -999.25    0.88104
 5211.16560 5211.16560   43.91409    2.15060    0.28479   98.99872    -999.25    0.88381
 5211.31800 5211.31800   42.02978    2.15087    0.28607   99.18160    -999.25    0.88659
 5211.47040 5211.47040   40.14548    2.15115    0.28735   99.36448    -999.25    0.88936
 5211.62280 5211.62280   39.30051    2.15240    0.28812  100.94728    -999.25    0.88268
 5211.77520 5211.77520   38.70605    2.15390    0.28876  102.86752    -999.25    0.87372
 5211.92760 5211.92760   38.11160    2.15539    0.28940  104.78776    -999.25    0.86476
 5212.08000 5212.08000   37.45226    2.15568    0.28991  106.72400    -999.25    0.85205
 5212.23240 5212.23240   36.73418    2.15489    0.29030  108.67472    -999.25    0.83596
 5212.38480 5212.38480   36.01610    2.15410    0.29070  110.62544    -999.25    0.81987
 5212.53720 5212.53720   35.46320    2.15243    0.29151  112.66544    -999.25    0.80522
 5212.68960 5212.68960   35.42184    2.14804    0.29358  114.98192    -999.25    0.79503
 5212.84200 5212.84200   35.38048    2.14365    0.29565  117.29840    -999.25    0.78485
 5212.99440 5212.99440   35.33912    2.13926    0.29772  119.61488    -999.25    0.77467
 5213.14680 5213.14680   33.09109    2.13716    0.29959  119.84680    -999.25    0.76364
 5213.29920 5213.29920   30.75888    2.13515    0.30145  119.99920    -999.25    0.75258
 5213.45160 5213.45160   28.42667    2.13314    0.30331  120.15160    -999.25    0.74151
 5213.60400 5213.60400   27.24768    2.13115    0.30546  120.26240    -999.25    0.73072
 5213.75640 5213.75640   26.60538    2.12917    0.30775  120.35384    -999.25    0.72005
 5213.90880 5213.90880   25.96307    2.12719    0.31003  120.44528    -999.25    0.70938
 5214.06120 5214.06120   25.38396    2.12441    0.31212  120.21848    -999.25    0.69229
 5214.21360 5214.21360   24.89902    2.12045    0.31392  119.51744    -999.25    0.66562
 5214.36600 5214.36600   24.41409    2.11648    0.31572  118.81640    -999.25    0.63895
 5214.51840 5214.51840   24.04376    2.11208    0.31748  118.16320    -999.25    0.61522
 5214.67080 5214.67080   24.50806    2.10446    0.31894  117.85840    -999.25    0.61287
 5214.82320 5214.82320   24.97236    2.09684    0.32040  117.55360    -999.25    0.61052
 5214.97560 5214.97560   25.43666    2.08922    0.32187  117.24880    -999.25    0.60818
 5215.12800 5215.12800   25.35067    2.08500    0.31998  115.89440    -999.25    0.60388
 5215.28040 5215.28040   25.15977    2.08144    0.31745  114.33992    -999.25    0.59922
 5215.43280 5215.43280   24.96887    2.07787    0.31492  112.78544    -999.25    0.59456
 5215.58520 5215.58520   24.38856    2.07386    0.31482  111.75920    -999.25    0.59226
 5215.73760 5215.73760   23.50111    2.06950    0.31665  111.14960    -999.25    0.59183
 5215.89000 5215.89000   22.61365    2.06515    0.31848  110.54000    -999.25    0.59141
 5216.04240 5216.04240   22.37303    2.06024    0.32027  109.85408    -999.25    0.59202
 5216.19480 5216.19480   23.81053    2.05394    0.32198  108.97016    -999.25    0.59531
 5216.34720 5216.34720   25.24803    2.04763    0.32369  108.08624    -999.25    0.59860
 5216.49960 5216.49960   26.68553    2.04132    0.32540  107.20232    -999.25    0.60189
 5216.65200 5216.65200   28.39580    2.03589    0.33385  107.74720    -999.25    0.61470
 5216.80440 5216.80440   30.10680    2.03046    0.34232  108.29584    -999.25    0.62753
 5216.95680 5216.95680   31.81779    2.02504    0.35080  108.84448    -999.25    0.64036
 5217.10920 5217.10920   32.50135    2.02509    0.35392  110.90008    -999.25    0.65031
 5217.26160 5217.26160   32.77844    2.02732    0.35493  113.55184    -999.25    0.65912
 5217.41400 5217.41400   33.05553    2.02954    0.35593  116.20360    -999.25    0.66793
 5217.56640 5217.56640   32.97804    2.03412    0.35496  116.54464    -999.25    0.67221
 5217.71880 5217.71880   32.44129    2.04174    0.35142  113.89288    -999.25    0.67062
 5217.87120 5217.87120   31.90453    2.04936    0.34789  111.24112    -999.25    0.66904
 5218.02360 5218.02360   31.47776    2.05698    0.34369  108.83008    -999.25    0.66935
 5218.17600 5218.17600   31.65119    2.06456    0.33589  107.73280    -999.25    0.67998
 5218.32840 5218.32840   31.82462    2.07215    0.32809  106.63552    -999.25    0.69062
 5218.48080 5218.48080   31.99805    2.07974    0.32028  105.53824    -999.25    0.70126
 5218.63320 5218.63320   30.26110    2.08749    0.31379  104.65408    -999.25    0.70438
 5218.78560 5218.78560   28.24878    2.09527    0.30748  103.80064    -999.25    0.70643
 5218.93800 5218.93800   26.23646    2.10304    0.30117  102.94720    -999.25    0.70847
 5219.09040 5219.09040   25.70976    2.10918    0.30142  102.47344    -999.25    0.70890
 5219.24280 5219.24280   26.20195    2.11421    0.30618  102.26008    -999.25    0.70823
 5219.39520 5219.39520   26.69414    2.11924    0.31093  102.04672    -999.25    0.70756
 5219.54760 5219.54760   27.09552    2.12238    0.31447  102.24272    -999.25    0.70453
 5219.70000 5219.70000   27.29696    2.12134    0.31532  103.34000    -999.25    0.69630
 5219.85240 5219.85240   27.49840    2.12030    0.31617  104.43728    -999.25    0.68807
 5220.00480 5220.00480   27.70210    2.11925    0.31713  105.49520    -999.25    0.68020
 5220.15720 5220.15720   27.97514    2.11770    0.32115  105.34280    -999.25    0.68321
 5220.30960 5220.30960   28.24818    2.11614    0.32517  105.19040    -999.25    0.68623
 5220.46200 5220.46200   28.52122    2.11459    0.32920  105.03800    -999.25    0.68925
 5220.61440 5220.61440   28.94081    2.11653    0.32830  106.48720    -999.25    0.69281
 5220.76680 5220.76680   29.40907    2.11964    0.32577  108.46840    -999.25    0.69656
 5220.91920 5220.91920   29.87733    2.12275    0.32324  110.44960    -999.25    0.70031
 5221.07160 5221.07160   30.09342    2.12616    0.32201  110.21120    -999.25    0.70919
