~Version ---------------------------------------------------
VERS.   2.0 : CWLS log ASCII Standard -VERSION 2.0
WRAP.    NO : One line per depth step
DLM . SPACE : Column Data Section Delimiter
~Well ------------------------------------------------------
STRT  .m                4000.50000 : START DEPTH
STOP  .m                5516.88000 : STOP DEPTH
STEP  .m                   0.15240 : STEP
NULL  .                    -999.25 : NULL VALUE
COMP  .                            : COMPANY
WELL  .                         X3 : WELL
FLD   .                            : FIELD
LOC   .                            : LOCATION
PROV  .                            : PROVINCE
CNTY  .                            : COUNTY
STAT  .                            : STATE
CTRY  .                            : COUNTRY
SRVC  .                            : SERVICE COMPANY
DATE  . 2024-04-15 17:03:00.591302 : DATE
UWI   .                            : UNIQUE WELL ID
API   .                            : API NUMBER
LIC   .                            : 
LATI  .                            : 
LONG  .                            : 
NS    .                            : 
EW    .                            : 
XCOORD.                            : 
YCOORD.                            : 
GDAT  .                            : 
SECT  .                            : 
RANG  .                            : 
TOWN  .                            : 
~Curve Information -----------------------------------------
DEPT .m      : 
DEPTH.None   : None
GR   .GAPI   : None
RHOB .g/cc   : None
NPHI .v/v    : None
DTC  .None   : None
PEF  .None   : None
RT   .ohm.m  : None
~Params ----------------------------------------------------
EKB.      : 
EGL.      : 
KB .      : 
GL .      : 
TD .      : 
TDD.      : 
TDL.      : 
~Other -----------------------------------------------------
~ASCII -----------------------------------------------------
# ...
 4521.70800 4521.70800   90.21736    2.24644    0.37207  139.47160    -999.25    1.50219
 4521.86040 4521.86040   90.21315    2.24485    0.37944  139.48267    -999.25    1.49207
 4522.01280 4522.01280   90.20895    2.24356    0.38557  139.49373    -999.25    1.48179
 4522.16520 4522.16520   90.20474    2.24548    0.37801  139.50476    -999.25    1.46978
 4522.31760 4522.31760   90.20053    2.24740    0.37045  139.51579    -999.25    1.45777
 4522.47000 4522.47000   90.19633    2.24932    0.36289  139.52683    -999.25    1.44576
 4522.62240 4522.62240   90.19215    2.25369    0.35878  139.53786    -999.25    1.43569
 4522.77480 4522.77480   90.18797    2.25866    0.35552  139.54890    -999.25    1.42609
 4522.92720 4522.92720   90.18379    2.26363    0.35226  139.55993    -999.25    1.41649
 4523.07960 4523.07960   90.17960    2.26616    0.35100  139.55988    -999.25    1.40846
 4523.23200 4523.23200   90.17540    2.26646    0.35158  139.54970    -999.25    1.40188
 4523.38440 4523.38440   90.17119    2.26677    0.35216  139.53952    -999.25    1.39529
 4523.53680 4523.53680   90.17084    2.26792    0.35331  139.52933    -999.25    1.38901
 4523.68920 4523.68920   90.18261    2.27173    0.35623  139.51912    -999.25    1.38368
 4523.84160 4523.84160   90.19437    2.27554    0.35916  139.50891    -999.25    1.37834
 4523.99400 4523.99400   90.20614    2.27935    0.36208  139.49870    -999.25    1.37301
 4524.14640 4524.14640   90.21790    2.27628    0.36504  139.48852    -999.25    1.36873
 4524.29880 4524.29880   90.22967    2.27293    0.36800  139.47834    -999.25    1.36449
 4524.45120 4524.45120   90.24143    2.26957    0.37095  139.46816    -999.25    1.36026
 4524.60360 4524.60360   90.25320    2.26705    0.36639  139.45796    -999.25    1.35637
 4524.75600 4524.75600   90.26496    2.26492    0.35828  139.44775    -999.25    1.35265
 4524.90840 4524.90840   90.27673    2.26278    0.35017  139.43754    -999.25    1.34894
 4525.06080 4525.06080   90.28849    2.25952    0.34695  139.42734    -999.25    1.34602
 4525.21320 4525.21320   90.30026    2.25455    0.35110  139.41716    -999.25    1.34431
 4525.36560 4525.36560   90.31202    2.24958    0.35524  139.40698    -999.25    1.34261
 4525.51800 4525.51800   90.32379    2.24526    0.35887  139.39679    -999.25    1.34109
 4525.67040 4525.67040   90.33555    2.24578    0.35859  139.38658    -999.25    1.34100
 4525.82280 4525.82280   90.34732    2.24630    0.35832  139.37637    -999.25    1.34091
 4525.97520 4525.97520   90.35909    2.24682    0.35804  139.36616    -999.25    1.34081
 4526.12760 4526.12760   90.37088    2.24675    0.36359  139.35598    -999.25    1.34054
 4526.28000 4526.28000   90.38267    2.24656    0.37026  139.34580    -999.25    1.34024
 4526.43240 4526.43240   90.39447    2.24638    0.37694  139.33562    -999.25    1.33994
 4526.58480 4526.58480   90.40625    2.24598    0.38076  139.32544    -999.25    1.34051
 4526.73720 4526.73720   90.41801    2.24540    0.38232  139.31526    -999.25    1.34179
 4526.88960 4526.88960   90.42978    2.24482    0.38387  139.30507    -999.25    1.34307
 4527.04200 4527.04200   90.44154    2.24453    0.38429  139.29489    -999.25    1.34457
 4527.19440 4527.19440   90.45331    2.24498    0.38170  139.28468    -999.25    1.34664
 4527.34680 4527.34680   90.46507    2.24544    0.37910  139.27446    -999.25    1.34872
 4527.49920 4527.49920   90.47684    2.24590    0.37651  139.26425    -999.25    1.35079
 4527.65160 4527.65160   90.48860    2.24566    0.37962  139.25407    -999.25    1.35138
 4527.80400 4527.80400   90.50037    2.24541    0.38276  139.24389    -999.25    1.35196
 4527.95640 4527.95640   90.51213    2.24517    0.38590  139.23371    -999.25    1.35253
 4528.10880 4528.10880   90.52390    2.24706    0.38280  139.22351    -999.25    1.35340
 4528.26120 4528.26120   90.53566    2.24980    0.37719  139.21330    -999.25    1.35437
 4528.41360 4528.41360   90.54743    2.25254    0.37158  139.20309    -999.25    1.35535
 4528.56600 4528.56600   90.56226    2.25464    0.37030  139.19289    -999.25    1.35623
 4528.71840 4528.71840   90.58109    2.25589    0.37469  139.18271    -999.25    1.35699
 4528.87080 4528.87080   90.59993    2.25714    0.37908  139.17253    -999.25    1.35775
 4529.02320 4529.02320   90.61877    2.25839    0.38200  139.16235    -999.25    1.35855
 4529.17560 4529.17560   90.63760    2.25968    0.37672  139.15213    -999.25    1.35952
 4529.32800 4529.32800   90.65644    2.26096    0.37145  139.14192    -999.25    1.36050
 4529.48040 4529.48040   90.67528    2.26224    0.36618  139.13171    -999.25    1.36147
 4529.63280 4529.63280   90.69411    2.26256    0.36728  139.09577    -999.25    1.36242
 4529.78520 4529.78520   90.71295    2.26274    0.36932  139.05602    -999.25    1.36337
 4529.93760 4529.93760   90.73179    2.26293    0.37136  139.01627    -999.25    1.36431
 4530.09000 4530.09000   90.75061    2.26331    0.37141  138.97651    -999.25    1.36533
 4530.24240 4530.24240   90.76941    2.26382    0.37007  138.93673    -999.25    1.36640
 4530.39480 4530.39480   90.78822    2.26434    0.36873  138.89696    -999.25    1.36746
 4530.54720 4530.54720   90.80703    2.26460    0.37031  138.85719    -999.25    1.36858
 4530.69960 4530.69960   90.82587    2.26426    0.37842  138.81744    -999.25    1.36980
 4530.85200 4530.85200   90.84471    2.26393    0.38653  138.77770    -999.25    1.37102
 4531.00440 4531.00440   90.86354    2.26356    0.39441  138.73795    -999.25    1.37223
 4531.15680 4531.15680   90.88238    2.26203    0.39474  138.69821    -999.25    1.37320
 4531.30920 4531.30920   90.90122    2.26051    0.39508  138.65846    -999.25    1.37418
 4531.46160 4531.46160   90.92005    2.25898    0.39542  138.61871    -999.25    1.37515
 4531.61400 4531.61400   90.93889    2.26031    0.39311  138.57895    -999.25    1.37622
 4531.76640 4531.76640   90.95773    2.26260    0.38991  138.53917    -999.25    1.37732
 4531.91880 4531.91880   90.97656    2.26488    0.38671  138.49939    -999.25    1.37842
 4532.07120 4532.07120   90.99540    2.26516    0.38294  138.45963    -999.25    1.38089
 4532.22360 4532.22360   91.01424    2.26315    0.37852  138.41989    -999.25    1.38495
 4532.37600 4532.37600   91.03307    2.26114    0.37410  138.38014    -999.25    1.38900
 4532.52840 4532.52840   91.05191    2.25936    0.37045  138.34039    -999.25    1.39311
 4532.68080 4532.68080   91.07075    2.25863    0.37017  138.30061    -999.25    1.39747
 4532.83320 4532.83320   91.08958    2.25790    0.36990  138.26083    -999.25    1.40183
 4532.98560 4532.98560   91.10842    2.25717    0.36963  138.22106    -999.25    1.40619
 4533.13800 4533.13800   91.12723    2.25296    0.37371  138.18131    -999.25    1.40922
 4533.29040 4533.29040   91.14604    2.24839    0.37825  138.14156    -999.25    1.41212
 4533.44280 4533.44280   91.16484    2.24382    0.38280  138.10182    -999.25    1.41501
 4533.59520 4533.59520   91.18367    2.23892    0.38473  138.06207    -999.25    1.41728
 4533.74760 4533.74760   91.20250    2.23383    0.38509  138.02233    -999.25    1.41917
 4533.90000 4533.90000   91.22134    2.22874    0.38546  137.98258    -999.25    1.42106
 4534.05240 4534.05240   91.24018    2.22493    0.38492  137.94283    -999.25    1.42223
 4534.20480 4534.20480   91.25901    2.22356    0.38267  137.90309    -999.25    1.42201
 4534.35720 4534.35720   91.27785    2.22219    0.38041  137.86334    -999.25    1.42180
 4534.50960 4534.50960   91.29669    2.22091    0.37831  137.82506    -999.25    1.42143
 4534.66200 4534.66200   91.31552    2.22100    0.37840  137.80851    -999.25    1.41878
 4534.81440 4534.81440   91.33436    2.22109    0.37849  137.79196    -999.25    1.41613
 4534.96680 4534.96680   91.35320    2.22118    0.37858  137.77541    -999.25    1.41348
 4535.11920 4535.11920   91.37203    2.22404    0.37865  137.75883    -999.25    1.41350
 4535.27160 4535.27160   91.39087    2.22766    0.37871  137.74225    -999.25    1.41426
