~Version ---------------------------------------------------
VERS.   2.0 : CWLS log ASCII Standard -VERSION 2.0
WRAP.    NO : One line per depth step
DLM . SPACE : Column Data Section Delimiter
~Well ------------------------------------------------------
STRT  .m                4000.50000 : START DEPTH
STOP  .m                5517.00000 : STOP DEPTH
STEP  .m                   0.50000 : STEP
NULL  .                    -999.25 : NULL VALUE
COMP  .                            : COMPANY
WELL  .                     X3.las : WELL
FLD   .                            : FIELD
LOC   .                            : LOCATION
PROV  .                            : PROVINCE
CNTY  .                            : COUNTY
STAT  .                            : STATE
CTRY  .                            : COUNTRY
SRVC  .                            : SERVICE COMPANY
DATE  . 2024-04-14 16:30:14.689995 : DATE
UWI   .                            : UNIQUE WELL ID
API   .                            : API NUMBER
LIC   .                            : 
LATI  .                            : 
LONG  .                            : 
NS    .                            : 
EW    .                            : 
XCOORD.                            : 
YCOORD.                            : 
GDAT  .                            : 
SECT  .                            : 
RANG  .                            : 
TOWN  .                            : 
~Curve Information -----------------------------------------
DEPT      .m      : 
DEPTH     .None   : None
DTC       .None   : None
GR        .GAPI   : None
NPHI      .v/v    : None
NPHIHC    .None   : None
PEF       .None   : None
PERM      .mD     : None
PHIE      .v/v    : None
PHIT      .v/v    : None
RHOB      .g/cc   : None
RHOBFC    .None   : None
RHOBHC    .None   : None
ROCKTYPE  .None   : None
RT        .ohm.m  : None
SW_J      .None   : None
SWE       .v/v    : None
SWT       .v/v    : None
TVDSS     .None   : None
VCALC     .None   : None
VCLB      .None   : None
VCLD      .None   : None
VCLW      .None   : None
VCOAL     .None   : None
VDOLO     .None   : None
VGAS      .None   : None
VOIL      .None   : None
VSAND     .v/v    : None
VSHALE    .v/v    : None
VSILT     .v/v    : None
VWATER    .None   : None
BADHOLE   .None   : None
BS        .None   : None
CALI      .None   : None
COAL_FLAG .None   : None
PERFORATED.None   : None
~Params ----------------------------------------------------
EKB.      : 
EGL.      : 
KB .      : 
GL .      : 
TD .      : 
TDD.      : 
TDL.      : 
~Other -----------------------------------------------------
~ASCII -----------------------------------------------------
# ...
 4777.50000 4777.50000  132.70000   33.87380    0.15510    0.36073    -999.25  167.06580    0.33821    0.36240    1.89950    2.10521    2.10521    1.00000 2000.00000    0.04241    0.01649    0.08215 1430.29019    0.52961    0.02419    0.10799    0.13218    -999.25    0.00000    0.33263    0.00000    0.00000    -999.25    0.00000    0.00558    0.00000    0.00000    0.00000    0.00000    0.00000
 4778.00000 4778.00000  123.70000   30.97510    0.13120    0.36503    -999.25  205.75100    0.35353    0.37458    1.85000    2.08382    2.08382    1.00000 2000.00000    0.04005    0.01569    0.07101 1430.44260    0.53326    0.02105    0.09216    0.11321    -999.25    0.00000    0.34798    0.00000    0.00000    -999.25    0.00000    0.00555    0.00000    0.00000    0.00000    0.00000    0.00000
 4778.50000 4778.50000  123.90000   31.65420    0.11170    0.36153    -999.25  194.52780    0.35026    0.37126    1.85000    2.08957    2.08957    1.00000 2000.00000    0.04073    0.01657    0.07220 1430.59501    0.53631    0.02100    0.09243    0.11343    -999.25    0.00000    0.34446    0.00000    0.00000    -999.25    0.00000    0.00580    0.00000    0.00000    0.00000    0.00000    0.00000
 4779.00000 4779.00000  124.60000   33.01880    0.09520    0.35359    -999.25  154.09420    0.33456    0.35778    1.85000    2.11313    2.11313    1.00000 2000.00000    0.04353    0.01866    0.08236 1430.74741    0.53782    0.02322    0.10440    0.12762    -999.25    0.00000    0.32831    0.00000    0.00000    -999.25    0.00000    0.00624    0.00000    0.00000    0.00000    0.00000    0.00000
 4779.50000 4779.50000  114.70000   33.47660    0.07860    0.33523    -999.25  109.11500    0.31517    0.33871    1.85030    2.14622    2.14622    1.00000 2000.00000    0.04801    0.02203    0.08999 1430.89982    0.55233    0.02354    0.10896    0.13250    -999.25    0.00000    0.30822    0.00000    0.00000    -999.25    0.00000    0.00694    0.00000    0.00000    0.00000    0.00000    0.00000
 4780.00000 4780.00000  116.20000   32.58570    0.07990    0.32186    -999.25   93.16650    0.30861    0.33032    1.88350    2.16059    2.16059    1.00000 1851.19810    0.05024    0.02696    0.09091 1431.05223    0.56792    0.02171    0.10177    0.12348    -999.25    0.00000    0.30029    0.00000    0.00000    -999.25    0.00000    0.00832    0.00000    0.00000    0.00000    0.00000    0.00000
 4780.50000 4780.50000  109.40000   33.82600    0.08620    0.30813    -999.25  122.77130    0.28436    0.30892    1.94450    2.19794    2.19794    2.00000 1099.58510    0.15529    0.03817    0.11464 1431.20464    0.57227    0.02456    0.11881    0.14337    -999.25    0.00000    0.27351    0.00000    0.00000    -999.25    0.00000    0.01085    0.00000    0.00000    0.00000    0.00000    0.00000
 4781.00000 4781.00000  107.80000   36.03730    0.08640    0.32636    -999.25   78.60069    0.29491    0.32152    1.90120    2.17630    2.17630    1.00000  715.72770    0.05281    0.04543    0.12445 1431.35704    0.55208    0.02661    0.12640    0.15302    -999.25    0.00000    0.28151    0.00000    0.00000    -999.25    0.00000    0.01340    0.00000    0.00000    0.00000    0.00000    0.00000
 4781.50000 4781.50000  114.90000   34.69920    0.07890    0.34106    -999.25  115.06480    0.31692    0.34157    1.85000    2.14135    2.14135    1.00000  587.16740    0.04751    0.04637    0.11520 1431.50945    0.54481    0.02465    0.11362    0.13827    -999.25    0.00000    0.30222    0.00000    0.00000    -999.25    0.00000    0.01470    0.00000    0.00000    0.00000    0.00000    0.00000
 4782.00000 4782.00000  114.80000   39.32420    0.07140    0.35620    -999.25  105.29560    0.30468    0.33680    1.85000    2.15033    2.15033    1.00000  607.17420    0.04876    0.04759    0.13840 1431.66186    0.51412    0.03211    0.14908    0.18119    -999.25    0.00000    0.29018    0.00000    0.00000    -999.25    0.00000    0.01450    0.00000    0.00000    0.00000    0.00000    0.00000
 4782.50000 4782.50000  115.30000   33.90070    0.07320    0.33456    -999.25  106.37120    0.31354    0.33734    1.85000    2.14861    2.14861    1.00000  829.18840    0.04868    0.03951    0.10729 1431.81427    0.55224    0.02380    0.11042    0.13422    -999.25    0.00000    0.30115    0.00000    0.00000    -999.25    0.00000    0.01239    0.00000    0.00000    0.00000    0.00000    0.00000
 4783.00000 4783.00000  119.80000   31.94090    0.07910    0.31186    -999.25   79.95940    0.30142    0.32240    1.90760    2.17424    2.17424    1.00000 1515.39260    0.05280    0.03055    0.09364 1431.96667    0.57809    0.02098    0.09951    0.12049    -999.25    0.00000    0.29221    0.00000    0.00000    -999.25    0.00000    0.00921    0.00000    0.00000    0.00000    0.00000    0.00000
 4783.50000 4783.50000  123.10000   33.72210    0.08970    0.32370    -999.25   88.72939    0.30443    0.32777    1.90120    2.16516    2.16516    1.00000 2000.00000    0.05134    0.02087    0.09059 1432.11908    0.56240    0.02334    0.10983    0.13317    -999.25    0.00000    0.29808    0.00000    0.00000    -999.25    0.00000    0.00635    0.00000    0.00000    0.00000    0.00000    0.00000
 4784.00000 4784.00000  121.50000   30.84050    0.08980    0.33995    -999.25  136.60480    0.33039    0.35100    1.85000    2.12464    2.12464    1.00000 2000.00000    0.04554    0.01410    0.07200 1432.27149    0.55535    0.02061    0.09365    0.11426    -999.25    0.00000    0.32573    0.00000    0.00000    -999.25    0.00000    0.00466    0.00000    0.00000    0.00000    0.00000    0.00000
 4784.50000 4784.50000  129.70000   33.97700    0.08630    0.35874    -999.25  165.52800    0.33824    0.36187    1.85000    2.10608    2.10608    1.00000 2000.00000    0.04320    0.01161    0.07614 1432.42390    0.53260    0.02363    0.10554    0.12916    -999.25    0.00000    0.33431    0.00000    0.00000    -999.25    0.00000    0.00393    0.00000    0.00000    0.00000    0.00000    0.00000
 4785.00000 4785.00000  139.30000   32.93480    0.08940    0.33413    -999.25  109.58250    0.31590    0.33894    1.87010    2.14577    2.14577    1.00000 2000.00000    0.04855    0.01243    0.07956 1432.57630    0.55445    0.02304    0.10661    0.12965    -999.25    0.00000    0.31197    0.00000    0.00000    -999.25    0.00000    0.00393    0.00000    0.00000    0.00000    0.00000    0.00000
 4785.50000 4785.50000  145.50000   32.42440    0.12310    0.29664    -999.25  112.92840    0.28267    0.30465    2.02120    2.20510    2.20510    2.00000 2000.00000    0.15855    0.01430    0.08543 1432.72871    0.58835    0.02198    0.10700    0.12898    -999.25    0.00000    0.27862    0.00000    0.00000    -999.25    0.00000    0.00404    0.00000    0.00000    0.00000    0.00000    0.00000
 4786.00000 4786.00000  149.80000   33.74470    0.19090    0.26638    -999.25   52.76201    0.24419    0.26836    2.19650    2.26821    2.26821    2.00000 2000.00000    0.18011    0.01723    0.10575 1432.88112    0.60783    0.02417    0.12380    0.14798    -999.25    0.00000    0.23998    0.00000    0.00000    -999.25    0.00000    0.00421    0.00000    0.00000    0.00000    0.00000    0.00000
 4786.50000 4786.50000  118.20000   32.92620    0.24190    0.26359    -999.25   53.72487    0.24622    0.26917    2.24950    2.26668    2.26668    2.00000 2000.00000    0.17969    0.01735    0.10113 1433.03353    0.61343    0.02295    0.11739    0.14034    -999.25    0.00000    0.24195    0.00000    0.00000    -999.25    0.00000    0.00427    0.00000    0.00000    0.00000    0.00000    0.00000
 4787.00000 4787.00000  111.40000   33.64190    0.23870    0.31343    -999.25   68.35047    0.29000    0.31447    2.12300    2.18832    2.18832    1.00000 2000.00000    0.05568    0.01455    0.09123 1433.18594    0.56811    0.02447    0.11742    0.14189    -999.25    0.00000    0.28578    0.00000    0.00000    -999.25    0.00000    0.00422    0.00000    0.00000    0.00000    0.00000    0.00000
 4787.50000 4787.50000  103.30000   35.85510    0.18620    0.37313    -999.25  179.09930    0.33895    0.36642    1.91960    2.09852    2.09852    1.00000 2000.00000    0.04255    0.01199    0.08607 1433.33834    0.51173    0.02747    0.12185    0.14932    -999.25    0.00000    0.33488    0.00000    0.00000    -999.25    0.00000    0.00407    0.00000    0.00000    0.00000    0.00000    0.00000
