~Version ---------------------------------------------------
VERS.   2.0 : CWLS log ASCII Standard -VERSION 2.0
WRAP.    NO : One line per depth step
DLM . SPACE : Column Data Section Delimiter
~Well ------------------------------------------------------
STRT  .m                4000.50000 : START DEPTH
STOP  .m                5516.88000 : STOP DEPTH
STEP  .m                   0.15240 : STEP
NULL  .                    -999.25 : NULL VALUE
COMP  .                            : COMPANY
WELL  .                         X3 : WELL
FLD   .                            : FIELD
LOC   .                            : LOCATION
PROV  .                            : PROVINCE
CNTY  .                            : COUNTY
STAT  .                            : STATE
CTRY  .                            : COUNTRY
SRVC  .                            : SERVICE COMPANY
DATE  . 2024-04-15 17:03:00.591302 : DATE
UWI   .                            : UNIQUE WELL ID
API   .                            : API NUMBER
LIC   .                            : 
LATI  .                            : 
LONG  .                            : 
NS    .                            : 
EW    .                            : 
XCOORD.                            : 
YCOORD.                            : 
GDAT  .                            : 
SECT  .                            : 
RANG  .                            : 
TOWN  .                            : 
~Curve Information -----------------------------------------
DEPT .m      : 
DEPTH.None   : None
GR   .GAPI   : None
RHOB .g/cc   : None
NPHI .v/v    : None
DTC  .None   : None
PEF  .None   : None
RT   .ohm.m  : None
~Params ----------------------------------------------------
EKB.      : 
EGL.      : 
KB .      : 
GL .      : 
TD .      : 
TDD.      : 
TDL.      : 
~Other -----------------------------------------------------
~ASCII -----------------------------------------------------
# ...
 4082.79600 4082.79600   95.24850    2.24722    0.35683  137.62564    -999.25    1.12714
 4082.94840 4082.94840   94.82940    2.25012    0.34867  137.60738    -999.25    1.16140
 4083.10080 4083.10080   93.22590    2.25348    0.34324  137.58910    -999.25    1.20534
 4083.25320 4083.25320   91.01610    2.25708    0.33922  137.57082    -999.25    1.25423
 4083.40560 4083.40560   88.80630    2.26067    0.33519  137.55253    -999.25    1.30312
 4083.55800 4083.55800   87.13300    2.26372    0.33015  137.53424    -999.25    1.35231
 4083.71040 4083.71040   86.33290    2.26589    0.32344  137.51595    -999.25    1.40199
 4083.86280 4083.86280   85.53280    2.26805    0.31674  137.49766    -999.25    1.45167
 4084.01520 4084.01520   84.85430    2.26990    0.31092  137.47938    -999.25    1.50023
 4084.16760 4084.16760   85.27340    2.26889    0.31311  137.46112    -999.25    1.53860
 4084.32000 4084.32000   85.69250    2.26789    0.31531  137.44286    -999.25    1.57698
 4084.47240 4084.47240   86.11160    2.26688    0.31750  137.42461    -999.25    1.61535
 4084.62480 4084.62480   86.63990    2.26568    0.31768  137.40632    -999.25    1.63281
 4084.77720 4084.77720   87.19235    2.26443    0.31740  137.38804    -999.25    1.64564
 4084.92960 4084.92960   87.74480    2.26318    0.31713  137.36975    -999.25    1.65847
 4085.08200 4085.08200   87.78475    2.26196    0.31654  137.35146    -999.25    1.66447
 4085.23440 4085.23440   87.38470    2.26077    0.31569  137.33317    -999.25    1.66459
 4085.38680 4085.38680   86.98465    2.25958    0.31483  137.31488    -999.25    1.66471
 4085.53920 4085.53920   86.73650    2.25945    0.31338  137.29660    -999.25    1.66483
 4085.69160 4085.69160   86.92700    2.26238    0.31018  137.27835    -999.25    1.66495
 4085.84400 4085.84400   87.11750    2.26530    0.30698  137.26009    -999.25    1.66508
 4085.99640 4085.99640   87.30800    2.26823    0.30378  137.24183    -999.25    1.66520
 4086.14880 4086.14880   87.10790    2.27181    0.30126  137.22354    -999.25    1.66594
 4086.30120 4086.30120   86.89835    2.27541    0.29876  137.20526    -999.25    1.66671
 4086.45360 4086.45360   86.68880    2.27900    0.29626  137.18697    -999.25    1.66747
 4086.60600 4086.60600   87.15500    2.28010    0.29573  137.16868    -999.25    1.66791
 4086.75840 4086.75840   87.91700    2.28010    0.29607  137.15039    -999.25    1.66822
 4086.91080 4086.91080   88.67900    2.28010    0.29640  137.13210    -999.25    1.66852
 4087.06320 4087.06320   88.99070    2.28030    0.29728  137.11382    -999.25    1.66807
 4087.21560 4087.21560   88.66685    2.28079    0.29893  137.09553    -999.25    1.66654
 4087.36800 4087.36800   88.34300    2.28128    0.30057  137.07724    -999.25    1.66502
 4087.52040 4087.52040   88.12115    2.28201    0.30256  137.05896    -999.25    1.66343
 4087.67280 4087.67280   88.55930    2.28429    0.30673  137.04070    -999.25    1.66145
 4087.82520 4087.82520   88.99745    2.28658    0.31091  137.02244    -999.25    1.65947
 4087.97760 4087.97760   89.43560    2.28886    0.31509  137.00418    -999.25    1.65749
 4088.13000 4088.13000   88.88250    2.29190    0.31229  136.98590    -999.25    1.65213
 4088.28240 4088.28240   88.15860    2.29507    0.30830  136.96761    -999.25    1.64619
 4088.43480 4088.43480   87.43470    2.29824    0.30431  136.94932    -999.25    1.64024
 4088.58720 4088.58720   87.39750    2.29890    0.30218  136.93104    -999.25    1.63254
 4088.73960 4088.73960   87.87375    2.29768    0.30145  136.91275    -999.25    1.62352
 4088.89200 4088.89200   88.35000    2.29646    0.30072  136.89446    -999.25    1.61449
 4089.04440 4089.04440   88.58760    2.29437    0.30040  136.87618    -999.25    1.60535
 4089.19680 4089.19680   88.24470    2.29013    0.30111  136.85792    -999.25    1.59590
 4089.34920 4089.34920   87.90180    2.28589    0.30181  136.83967    -999.25    1.58645
 4089.50160 4089.50160   87.55990    2.28166    0.30259  136.82141    -999.25    1.57700
 4089.65400 4089.65400   87.31225    2.27785    0.31143  136.80312    -999.25    1.56706
 4089.80640 4089.80640   87.06460    2.27404    0.32027  136.78483    -999.25    1.55712
 4089.95880 4089.95880   86.81695    2.27023    0.32911  136.76654    -999.25    1.54719
 4090.11120 4090.11120   87.15310    2.26927    0.32925  136.74826    -999.25    1.53680
 4090.26360 4090.26360   87.70555    2.26936    0.32618  136.72997    -999.25    1.52626
 4090.41600 4090.41600   88.25800    2.26945    0.32310  136.71168    -999.25    1.51571
 4090.56840 4090.56840   89.27215    2.27047    0.32137  136.69341    -999.25    1.50734
 4090.72080 4090.72080   90.85330    2.27264    0.32131  136.67515    -999.25    1.50164
 4090.87320 4090.87320   92.43445    2.27480    0.32125  136.65689    -999.25    1.49594
 4091.02560 4091.02560   93.96440    2.27668    0.32210  136.63863    -999.25    1.49037
 4091.17800 4091.17800   95.24075    2.27713    0.32747  136.62034    -999.25    1.48540
 4091.33040 4091.33040   96.51710    2.27759    0.33283  136.60205    -999.25    1.48043
 4091.48280 4091.48280   97.79345    2.27805    0.33819  136.58376    -999.25    1.47546
 4091.63520 4091.63520   97.54880    2.27786    0.34102  136.56550    -999.25    1.47198
 4091.78760 4091.78760   97.11065    2.27758    0.34352  136.54725    -999.25    1.46869
 4091.94000 4091.94000   96.67250    2.27731    0.34602  136.52899    -999.25    1.46540
 4092.09240 4092.09240   95.69150    2.27674    0.34715  136.48966    -999.25    1.46499
 4092.24480 4092.24480   94.35800    2.27598    0.34739  136.43666    -999.25    1.46645
 4092.39720 4092.39720   93.02450    2.27521    0.34764  136.38365    -999.25    1.46791
 4092.54960 4092.54960   92.13740    2.27468    0.34402  136.33065    -999.25    1.46981
 4092.70200 4092.70200   92.17550    2.27462    0.33241  136.27764    -999.25    1.47262
 4092.85440 4092.85440   92.21360    2.27456    0.32079  136.22464    -999.25    1.47542
 4093.00680 4093.00680   92.25255    2.27447    0.30976  136.17163    -999.25    1.47836
 4093.15920 4093.15920   92.30970    2.27380    0.31120  136.11863    -999.25    1.48415
 4093.31160 4093.31160   92.36685    2.27313    0.31263  136.06563    -999.25    1.48994
 4093.46400 4093.46400   92.42400    2.27246    0.31406  136.01262    -999.25    1.49573
 4093.61640 4093.61640   92.33565    2.27286    0.31340  135.95962    -999.25    1.50231
 4093.76880 4093.76880   92.20230    2.27359    0.31209  135.90661    -999.25    1.50914
 4093.92120 4093.92120   92.06895    2.27432    0.31078  135.85361    -999.25    1.51597
 4094.07360 4094.07360   91.75160    2.27471    0.31054  135.80057    -999.25    1.52059
 4094.22600 4094.22600   91.23725    2.27475    0.31146  135.74751    -999.25    1.52284
 4094.37840 4094.37840   90.72290    2.27478    0.31237  135.69444    -999.25    1.52510
 4094.53080 4094.53080   90.20855    2.27495    0.31284  135.64466    -999.25    1.52700
 4094.68320 4094.68320   89.69420    2.27568    0.31152  135.60788    -999.25    1.52752
 4094.83560 4094.83560   89.17985    2.27641    0.31021  135.57109    -999.25    1.52804
 4094.98800 4094.98800   88.66550    2.27714    0.30890  135.53430    -999.25    1.52856
 4095.14040 4095.14040   89.34455    2.27973    0.30726  135.49748    -999.25    1.52638
 4095.29280 4095.29280   90.12560    2.28247    0.30558  135.46066    -999.25    1.52397
 4095.44520 4095.44520   90.90665    2.28521    0.30390  135.42384    -999.25    1.52157
 4095.59760 4095.59760   91.29730    2.28710    0.30402  135.38702    -999.25    1.51775
 4095.75000 4095.75000   91.46875    2.28850    0.30515  135.35020    -999.25    1.51315
 4095.90240 4095.90240   91.64020    2.28990    0.30628  135.31338    -999.25    1.50855
 4096.05480 4096.05480   92.27745    2.28988    0.30632  135.27656    -999.25    1.50467
 4096.20720 4096.20720   93.74430    2.28732    0.30443  135.23974    -999.25    1.50208
 4096.35960 4096.35960   95.21115    2.28476    0.30254  135.20292    -999.25    1.49949
