~Version ---------------------------------------------------
VERS.   2.0 : CWLS log ASCII Standard -VERSION 2.0
WRAP.    NO : One line per depth step
DLM . SPACE : Column Data Section Delimiter
~Well ------------------------------------------------------
STRT  .m                4000.50000 : START DEPTH
STOP  .m                5516.88000 : STOP DEPTH
STEP  .m                   0.15240 : STEP
NULL  .                    -999.25 : NULL VALUE
COMP  .                            : COMPANY
WELL  .                         X3 : WELL
FLD   .                            : FIELD
LOC   .                            : LOCATION
PROV  .                            : PROVINCE
CNTY  .                            : COUNTY
STAT  .                            : STATE
CTRY  .                            : COUNTRY
SRVC  .                            : SERVICE COMPANY
DATE  . 2024-04-15 17:03:00.591302 : DATE
UWI   .                            : UNIQUE WELL ID
API   .                            : API NUMBER
LIC   .                            : 
LATI  .                            : 
LONG  .                            : 
NS    .                            : 
EW    .                            : 
XCOORD.                            : 
YCOORD.                            : 
GDAT  .                            : 
SECT  .                            : 
RANG  .                            : 
TOWN  .                            : 
~Curve Information -----------------------------------------
DEPT .m      : 
DEPTH.None   : None
GR   .GAPI   : None
RHOB .g/cc   : None
NPHI .v/v    : None
DTC  .None   : None
PEF  .None   : None
RT   .ohm.m  : None
~Params ----------------------------------------------------
EKB.      : 
EGL.      : 
KB .      : 
GL .      : 
TD .      : 
TDD.      : 
TDL.      : 
~Other -----------------------------------------------------
~ASCII -----------------------------------------------------
# ...
 5029.20000 5029.20000   23.97132    2.18952    0.27960  111.12000    -999.25    2.09006
 5029.35240 5029.35240   25.59325    2.20104    0.27975  110.44944    -999.25    2.09414
 5029.50480 5029.50480   27.15261    2.21215    0.27990  109.78368    -999.25    2.09829
 5029.65720 5029.65720   26.78786    2.21069    0.27974  109.26552    -999.25    2.10442
 5029.80960 5029.80960   26.42310    2.20923    0.27959  108.74736    -999.25    2.11055
 5029.96200 5029.96200   26.05835    2.20776    0.27944  108.22920    -999.25    2.11667
 5030.11440 5030.11440   25.67044    2.20710    0.28226  107.64240    -999.25    2.11543
 5030.26680 5030.26680   25.27484    2.20671    0.28607  107.03280    -999.25    2.11174
 5030.41920 5030.41920   24.87924    2.20631    0.28988  106.42320    -999.25    2.10806
 5030.57160 5030.57160   24.48944    2.20495    0.29227  105.41264    -999.25    2.11469
 5030.72400 5030.72400   24.10618    2.20252    0.29306  103.94960    -999.25    2.13298
 5030.87640 5030.87640   23.72293    2.20008    0.29386  102.48656    -999.25    2.15127
 5031.02880 5031.02880   23.36335    2.19887    0.29431  101.34608    -999.25    2.16518
 5031.18120 5031.18120   23.10536    2.20292    0.29330  101.58992    -999.25    2.16034
 5031.33360 5031.33360   22.84738    2.20697    0.29230  101.83376    -999.25    2.15549
 5031.48600 5031.48600   22.58940    2.21103    0.29129  102.07760    -999.25    2.15065
 5031.63840 5031.63840   24.38674    2.21392    0.28702  101.24192    -999.25    2.19103
 5031.79080 5031.79080   26.39199    2.21669    0.28242  100.29704    -999.25    2.23599
 5031.94320 5031.94320   28.39724    2.21947    0.27782   99.35216    -999.25    2.28094
 5032.09560 5032.09560   28.64473    2.22486    0.27138   98.10136    -999.25    2.35753
 5032.24800 5032.24800   27.84786    2.23181    0.26385   96.66880    -999.25    2.45290
 5032.40040 5032.40040   27.05099    2.23876    0.25632   95.23624    -999.25    2.54827
 5032.55280 5032.55280   26.73386    2.24519    0.25210   93.83536    -999.25    2.60746
 5032.70520 5032.70520   27.32170    2.25065    0.25411   92.49424    -999.25    2.59841
 5032.85760 5032.85760   27.90953    2.25610    0.25612   91.15312    -999.25    2.58936
 5033.01000 5033.01000   28.47360    2.26133    0.25803   89.80800    -999.25    2.59211
 5033.16240 5033.16240   28.69912    2.26325    0.25852   88.40592    -999.25    2.76298
 5033.31480 5033.31480   28.92464    2.26517    0.25901   87.00384    -999.25    2.93385
 5033.46720 5033.46720   29.15016    2.26709    0.25950   85.60176    -999.25    3.10472
 5033.61960 5033.61960   28.57893    2.27240    0.25716   84.94120    -999.25    3.20864
 5033.77200 5033.77200   27.78920    2.27865    0.25405   84.48400    -999.25    3.29420
 5033.92440 5033.92440   26.99946    2.28490    0.25094   84.02680    -999.25    3.37976
 5034.07680 5034.07680   26.43157    2.29132    0.24561   84.36832    -999.25    3.46613
 5034.22920 5034.22920   26.08205    2.29790    0.23808   85.49608    -999.25    3.55330
 5034.38160 5034.38160   25.73254    2.30449    0.23055   86.62384    -999.25    3.64048
 5034.53400 5034.53400   25.50696    2.31212    0.22293   87.78560    -999.25    3.71204
 5034.68640 5034.68640   25.71298    2.32343    0.21497   89.06576    -999.25    3.72923
 5034.83880 5034.83880   25.91899    2.33474    0.20701   90.34592    -999.25    3.74642
 5034.99120 5034.99120   26.12500    2.34605    0.19906   91.62608    -999.25    3.76361
 5035.14360 5035.14360   25.74832    2.35336    0.19432   92.30312    -999.25    3.64894
 5035.29600 5035.29600   25.33592    2.36043    0.18978   92.94320    -999.25    3.52620
 5035.44840 5035.44840   24.92353    2.36751    0.18524   93.58328    -999.25    3.40346
 5035.60080 5035.60080   24.40852    2.36990    0.18338   94.06208    -999.25    3.30656
 5035.75320 5035.75320   23.84098    2.36990    0.18289   94.45832    -999.25    3.22289
 5035.90560 5035.90560   23.27345    2.36990    0.18240   94.85456    -999.25    3.13923
 5036.05800 5036.05800   23.39641    2.36512    0.18233   94.85640    -999.25    3.09399
 5036.21040 5036.21040   24.64322    2.35256    0.18294   94.21632    -999.25    3.11130
 5036.36280 5036.36280   25.89004    2.34001    0.18355   93.57624    -999.25    3.12861
 5036.51520 5036.51520   27.09083    2.32722    0.18458   92.89968    -999.25    3.14630
 5036.66760 5036.66760   27.87624    2.31234    0.18943   91.89384    -999.25    3.16733
 5036.82000 5036.82000   28.66165    2.29747    0.19428   90.88800    -999.25    3.18836
 5036.97240 5036.97240   29.44706    2.28259    0.19912   89.88216    -999.25    3.20939
 5037.12480 5037.12480   29.35370    2.27141    0.20689   88.65168    -999.25    3.21163
 5037.27720 5037.27720   29.06600    2.26105    0.21530   87.37152    -999.25    3.20971
 5037.42960 5037.42960   28.77830    2.25069    0.22371   86.09136    -999.25    3.20779
 5037.58200 5037.58200   28.78068    2.24774    0.22965   85.91000    -999.25    3.20064
 5037.73440 5037.73440   29.03211    2.25115    0.23346   86.67200    -999.25    3.18899
 5037.88680 5037.88680   29.28354    2.25456    0.23727   87.43400    -999.25    3.17735
 5038.03920 5038.03920   29.37827    2.26068    0.23907   88.14112    -999.25    3.22382
 5038.19160 5038.19160   29.02050    2.27461    0.23504   88.68976    -999.25    3.43809
 5038.34400 5038.34400   28.66273    2.28854    0.23102   89.23840    -999.25    3.65236
 5038.49640 5038.49640   28.30495    2.30247    0.22700   89.78704    -999.25    3.86664
 5038.64880 5038.64880   27.57095    2.31970    0.21681   89.85952    -999.25    3.76718
 5038.80120 5038.80120   26.82785    2.33702    0.20648   89.92048    -999.25    3.66014
 5038.95360 5038.95360   26.08475    2.35433    0.19615   89.98144    -999.25    3.55309
 5039.10600 5039.10600   25.61029    2.37065    0.19154   90.48760    -999.25    3.47541
 5039.25840 5039.25840   25.25343    2.38653    0.18943   91.18864    -999.25    3.41058
 5039.41080 5039.41080   24.89657    2.40241    0.18733   91.88968    -999.25    3.34575
 5039.56320 5039.56320   24.47831    2.40830    0.18625   92.13568    -999.25    3.24758
 5039.71560 5039.71560   23.97337    2.40010    0.18662   91.73944    -999.25    3.10238
 5039.86800 5039.86800   23.46844    2.39190    0.18698   91.34320    -999.25    2.95717
 5040.02040 5040.02040   23.05468    2.38264    0.18794   90.97552    -999.25    2.83494
 5040.17280 5040.17280   23.23086    2.36648    0.19276   90.79264    -999.25    2.86140
 5040.32520 5040.32520   23.40703    2.35033    0.19758   90.60976    -999.25    2.88785
 5040.47760 5040.47760   23.58321    2.33417    0.20239   90.42688    -999.25    2.91431
 5040.63000 5040.63000   24.56949    2.32247    0.20370   90.55600    -999.25    2.89782
 5040.78240 5040.78240   25.69536    2.31152    0.20440   90.73888    -999.25    2.87392
 5040.93480 5040.93480   26.82123    2.30058    0.20510   90.92176    -999.25    2.85002
 5041.08720 5041.08720   26.92180    2.29773    0.20690   90.96512    -999.25    2.77780
 5041.23960 5041.23960   26.25575    2.30093    0.20952   90.90416    -999.25    2.66944
 5041.39200 5041.39200   25.58970    2.30413    0.21214   90.84320    -999.25    2.56109
 5041.54440 5041.54440   25.29133    2.30772    0.21466   90.79112    -999.25    2.47325
 5041.69680 5041.69680   25.88731    2.31226    0.21691   90.76064    -999.25    2.43534
 5041.84920 5041.84920   26.48328    2.31681    0.21917   90.73016    -999.25    2.39742
 5042.00160 5042.00160   27.07720    2.32134    0.22142   90.70320    -999.25    2.35945
 5042.15400 5042.15400   27.47688    2.32487    0.22374   91.00800    -999.25    2.31613
 5042.30640 5042.30640   27.87656    2.32841    0.22606   91.31280    -999.25    2.27282
 5042.45880 5042.45880   28.27625    2.33194    0.22837   91.61760    -999.25    2.22951
 5042.61120 5042.61120   28.42213    2.33895    0.22669   92.45616    -999.25    2.23252
 5042.76360 5042.76360   28.47398    2.34724    0.22352   93.49248    -999.25    2.25270
