~Version ---------------------------------------------------
VERS.   2.0 : CWLS log ASCII Standard -VERSION 2.0
WRAP.    NO : One line per depth step
DLM . SPACE : Column Data Section Delimiter
~Well ------------------------------------------------------
STRT  .m                4000.50000 : START DEPTH
STOP  .m                5516.88000 : STOP DEPTH
STEP  .m                   0.15240 : STEP
NULL  .                    -999.25 : NULL VALUE
COMP  .                            : COMPANY
WELL  .                         X3 : WELL
FLD   .                            : FIELD
LOC   .                            : LOCATION
PROV  .                            : PROVINCE
CNTY  .                            : COUNTY
STAT  .                            : STATE
CTRY  .                            : COUNTRY
SRVC  .                            : SERVICE COMPANY
DATE  . 2024-04-15 17:03:00.591302 : DATE
UWI   .                            : UNIQUE WELL ID
API   .                            : API NUMBER
LIC   .                            : 
LATI  .                            : 
LONG  .                            : 
NS    .                            : 
EW    .                            : 
XCOORD.                            : 
YCOORD.                            : 
GDAT  .                            : 
SECT  .                            : 
RANG  .                            : 
TOWN  .                            : 
~Curve Information -----------------------------------------
DEPT .m      : 
DEPTH.None   : None
GR   .GAPI   : None
RHOB .g/cc   : None
NPHI .v/v    : None
DTC  .None   : None
PEF  .None   : None
RT   .ohm.m  : None
~Params ----------------------------------------------------
EKB.      : 
EGL.      : 
KB .      : 
GL .      : 
TD .      : 
TDD.      : 
TDL.      : 
~Other -----------------------------------------------------
~ASCII -----------------------------------------------------
# ...
 4604.00400 4604.00400   94.29553    2.12979    0.38551  142.01046    -999.25    1.73520
 4604.15640 4604.15640   94.87956    2.13305    0.38222  141.99388    -999.25    1.74679
 4604.30880 4604.30880   95.46358    2.13631    0.37893  141.97730    -999.25    1.75837
 4604.46120 4604.46120   96.04761    2.13957    0.37564  141.96072    -999.25    1.76995
 4604.61360 4604.61360   97.60851    2.14831    0.36733  141.94416    -999.25    1.78069
 4604.76600 4604.76600   99.50305    2.15891    0.35730  141.92761    -999.25    1.79115
 4604.91840 4604.91840  101.39760    2.16952    0.34727  141.91106    -999.25    1.80160
 4605.07080 4605.07080  103.43394    2.17963    0.34690  141.89450    -999.25    1.81033
 4605.22320 4605.22320  105.63371    2.18917    0.35766  141.87792    -999.25    1.81707
 4605.37560 4605.37560  107.83349    2.19871    0.36842  141.86133    -999.25    1.82380
 4605.52800 4605.52800  109.56409    2.20683    0.37653  141.84476    -999.25    1.82912
 4605.68040 4605.68040  109.21025    2.20863    0.37287  141.82821    -999.25    1.82811
 4605.83280 4605.83280  108.85640    2.21043    0.36921  141.81166    -999.25    1.82710
 4605.98520 4605.98520  108.50256    2.21223    0.36556  141.79511    -999.25    1.82610
 4606.13760 4606.13760  108.71117    2.21295    0.36977  141.77853    -999.25    1.83112
 4606.29000 4606.29000  108.98028    2.21356    0.37483  141.76195    -999.25    1.83679
 4606.44240 4606.44240  109.24939    2.21417    0.37989  141.74537    -999.25    1.84246
 4606.59480 4606.59480  109.73840    2.21484    0.37712  141.71438    -999.25    1.84204
 4606.74720 4606.74720  110.36101    2.21554    0.36959  141.67463    -999.25    1.83793
 4606.89960 4606.89960  110.98363    2.21624    0.36206  141.63488    -999.25    1.83381
 4607.05200 4607.05200  111.08302    2.21663    0.35627  141.59513    -999.25    1.83109
 4607.20440 4607.20440  110.17218    2.21641    0.35383  141.55535    -999.25    1.83106
 4607.35680 4607.35680  109.26135    2.21620    0.35139  141.51558    -999.25    1.83103
 4607.50920 4607.50920  108.37423    2.21594    0.34892  141.47580    -999.25    1.83120
 4607.66160 4607.66160  107.85616    2.21490    0.34587  141.43605    -999.25    1.83446
 4607.81400 4607.81400  107.33809    2.21386    0.34282  141.39631    -999.25    1.83772
 4607.96640 4607.96640  106.82002    2.21283    0.33977  141.35656    -999.25    1.84098
 4608.11880 4608.11880  106.36553    2.21091    0.33603  141.31682    -999.25    1.84201
 4608.27120 4608.27120  105.92903    2.20875    0.33210  141.27707    -999.25    1.84241
 4608.42360 4608.42360  105.49252    2.20658    0.32817  141.23733    -999.25    1.84280
 4608.57600 4608.57600  105.53604    2.20536    0.32997  141.19756    -999.25    1.84751
 4608.72840 4608.72840  106.06209    2.20509    0.33753  141.15779    -999.25    1.85657
 4608.88080 4608.88080  106.58815    2.20481    0.34509  141.11801    -999.25    1.86562
 4609.03320 4609.03320  107.26117    2.20487    0.35086  141.07824    -999.25    1.87309
 4609.18560 4609.18560  108.46187    2.20608    0.35022  141.03850    -999.25    1.87489
 4609.33800 4609.33800  109.66257    2.20730    0.34958  140.99875    -999.25    1.87669
 4609.49040 4609.49040  110.86327    2.20852    0.34894  140.95900    -999.25    1.87849
 4609.64280 4609.64280  110.83146    2.20894    0.34907  140.91923    -999.25    1.88423
 4609.79520 4609.79520  110.71679    2.20931    0.34925  140.87945    -999.25    1.89023
 4609.94760 4609.94760  110.60213    2.20967    0.34944  140.83968    -999.25    1.89624
 4610.10000 4610.10000  110.60736    2.21150    0.34726  140.79992    -999.25    1.90284
 4610.25240 4610.25240  110.67542    2.21409    0.34385  140.76017    -999.25    1.90976
 4610.40480 4610.40480  110.74348    2.21668    0.34043  140.72043    -999.25    1.91668
 4610.55720 4610.55720  110.99456    2.21884    0.34019  140.68068    -999.25    1.92289
 4610.70960 4610.70960  111.55024    2.22027    0.34522  140.64094    -999.25    1.92792
 4610.86200 4610.86200  112.10592    2.22170    0.35025  140.60119    -999.25    1.93295
 4611.01440 4611.01440  112.34288    2.22325    0.35515  140.56144    -999.25    1.93760
 4611.16680 4611.16680  109.52540    2.22594    0.35887  140.52170    -999.25    1.93870
 4611.31920 4611.31920  106.70792    2.22862    0.36259  140.48195    -999.25    1.93980
 4611.47160 4611.47160  103.89044    2.23130    0.36631  140.44221    -999.25    1.94090
 4611.62400 4611.62400  103.74072    2.23287    0.36397  140.43912    -999.25    1.94204
 4611.77640 4611.77640  104.20201    2.23418    0.36026  140.44442    -999.25    1.94320
 4611.92880 4611.92880  104.66329    2.23549    0.35654  140.44972    -999.25    1.94436
 4612.08120 4612.08120  104.40992    2.23651    0.35504  140.59061    -999.25    1.94266
 4612.23360 4612.23360  103.52990    2.23727    0.35550  140.85039    -999.25    1.93845
 4612.38600 4612.38600  102.64988    2.23803    0.35596  141.11018    -999.25    1.93425
 4612.53840 4612.53840  101.95579    2.23837    0.35562  141.27528    -999.25    1.93130
 4612.69080 4612.69080  101.81366    2.23746    0.35290  141.15930    -999.25    1.93209
 4612.84320 4612.84320  101.67153    2.23654    0.35019  141.04332    -999.25    1.93288
 4612.99560 4612.99560  101.52940    2.23563    0.34748  140.92735    -999.25    1.93368
 4613.14800 4613.14800  102.32190    2.23477    0.34956  140.81140    -999.25    1.93074
 4613.30040 4613.30040  103.14217    2.23392    0.35179  140.69546    -999.25    1.92769
 4613.45280 4613.45280  103.96245    2.23306    0.35401  140.57951    -999.25    1.92464
 4613.60520 4613.60520  104.28074    2.23499    0.35169  140.46354    -999.25    1.92932
 4613.75760 4613.75760  104.37379    2.23816    0.34733  140.34757    -999.25    1.93746
 4613.91000 4613.91000  104.46685    2.24133    0.34297  140.23159    -999.25    1.94559
 4614.06240 4614.06240  104.69723    2.24395    0.33998  140.11563    -999.25    1.94254
 4614.21480 4614.21480  105.12569    2.24578    0.33894  139.99968    -999.25    1.92334
 4614.36720 4614.36720  105.55415    2.24761    0.33790  139.88373    -999.25    1.90413
 4614.51960 4614.51960  105.88150    2.24939    0.33690  139.76779    -999.25    1.88994
 4614.67200 4614.67200  105.52382    2.25085    0.33614  139.65184    -999.25    1.90966
 4614.82440 4614.82440  105.16613    2.25231    0.33538  139.53590    -999.25    1.92938
 4614.97680 4614.97680  104.80845    2.25378    0.33462  139.41995    -999.25    1.94910
 4615.12920 4615.12920  105.09816    2.25377    0.33489  139.30400    -999.25    1.94634
 4615.28160 4615.28160  105.50413    2.25349    0.33534  139.18806    -999.25    1.93954
 4615.43400 4615.43400  105.91009    2.25322    0.33580  139.07211    -999.25    1.93274
 4615.58640 4615.58640  106.20410    2.25239    0.33610  138.95615    -999.25    1.92975
 4615.73880 4615.73880  106.41258    2.25114    0.33629  138.84017    -999.25    1.92966
 4615.89120 4615.89120  106.62106    2.24989    0.33647  138.72420    -999.25    1.92957
 4616.04360 4616.04360  106.73101    2.24791    0.33676  138.60822    -999.25    1.92814
 4616.19600 4616.19600  106.59507    2.24410    0.33731  138.49224    -999.25    1.92338
 4616.34840 4616.34840  106.45913    2.24029    0.33785  138.37627    -999.25    1.91863
 4616.50080 4616.50080  106.31717    2.23650    0.33841  138.26107    -999.25    1.91378
 4616.65320 4616.65320  105.03442    2.23708    0.34051  138.29421    -999.25    1.89166
 4616.80560 4616.80560  103.75166    2.23766    0.34262  138.32734    -999.25    1.86953
 4616.95800 4616.95800  102.46891    2.23824    0.34472  138.36047    -999.25    1.84740
 4617.11040 4617.11040  101.88376    2.23809    0.34585  138.39360    -999.25    1.83147
 4617.26280 4617.26280  101.56399    2.23766    0.34661  138.42673    -999.25    1.81791
 4617.41520 4617.41520  101.24423    2.23724    0.34738  138.45986    -999.25    1.80435
 4617.56760 4617.56760  101.18029    2.23814    0.34781  138.49298    -999.25    1.79564
