~Version ---------------------------------------------------
VERS.   2.0 : CWLS log ASCII Standard -VERSION 2.0
WRAP.    NO : One line per depth step
DLM . SPACE : Column Data Section Delimiter
~Well ------------------------------------------------------
STRT  .m                4000.50000 : START DEPTH
STOP  .m                5516.88000 : STOP DEPTH
STEP  .m                   0.15240 : STEP
NULL  .                    -999.25 : NULL VALUE
COMP  .                            : COMPANY
WELL  .                         X3 : WELL
FLD   .                            : FIELD
LOC   .                            : LOCATION
PROV  .                            : PROVINCE
CNTY  .                            : COUNTY
STAT  .                            : STATE
CTRY  .                            : COUNTRY
SRVC  .                            : SERVICE COMPANY
DATE  . 2024-04-15 17:03:00.591302 : DATE
UWI   .                            : UNIQUE WELL ID
API   .                            : API NUMBER
LIC   .                            : 
LATI  .                            : 
LONG  .                            : 
NS    .                            : 
EW    .                            : 
XCOORD.                            : 
YCOORD.                            : 
GDAT  .                            : 
SECT  .                            : 
RANG  .                            : 
TOWN  .                            : 
~Curve Information -----------------------------------------
DEPT .m      : 
DEPTH.None   : None
GR   .GAPI   : None
RHOB .g/cc   : None
NPHI .v/v    : None
DTC  .None   : None
PEF  .None   : None
RT   .ohm.m  : None
~Params ----------------------------------------------------
EKB.      : 
EGL.      : 
KB .      : 
GL .      : 
TD .      : 
TDD.      : 
TDL.      : 
~Other -----------------------------------------------------
~ASCII -----------------------------------------------------
# ...
 5111.49600 5111.49600   29.73832    2.42578    0.20084   83.30640    -999.25    2.59867
 5111.64840 5111.64840   29.89239    2.43090    0.19411   82.97352    -999.25    2.73905
 5111.80080 5111.80080   30.07188    2.43593    0.18734   82.63824    -999.25    2.88020
 5111.95320 5111.95320   30.25138    2.44096    0.18058   82.30296    -999.25    3.02135
 5112.10560 5112.10560   29.86589    2.44560    0.17259   82.83360    -999.25    3.09437
 5112.25800 5112.25800   29.23002    2.45009    0.16405   83.74800    -999.25    3.13720
 5112.41040 5112.41040   28.59415    2.45457    0.15552   84.66240    -999.25    3.18002
 5112.56280 5112.56280   29.32970    2.45951    0.14906   85.32560    -999.25    3.17831
 5112.71520 5112.71520   32.02194    2.46512    0.14555   85.63040    -999.25    3.11305
 5112.86760 5112.86760   34.71417    2.47073    0.14205   85.93520    -999.25    3.04779
 5113.02000 5113.02000   36.98309    2.47574    0.13947   86.17600    -999.25    2.97073
 5113.17240 5113.17240   36.44960    2.47681    0.14307   85.99312    -999.25    2.81549
 5113.32480 5113.32480   35.91611    2.47787    0.14667   85.81024    -999.25    2.66026
 5113.47720 5113.47720   35.38261    2.47894    0.15026   85.62736    -999.25    2.50502
 5113.62960 5113.62960   35.39212    2.48053    0.15526   85.85920    -999.25    2.52151
 5113.78200 5113.78200   35.49715    2.48220    0.16050   86.16400    -999.25    2.56820
 5113.93440 5113.93440   35.60219    2.48388    0.16574   86.46880    -999.25    2.61490
 5114.08680 5114.08680   34.11909    2.48208    0.17097   87.31176    -999.25    2.57051
 5114.23920 5114.23920   31.43576    2.47766    0.17618   88.56144    -999.25    2.45727
 5114.39160 5114.39160   28.75242    2.47324    0.18139   89.81112    -999.25    2.34404
 5114.54400 5114.54400   26.62355    2.46772    0.18546   90.70000    -999.25    2.27482
 5114.69640 5114.69640   25.86070    2.45946    0.18671   90.70000    -999.25    2.31401
 5114.84880 5114.84880   25.09785    2.45120    0.18796   90.70000    -999.25    2.35321
 5115.00120 5115.00120   24.35171    2.44301    0.18919   90.70264    -999.25    2.39152
 5115.15360 5115.15360   25.71173    2.44414    0.18785   91.03792    -999.25    2.31745
 5115.30600 5115.30600   27.07174    2.44526    0.18651   91.37320    -999.25    2.24338
 5115.45840 5115.45840   28.43176    2.44639    0.18517   91.70848    -999.25    2.16932
 5115.61080 5115.61080   28.75635    2.44898    0.18385   92.77504    -999.25    2.07034
 5115.76320 5115.76320   28.69219    2.45212    0.18254   94.11616    -999.25    1.96202
 5115.91560 5115.91560   28.62803    2.45526    0.18123   95.45728    -999.25    1.85369
 5116.06800 5116.06800   28.50373    2.45485    0.18299   96.15920    -999.25    1.78753
 5116.22040 5116.22040   28.30479    2.45004    0.18857   96.06776    -999.25    1.77369
 5116.37280 5116.37280   28.10585    2.44522    0.19414   95.97632    -999.25    1.75985
 5116.52520 5116.52520   27.65041    2.43864    0.19986   95.72864    -999.25    1.74991
 5116.67760 5116.67760   25.90028    2.42319    0.20626   94.69232    -999.25    1.75967
 5116.83000 5116.83000   24.15015    2.40774    0.21266   93.65600    -999.25    1.76942
 5116.98240 5116.98240   22.40001    2.39228    0.21906   92.61968    -999.25    1.77917
 5117.13480 5117.13480   23.18906    2.37864    0.22333   93.90192    -999.25    1.72433
 5117.28720 5117.28720   24.30962    2.36523    0.22732   95.48688    -999.25    1.66105
 5117.43960 5117.43960   25.43019    2.35182    0.23132   97.07184    -999.25    1.59778
 5117.59200 5117.59200   25.51811    2.34549    0.23191   97.27680    -999.25    1.59509
 5117.74440 5117.74440   24.92808    2.34381    0.23026   96.57576    -999.25    1.63219
 5117.89680 5117.89680   24.33805    2.34214    0.22861   95.87472    -999.25    1.66928
 5118.04920 5118.04920   23.87736    2.34148    0.22646   95.08512    -999.25    1.70665
 5118.20160 5118.20160   23.68799    2.34298    0.22323   94.10976    -999.25    1.74460
 5118.35400 5118.35400   23.49862    2.34447    0.22000   93.13440    -999.25    1.78255
 5118.50640 5118.50640   23.29509    2.34611    0.21691   92.23584    -999.25    1.82135
 5118.65880 5118.65880   22.76848    2.35114    0.21715   93.08928    -999.25    1.87972
 5118.81120 5118.81120   22.24188    2.35617    0.21740   93.94272    -999.25    1.93809
 5118.96360 5118.96360   21.71528    2.36120    0.21764   94.79616    -999.25    1.99646
 5119.11600 5119.11600   21.98548    2.36354    0.21779   94.79120    -999.25    2.00075
 5119.26840 5119.26840   22.50571    2.36503    0.21791   94.51688    -999.25    1.98807
 5119.42080 5119.42080   23.02594    2.36652    0.21804   94.24256    -999.25    1.97539
 5119.57320 5119.57320   23.47362    2.36882    0.21806   93.58760    -999.25    2.01011
 5119.72560 5119.72560   23.84279    2.37199    0.21796   92.52080    -999.25    2.09613
 5119.87800 5119.87800   24.21197    2.37516    0.21787   91.45400    -999.25    2.18214
 5120.03040 5120.03040   24.44027    2.37993    0.21703   90.69728    -999.25    2.25656
 5120.18280 5120.18280   24.10326    2.39112    0.21319   91.18496    -999.25    2.28442
 5120.33520 5120.33520   23.76624    2.40230    0.20935   91.67264    -999.25    2.31227
 5120.48760 5120.48760   23.42922    2.41349    0.20551   92.16032    -999.25    2.34013
 5120.64000 5120.64000   24.15741    2.41972    0.20075   91.41600    -999.25    2.37494
 5120.79240 5120.79240   24.97994    2.42551    0.19590   90.56256    -999.25    2.41035
 5120.94480 5120.94480   25.80247    2.43130    0.19106   89.70912    -999.25    2.44577
 5121.09720 5121.09720   25.81146    2.43686    0.18658   89.08896    -999.25    2.48523
 5121.24960 5121.24960   25.35844    2.44229    0.18231   88.60128    -999.25    2.52699
 5121.40200 5121.40200   24.90541    2.44771    0.17804   88.11360    -999.25    2.56875
 5121.55440 5121.55440   24.62741    2.44931    0.17509   87.59328    -999.25    2.62115
 5121.70680 5121.70680   24.66468    2.44400    0.17451   87.01416    -999.25    2.69271
 5121.85920 5121.85920   24.70196    2.43870    0.17394   86.43504    -999.25    2.76428
 5122.01160 5122.01160   24.70219    2.43363    0.17339   85.87448    -999.25    2.84070
 5122.16400 5122.16400   24.25280    2.43144    0.17327   85.53920    -999.25    2.97597
 5122.31640 5122.31640   23.80340    2.42924    0.17315   85.20392    -999.25    3.11124
 5122.46880 5122.46880   23.35400    2.42705    0.17302   84.86864    -999.25    3.24651
 5122.62120 5122.62120   23.40298    2.42973    0.17351   84.24248    -999.25    3.33487
 5122.77360 5122.77360   23.58025    2.43366    0.17415   83.54144    -999.25    3.41116
 5122.92600 5122.92600   23.75752    2.43759    0.17479   82.84040    -999.25    3.48746
 5123.07840 5123.07840   24.28215    2.44323    0.17372   82.45296    -999.25    3.57331
 5123.23080 5123.23080   25.13465    2.45049    0.17104   82.36152    -999.25    3.66820
 5123.38320 5123.38320   25.98714    2.45774    0.16836   82.27008    -999.25    3.76308
 5123.53560 5123.53560   26.66658    2.46273    0.16610   82.00776    -999.25    3.86651
 5123.68800 5123.68800   26.77823    2.46029    0.16525   81.18480    -999.25    3.99797
 5123.84040 5123.84040   26.88988    2.45785    0.16439   80.36184    -999.25    4.12943
 5123.99280 5123.99280   27.00153    2.45542    0.16354   79.53888    -999.25    4.26089
 5124.14520 5124.14520   26.68219    2.45576    0.16437   79.41288    -999.25    4.44506
 5124.29760 5124.29760   26.34149    2.45625    0.16529   79.32144    -999.25    4.63184
 5124.45000 5124.45000   26.00078    2.45674    0.16620   79.23000    -999.25    4.81862
 5124.60240 5124.60240   25.60677    2.45893    0.16537   78.72896    -999.25    4.97069
 5124.75480 5124.75480   25.18672    2.46195    0.16370   78.02792    -999.25    5.10581
 5124.90720 5124.90720   24.76668    2.46496    0.16202   77.32688    -999.25    5.24092
 5125.05960 5125.05960   24.54994    2.47032    0.15878   76.88808    -999.25    5.37238
