~Version ---------------------------------------------------
VERS.   2.0 : CWLS log ASCII Standard -VERSION 2.0
WRAP.    NO : One line per depth step
DLM . SPACE : Column Data Section Delimiter
~Well ------------------------------------------------------
STRT  .m                4000.50000 : START DEPTH
STOP  .m                5516.88000 : STOP DEPTH
STEP  .m                   0.15240 : STEP
NULL  .                    -999.25 : NULL VALUE
COMP  .                            : COMPANY
WELL  .                         X3 : WELL
FLD   .                            : FIELD
LOC   .                            : LOCATION
PROV  .                            : PROVINCE
CNTY  .                            : COUNTY
STAT  .                            : STATE
CTRY  .                            : COUNTRY
SRVC  .                            : SERVICE COMPANY
DATE  . 2024-04-15 17:03:00.591302 : DATE
UWI   .                            : UNIQUE WELL ID
API   .                            : API NUMBER
LIC   .                            : 
LATI  .                            : 
LONG  .                            : 
NS    .                            : 
EW    .                            : 
XCOORD.                            : 
YCOORD.                            : 
GDAT  .                            : 
SECT  .                            : 
RANG  .                            : 
TOWN  .                            : 
~Curve Information -----------------------------------------
DEPT .m      : 
DEPTH.None   : None
GR   .GAPI   : None
RHOB .g/cc   : None
NPHI .v/v    : None
DTC  .None   : None
PEF  .None   : None
RT   .ohm.m  : None
~Params ----------------------------------------------------
EKB.      : 
EGL.      : 
KB .      : 
GL .      : 
TD .      : 
TDD.      : 
TDL.      : 
~Other -----------------------------------------------------
~ASCII -----------------------------------------------------
# ...
 4178.80800 4178.80800   98.39300    2.27305    0.39078  136.43574    -999.25    1.20374
 4178.96040 4178.96040   97.78340    2.27293    0.39492  136.43007    -999.25    1.20371
 4179.11280 4179.11280   96.51110    2.27274    0.39248  136.42438    -999.25    1.20296
 4179.26520 4179.26520   95.00615    2.27253    0.38773  136.41868    -999.25    1.20195
 4179.41760 4179.41760   93.50120    2.27232    0.38297  136.41298    -999.25    1.20094
 4179.57000 4179.57000   92.69625    2.27126    0.37935  136.40730    -999.25    1.20023
 4179.72240 4179.72240   92.71530    2.26922    0.37706  136.40163    -999.25    1.19987
 4179.87480 4179.87480   92.73435    2.26718    0.37478  136.39596    -999.25    1.19950
 4180.02720 4180.02720   92.85540    2.26571    0.37248  136.39029    -999.25    1.19922
 4180.17960 4180.17960   93.44595    2.26690    0.37013  136.38462    -999.25    1.19931
 4180.33200 4180.33200   94.03650    2.26809    0.36779  136.37895    -999.25    1.19940
 4180.48440 4180.48440   94.62705    2.26928    0.36544  136.37328    -999.25    1.19949
 4180.63680 4180.63680   94.41390    2.26976    0.36298  136.36758    -999.25    1.19852
 4180.78920 4180.78920   94.10910    2.27015    0.36051  136.36188    -999.25    1.19742
 4180.94160 4180.94160   93.80430    2.27055    0.35805  136.35618    -999.25    1.19632
 4181.09400 4181.09400   93.38200    2.27014    0.35533  136.35050    -999.25    1.19637
 4181.24640 4181.24640   92.88670    2.26922    0.35247  136.34483    -999.25    1.19713
 4181.39880 4181.39880   92.39140    2.26831    0.34960  136.33916    -999.25    1.19789
 4181.55120 4181.55120   91.97290    2.26649    0.34776  136.33350    -999.25    1.19891
 4181.70360 4181.70360   91.70620    2.26290    0.34794  136.32783    -999.25    1.20044
 4181.85600 4181.85600   91.43950    2.25930    0.34813  136.32216    -999.25    1.20196
 4182.00840 4182.00840   91.21375    2.25589    0.34855  136.31649    -999.25    1.20344
 4182.16080 4182.16080   91.69000    2.25567    0.35303  136.31079    -999.25    1.20420
 4182.31320 4182.31320   92.16625    2.25546    0.35751  136.30509    -999.25    1.20497
 4182.46560 4182.46560   92.64250    2.25525    0.36199  136.29939    -999.25    1.20573
 4182.61800 4182.61800   93.17775    2.25638    0.36321  136.29371    -999.25    1.20715
 4182.77040 4182.77040   93.73020    2.25790    0.36349  136.28804    -999.25    1.20877
 4182.92280 4182.92280   94.28265    2.25943    0.36376  136.28237    -999.25    1.21038
 4183.07520 4183.07520   94.75990    2.26061    0.36216  136.27670    -999.25    1.21097
 4183.22760 4183.22760   95.15995    2.26143    0.35862  136.27103    -999.25    1.21052
 4183.38000 4183.38000   95.56000    2.26225    0.35508  136.26536    -999.25    1.21006
 4183.53240 4183.53240   96.02485    2.26261    0.35131  136.25969    -999.25    1.20955
 4183.68480 4183.68480   96.72970    2.26127    0.34665  136.25399    -999.25    1.20885
 4183.83720 4183.83720   97.43455    2.25993    0.34198  136.24829    -999.25    1.20815
 4183.98960 4183.98960   98.13940    2.25859    0.33732  136.24259    -999.25    1.20745
 4184.14200 4184.14200   97.77925    2.25637    0.33657  136.23692    -999.25    1.20950
 4184.29440 4184.29440   97.34110    2.25408    0.33612  136.23125    -999.25    1.21176
 4184.44680 4184.44680   96.90295    2.25180    0.33566  136.22558    -999.25    1.21401
 4184.59920 4184.59920   96.81200    2.24872    0.33792  136.21991    -999.25    1.21839
 4184.75160 4184.75160   96.90725    2.24521    0.34164  136.21424    -999.25    1.22391
 4184.90400 4184.90400   97.00250    2.24171    0.34536  136.20857    -999.25    1.22942
 4185.05640 4185.05640   96.83690    2.23876    0.34821  136.20289    -999.25    1.23622
 4185.20880 4185.20880   96.22730    2.23674    0.34958  136.19719    -999.25    1.24518
 4185.36120 4185.36120   95.61770    2.23473    0.35095  136.19149    -999.25    1.25414
 4185.51360 4185.51360   95.03360    2.23310    0.35240  136.18579    -999.25    1.26329
 4185.66600 4185.66600   94.70975    2.23532    0.35462  136.18012    -999.25    1.27442
 4185.81840 4185.81840   94.38590    2.23755    0.35685  136.17446    -999.25    1.28554
 4185.97080 4185.97080   94.06205    2.23977    0.35907  136.16879    -999.25    1.29667
 4186.12320 4186.12320   93.47640    2.24247    0.35834  136.16312    -999.25    1.30767
 4186.27560 4186.27560   92.82870    2.24527    0.35691  136.15745    -999.25    1.31864
 4186.42800 4186.42800   92.18100    2.24808    0.35548  136.15178    -999.25    1.32962
 4186.58040 4186.58040   91.78455    2.25091    0.35713  136.14609    -999.25    1.33877
 4186.73280 4186.73280   91.61310    2.25378    0.36155  136.14039    -999.25    1.34630
 4186.88520 4186.88520   91.44165    2.25664    0.36597  136.13469    -999.25    1.35383
 4187.03760 4187.03760   91.44880    2.25911    0.36899  136.12900    -999.25    1.36091
 4187.19000 4187.19000   92.00125    2.26036    0.36774  136.12333    -999.25    1.36661
 4187.34240 4187.34240   92.55370    2.26161    0.36649  136.11766    -999.25    1.37231
 4187.49480 4187.49480   93.10615    2.26286    0.36524  136.11199    -999.25    1.37801
 4187.64720 4187.64720   92.95940    2.26364    0.36717  136.10632    -999.25    1.38144
 4187.79960 4187.79960   92.78795    2.26440    0.36921  136.10065    -999.25    1.38479
 4187.95200 4187.95200   92.61650    2.26516    0.37126  136.09499    -999.25    1.38814
 4188.10440 4188.10440   92.17100    2.26609    0.36729  136.08930    -999.25    1.39049
 4188.25680 4188.25680   91.59950    2.26709    0.36055  136.08360    -999.25    1.39238
 4188.40920 4188.40920   91.02800    2.26810    0.35381  136.07790    -999.25    1.39427
 4188.56160 4188.56160   91.07250    2.26909    0.35048  136.07221    -999.25    1.39607
 4188.71400 4188.71400   92.02500    2.27007    0.35215  136.06654    -999.25    1.39771
 4188.86640 4188.86640   92.97750    2.27104    0.35383  136.06087    -999.25    1.39936
 4189.01880 4189.01880   94.00520    2.27179    0.35418  136.05520    -999.25    1.40128
 4189.17120 4189.17120   95.56730    2.27087    0.34506  136.04953    -999.25    1.40518
 4189.32360 4189.32360   97.12940    2.26996    0.33595  136.04386    -999.25    1.40908
 4189.47600 4189.47600   98.69150    2.26904    0.32684  136.03819    -999.25    1.41299
 4189.62840 4189.62840   99.77210    2.26384    0.32799  136.03250    -999.25    1.41809
 4189.78080 4189.78080  100.76270    2.25784    0.33107  136.02680    -999.25    1.42343
 4189.93320 4189.93320  101.75330    2.25183    0.33415  136.02110    -999.25    1.42876
 4190.08560 4190.08560  101.88790    2.24721    0.33593  136.01542    -999.25    1.43504
 4190.23800 4190.23800  101.35450    2.24368    0.33669  136.00975    -999.25    1.44205
 4190.39040 4190.39040  100.82110    2.24014    0.33745  136.00408    -999.25    1.44906
 4190.54280 4190.54280  100.00415    2.23738    0.33984  135.99841    -999.25    1.45605
 4190.69520 4190.69520   98.46110    2.23658    0.34639  135.99274    -999.25    1.46300
 4190.84760 4190.84760   96.91805    2.23579    0.35295  135.98707    -999.25    1.46995
 4191.00000 4191.00000   95.37500    2.23500    0.35950  135.98140    -999.25    1.47690
 4191.15240 4191.15240   96.44180    2.23613    0.35761  135.97570    -999.25    1.48031
 4191.30480 4191.30480   97.50860    2.23726    0.35572  135.97000    -999.25    1.48373
 4191.45720 4191.45720   98.57540    2.23838    0.35383  135.96430    -999.25    1.48714
 4191.60960 4191.60960   98.79280    2.23866    0.35367  135.95862    -999.25    1.49185
 4191.76200 4191.76200   98.67850    2.23860    0.35419  135.95295    -999.25    1.49706
 4191.91440 4191.91440   98.56420    2.23853    0.35471  135.94728    -999.25    1.50227
 4192.06680 4192.06680   99.04275    2.23871    0.35330  135.94162    -999.25    1.50774
 4192.21920 4192.21920  100.28100    2.23920    0.34943  135.93595    -999.25    1.51353
 4192.37160 4192.37160  101.51925    2.23969    0.34556  135.93028    -999.25    1.51932
