~Version ---------------------------------------------------
VERS.   2.0 : CWLS log ASCII Standard -VERSION 2.0
WRAP.    NO : One line per depth step
DLM . SPACE : Column Data Section Delimiter
~Well ------------------------------------------------------
STRT  .m                4000.50000 : START DEPTH
STOP  .m                5516.88000 : STOP DEPTH
STEP  .m                   0.15240 : STEP
NULL  .                    -999.25 : NULL VALUE
COMP  .                            : COMPANY
WELL  .                         X3 : WELL
FLD   .                            : FIELD
LOC   .                            : LOCATION
PROV  .                            : PROVINCE
CNTY  .                            : COUNTY
STAT  .                            : STATE
CTRY  .                            : COUNTRY
SRVC  .                            : SERVICE COMPANY
DATE  . 2024-04-15 17:03:00.591302 : DATE
UWI   .                            : UNIQUE WELL ID
API   .                            : API NUMBER
LIC   .                            : 
LATI  .                            : 
LONG  .                            : 
NS    .                            : 
EW    .                            : 
XCOORD.                            : 
YCOORD.                            : 
GDAT  .                            : 
SECT  .                            : 
RANG  .                            : 
TOWN  .                            : 
~Curve Information -----------------------------------------
DEPT .m      : 
DEPTH.None   : None
GR   .GAPI   : None
RHOB .g/cc   : None
NPHI .v/v    : None
DTC  .None   : None
PEF  .None   : None
RT   .ohm.m  : None
~Params ----------------------------------------------------
EKB.      : 
EGL.      : 
KB .      : 
GL .      : 
TD .      : 
TDD.      : 
TDL.      : 
~Other -----------------------------------------------------
~ASCII -----------------------------------------------------
# ...
 4864.60800 4864.60800   23.10231    1.96915    0.15270  131.91082    -999.25 2000.00000
 4864.76040 4864.76040   23.33712    1.99534    0.14733  131.51982    -999.25 2000.00000
 4864.91280 4864.91280   23.57194    2.02152    0.14197  131.12882    -999.25 2000.00000
 4865.06520 4865.06520   23.93127    2.03778    0.13818  131.29541    -999.25 2000.00000
 4865.21760 4865.21760   24.45711    2.04076    0.13651  132.20774    -999.25 2000.00000
 4865.37000 4865.37000   24.98295    2.04375    0.13483  133.12007    -999.25 2000.00000
 4865.52240 4865.52240   25.20118    2.04195    0.13324  134.03240    -999.25 2000.00000
 4865.67480 4865.67480   23.63421    2.01239    0.13214  134.94476    -999.25 2000.00000
 4865.82720 4865.82720   22.06723    1.98282    0.13104  135.85712    -999.25 2000.00000
 4865.97960 4865.97960   20.50025    1.95326    0.12995  136.76947    -999.25 2000.00000
 4866.13200 4866.13200   21.40965    1.92778    0.12872  139.03647    -999.25 2000.00000
 4866.28440 4866.28440   22.70176    1.90294    0.12747  141.51282    -999.25 2000.00000
 4866.43680 4866.43680   23.99387    1.87810    0.12622  143.98916    -999.25 2000.00000
 4866.58920 4866.58920   24.68755    1.86462    0.12404  145.30216    -999.25 2000.00000
 4866.74160 4866.74160   24.95724    1.85920    0.12121  145.79091    -999.25 2000.00000
 4866.89400 4866.89400   25.22692    1.85377    0.11837  146.27966    -999.25 2000.00000
 4867.04640 4867.04640   25.29246    1.85000    0.11525  146.76840    -999.25 2000.00000
 4867.19880 4867.19880   24.89162    1.85000    0.11147  147.25715    -999.25 2000.00000
 4867.35120 4867.35120   24.49077    1.85000    0.10769  147.74590    -999.25 2000.00000
 4867.50360 4867.50360   24.09049    1.85000    0.10397  148.23465    -999.25 2000.00000
 4867.65600 4867.65600   23.71318    1.85000    0.10266  148.72342    -999.25 2000.00000
 4867.80840 4867.80840   23.33586    1.85000    0.10135  149.21220    -999.25 2000.00000
 4867.96080 4867.96080   22.95855    1.85000    0.10004  149.70098    -999.25 2000.00000
 4868.11320 4868.11320   24.06228    1.85000    0.09952  150.18973    -999.25 2000.00000
 4868.26560 4868.26560   25.67888    1.85000    0.09928  150.67848    -999.25 2000.00000
 4868.41800 4868.41800   27.29548    1.85000    0.09903  151.16723    -999.25 2000.00000
 4868.57040 4868.57040   28.24347    1.85000    0.10027  151.43020    -999.25 2000.00000
 4868.72280 4868.72280   28.41270    1.85000    0.10322  151.43020    -999.25 2000.00000
 4868.87520 4868.87520   28.58192    1.85000    0.10618  151.43020    -999.25 2000.00000
 4869.02760 4869.02760   28.72652    1.85000    0.11025  151.39479    -999.25 1965.07798
 4869.18000 4869.18000   28.75974    1.85000    0.11936  151.19930    -999.25 1772.24781
 4869.33240 4869.33240   28.79296    1.85000    0.12848  151.00380    -999.25 1579.41765
 4869.48480 4869.48480   28.82619    1.85000    0.13759  150.80830    -999.25 1386.58748
 4869.63720 4869.63720   28.57782    1.85000    0.15639  150.61280    -999.25 1257.39636
 4869.78960 4869.78960   28.29826    1.85000    0.17626  150.41730    -999.25 1135.25563
 4869.94200 4869.94200   28.01870    1.85000    0.19614  150.22180    -999.25 1013.11489
 4870.09440 4870.09440   28.44211    1.86312    0.21488  147.48324    -999.25  944.99525
 4870.24680 4870.24680   29.29744    1.88431    0.23292  143.18221    -999.25  910.06651
 4870.39920 4870.39920   30.15277    1.90549    0.25097  138.88118    -999.25  875.13777
 4870.55160 4870.55160   30.82754    1.92871    0.26786  135.90401    -999.25  852.97379
 4870.70400 4870.70400   31.14959    1.95589    0.28252  135.51302    -999.25  855.74561
 4870.85640 4870.85640   31.47164    1.98308    0.29719  135.12202    -999.25  858.51743
 4871.00880 4871.00880   31.73461    2.01024    0.31072  134.73102    -999.25  862.26881
 4871.16120 4871.16120   31.03342    2.03688    0.30594  134.33999    -999.25  882.00476
 4871.31360 4871.31360   30.33223    2.06352    0.30115  133.94897    -999.25  901.74072
 4871.46600 4871.46600   29.63103    2.09016    0.29637  133.55794    -999.25  921.47667
 4871.61840 4871.61840   29.78258    2.08322    0.29409  133.47070    -999.25  941.49276
 4871.77080 4871.77080   30.17901    2.06664    0.29254  133.47070    -999.25  961.58929
 4871.92320 4871.92320   30.57543    2.05006    0.29098  133.47070    -999.25  981.68582
 4872.07560 4872.07560   30.30361    2.02930    0.28656  133.47070    -999.25  997.93969
 4872.22800 4872.22800   29.35294    2.00431    0.27921  133.47070    -999.25 1010.28991
 4872.38040 4872.38040   28.40226    1.97931    0.27186  133.47070    -999.25 1022.64013
 4872.53280 4872.53280   27.64265    1.95807    0.26668  133.47070    -999.25 1037.35005
 4872.68520 4872.68520   27.57968    1.95051    0.26940  133.47070    -999.25 1060.66420
 4872.83760 4872.83760   27.51670    1.94296    0.27211  133.47070    -999.25 1083.97835
 4872.99000 4872.99000   27.45373    1.93540    0.27482  133.47070    -999.25 1107.29250
 4873.14240 4873.14240   27.53814    1.95592    0.27600  133.47070    -999.25 1151.85823
 4873.29480 4873.29480   27.63291    1.97841    0.27706  133.47070    -999.25 1197.91635
 4873.44720 4873.44720   27.72767    2.00091    0.27813  133.47070    -999.25 1243.97446
 4873.59960 4873.59960   27.15977    2.01884    0.27979  132.70410    -999.25 1310.79908
 4873.75200 4873.75200   26.24059    2.03435    0.28178  131.53111    -999.25 1388.63245
 4873.90440 4873.90440   25.32140    2.04987    0.28376  130.35811    -999.25 1466.46581
 4874.05680 4874.05680   24.79686    2.06099    0.28426  129.52515    -999.25 1570.35343
 4874.20920 4874.20920   24.93655    2.06470    0.28228  129.26448    -999.25 1718.09292
 4874.36160 4874.36160   25.07624    2.06842    0.28030  129.00382    -999.25 1865.83240
 4874.51400 4874.51400   25.08441    2.07204    0.27846  128.74315    -999.25 2000.00000
 4874.66640 4874.66640   23.79243    2.07470    0.27800  128.48249    -999.25 2000.00000
 4874.81880 4874.81880   22.50044    2.07735    0.27754  128.22182    -999.25 2000.00000
 4874.97120 4874.97120   21.20845    2.08000    0.27709  127.96116    -999.25 2000.00000
 4875.12360 4875.12360   20.61891    2.09785    0.26709  127.70047    -999.25 2000.00000
 4875.27600 4875.27600   20.19305    2.11925    0.25486  127.43977    -999.25 2000.00000
 4875.42840 4875.42840   19.76718    2.14065    0.24264  127.17908    -999.25 2000.00000
 4875.58080 4875.58080   19.78348    2.16027    0.22913  126.64200    -999.25 2000.00000
 4875.73320 4875.73320   20.19161    2.17831    0.21447  125.86000    -999.25 2000.00000
 4875.88560 4875.88560   20.59974    2.19636    0.19981  125.07801    -999.25 2000.00000
 4876.03800 4876.03800   20.91393    2.20543    0.18473  124.49100    -999.25 2000.00000
 4876.19040 4876.19040   20.94532    2.18751    0.16839  124.49100    -999.25 2000.00000
 4876.34280 4876.34280   20.97672    2.16959    0.15205  124.49100    -999.25 2000.00000
 4876.49520 4876.49520   21.00811    2.15166    0.13571  124.49100    -999.25 2000.00000
 4876.64760 4876.64760   21.64449    2.12379    0.13582  124.49100    -999.25 2000.00000
 4876.80000 4876.80000   22.30054    2.09560    0.13646  124.49100    -999.25 2000.00000
 4876.95240 4876.95240   22.95659    2.06741    0.13710  124.49100    -999.25 2000.00000
 4877.10480 4877.10480   23.70508    2.05202    0.14130  125.29765    -999.25 2000.00000
 4877.25720 4877.25720   24.49555    2.04245    0.14713  126.47067    -999.25 2000.00000
 4877.40960 4877.40960   25.28601    2.03288    0.15295  127.64369    -999.25 2000.00000
 4877.56200 4877.56200   25.54691    2.03724    0.15536  128.18042    -999.25 1937.51650
 4877.71440 4877.71440   25.03567    2.06193    0.15280  127.78939    -999.25 1783.92809
 4877.86680 4877.86680   24.52443    2.08662    0.15024  127.39836    -999.25 1630.33967
 4878.01920 4878.01920   24.16436    2.11026    0.14724  127.02376    -999.25 1475.43187
 4878.17160 4878.17160   24.85303    2.12660    0.14120  126.76310    -999.25 1311.37083
