~Version ---------------------------------------------------
VERS.   2.0 : CWLS log ASCII Standard -VERSION 2.0
WRAP.    NO : One line per depth step
DLM . SPACE : Column Data Section Delimiter
~Well ------------------------------------------------------
STRT  .m                4000.50000 : START DEPTH
STOP  .m                5517.00000 : STOP DEPTH
STEP  .m                   0.50000 : STEP
NULL  .                    -999.25 : NULL VALUE
COMP  .                            : COMPANY
WELL  .                     X3.las : WELL
FLD   .                            : FIELD
LOC   .                            : LOCATION
PROV  .                            : PROVINCE
CNTY  .                            : COUNTY
STAT  .                            : STATE
CTRY  .                            : COUNTRY
SRVC  .                            : SERVICE COMPANY
DATE  . 2024-04-14 16:30:14.689995 : DATE
UWI   .                            : UNIQUE WELL ID
API   .                            : API NUMBER
LIC   .                            : 
LATI  .                            : 
LONG  .                            : 
NS    .                            : 
EW    .                            : 
XCOORD.                            : 
YCOORD.                            : 
GDAT  .                            : 
SECT  .                            : 
RANG  .                            : 
TOWN  .                            : 
~Curve Information -----------------------------------------
DEPT      .m      : 
DEPTH     .None   : None
DTC       .None   : None
GR        .GAPI   : None
NPHI      .v/v    : None
NPHIHC    .None   : None
PEF       .None   : None
PERM      .mD     : None
PHIE      .v/v    : None
PHIT      .v/v    : None
RHOB      .g/cc   : None
RHOBFC    .None   : None
RHOBHC    .None   : None
ROCKTYPE  .None   : None
RT        .ohm.m  : None
SW_J      .None   : None
SWE       .v/v    : None
SWT       .v/v    : None
TVDSS     .None   : None
VCALC     .None   : None
VCLB      .None   : None
VCLD      .None   : None
VCLW      .None   : None
VCOAL     .None   : None
VDOLO     .None   : None
VGAS      .None   : None
VOIL      .None   : None
VSAND     .v/v    : None
VSHALE    .v/v    : None
VSILT     .v/v    : None
VWATER    .None   : None
BADHOLE   .None   : None
BS        .None   : None
CALI      .None   : None
COAL_FLAG .None   : None
PERFORATED.None   : None
~Params ----------------------------------------------------
EKB.      : 
EGL.      : 
KB .      : 
GL .      : 
TD .      : 
TDD.      : 
TDL.      : 
~Other -----------------------------------------------------
~ASCII -----------------------------------------------------
# ...
 4179.00000 4179.00000  136.42860   97.62500    0.39600    0.49756    -999.25   16.41558    0.10784    0.22091    2.27290    2.36016    2.36016    2.00000    1.20370    1.00000    1.00000    1.00000 1247.87629    0.16246    0.11307    0.61663    0.72970    -999.25    0.00000    0.00000    0.00000    0.00000    -999.25    0.00000    0.10784    0.00000    0.00000    0.00000    0.00000    0.00000
 4179.50000 4179.50000  136.40990   92.68750    0.38040    0.47518    -999.25   17.84768    0.11875    0.22401    2.27220    2.35390    2.35390    2.00000    1.20040    1.00000    1.00000    1.00000 1248.02863    0.20422    0.10526    0.57178    0.67704    -999.25    0.00000    0.00000    0.00000    0.00000    -999.25    0.00000    0.11875    0.00000    0.00000    0.00000    0.00000    0.00000
 4180.00000 4180.00000  136.39130   92.75000    0.37290    0.47767    -999.25   16.95505    0.11563    0.22210    2.26550    2.35736    2.35736    2.00000    1.19920    1.00000    1.00000    1.00000 1248.18098    0.19815    0.10647    0.57975    0.68622    -999.25    0.00000    0.00000    0.00000    0.00000    -999.25    0.00000    0.11563    0.00000    0.00000    0.00000    0.00000    0.00000
 4180.50000 4180.50000  136.37270   94.68750    0.36520    0.47800    -999.25   13.88060    0.10669    0.21482    2.26940    2.37025    2.37025    2.00000    1.19950    1.00000    1.00000    1.00000 1248.33333    0.19091    0.10812    0.59427    0.70239    -999.25    0.00000    0.00000    0.00000    0.00000    -999.25    0.00000    0.10669    0.00000    0.00000    0.00000    0.00000    0.00000
 4181.00000 4181.00000  136.35400   93.68750    0.35710    0.47438    -999.25   12.44234    0.10314    0.21094    2.27070    2.37699    2.37699    2.00000    1.19590    1.00000    1.00000    1.00000 1248.48567    0.19367    0.10779    0.59539    0.70318    -999.25    0.00000    0.00000    0.00000    0.00000    -999.25    0.00000    0.10314    0.00000    0.00000    0.00000    0.00000    0.00000
 4181.50000 4181.50000  136.33540   92.06250    0.34770    0.46629    -999.25   12.56914    0.10612    0.21129    2.26770    2.37608    2.37608    2.00000    1.19840    1.00000    1.00000    1.00000 1248.63802    0.20806    0.10517    0.58064    0.68581    -999.25    0.00000    0.00000    0.00000    0.00000    -999.25    0.00000    0.10612    0.00000    0.00000    0.00000    0.00000    0.00000
 4182.00000 4182.00000  136.31680   91.18750    0.34830    0.46560    -999.25   15.63598    0.11586    0.21912    2.25590    2.36221    2.36221    2.00000    1.20340    1.00000    1.00000    1.00000 1248.79037    0.21641    0.10327    0.56447    0.66774    -999.25    0.00000    0.00000    0.00000    0.00000    -999.25    0.00000    0.11586    0.00000    0.00000    0.00000    0.00000    0.00000
 4182.50000 4182.50000  136.29810   92.75000    0.36300    0.47733    -999.25   17.02804    0.11593    0.22226    2.25520    2.35707    2.35707    2.00000    1.20590    1.00000    1.00000    1.00000 1248.94271    0.19888    0.10633    0.57886    0.68518    -999.25    0.00000    0.00000    0.00000    0.00000    -999.25    0.00000    0.11593    0.00000    0.00000    0.00000    0.00000    0.00000
 4183.00000 4183.00000  136.27950   94.56250    0.36390    0.48112    -999.25   15.04386    0.10922    0.21772    2.26020    2.36523    2.36523    2.00000    1.21120    1.00000    1.00000    1.00000 1249.09506    0.18815    0.10850    0.59413    0.70263    -999.25    0.00000    0.00000    0.00000    0.00000    -999.25    0.00000    0.10922    0.00000    0.00000    0.00000    0.00000    0.00000
 4183.50000 4183.50000  136.26090   95.87500    0.35230    0.47926    -999.25   11.98975    0.10004    0.20964    2.26290    2.37946    2.37946    2.00000    1.20970    1.00000    1.00000    1.00000 1249.24741    0.18399    0.10960    0.60637    0.71597    -999.25    0.00000    0.00000    0.00000    0.00000    -999.25    0.00000    0.10004    0.00000    0.00000    0.00000    0.00000    0.00000
 4184.00000 4184.00000  136.24220   98.18750    0.33700    0.48483    -999.25   50.38958    0.08476    0.19838    2.25850    2.39955    2.39955    3.00000    1.20740    1.00000    1.00000    1.00000 1249.39975    0.16404    0.11362    0.63758    0.75120    -999.25    0.00000    0.00000    0.00000    0.00000    -999.25    0.00000    0.08476    0.00000    0.00000    0.00000    0.00000    0.00000
 4184.50000 4184.50000  136.22360   96.75000    0.33550    0.48131    -999.25   10.20160    0.09269    0.20407    2.25100    2.38937    2.38937    2.00000    1.21480    1.00000    1.00000    1.00000 1249.55210    0.17536    0.11138    0.62058    0.73196    -999.25    0.00000    0.00000    0.00000    0.00000    -999.25    0.00000    0.09269    0.00000    0.00000    0.00000    0.00000    0.00000
 4185.00000 4185.00000  136.20500   97.06250    0.34770    0.49009    -999.25   13.64494    0.10213    0.21420    2.23950    2.37175    2.37175    2.00000    1.23290    1.00000    1.00000    1.00000 1249.70445    0.16934    0.11207    0.61645    0.72853    -999.25    0.00000    0.00000    0.00000    0.00000    -999.25    0.00000    0.10213    0.00000    0.00000    0.00000    0.00000    0.00000
 4185.50000 4185.50000  136.18630   95.06250    0.35220    0.48735    -999.25   17.30717    0.11346    0.22286    2.23290    2.35635    2.35635    2.00000    1.26230    1.00000    1.00000    1.00000 1249.85679    0.18201    0.10940    0.59513    0.70453    -999.25    0.00000    0.00000    0.00000    0.00000    -999.25    0.00000    0.11346    0.00000    0.00000    0.00000    0.00000    0.00000
 4186.00000 4186.00000  136.16770   94.00000    0.35950    0.48203    -999.25   18.98556    0.11937    0.22633    2.24020    2.35004    2.35004    2.00000    1.29880    1.00000    1.00000    1.00000 1250.00914    0.19442    0.10696    0.57925    0.68621    -999.25    0.00000    0.00000    0.00000    0.00000    -999.25    0.00000    0.11937    0.00000    0.00000    0.00000    0.00000    0.00000
 4186.50000 4186.50000  136.14910   91.87500    0.35480    0.47137    -999.25   17.78511    0.11980    0.22388    2.24940    2.35400    2.35400    2.00000    1.33480    1.00000    1.00000    1.00000 1250.16148    0.21071    0.10407    0.56541    0.66948    -999.25    0.00000    0.00000    0.00000    0.00000    -999.25    0.00000    0.11980    0.00000    0.00000    0.00000    0.00000    0.00000
 4187.00000 4187.00000  136.13040   91.31250    0.36930    0.47416    -999.25   18.71453    0.12124    0.22579    2.25880    2.35072    2.35072    2.00000    1.35950    1.00000    1.00000    1.00000 1250.31383    0.20761    0.10455    0.56660    0.67115    -999.25    0.00000    0.00000    0.00000    0.00000    -999.25    0.00000    0.12124    0.00000    0.00000    0.00000    0.00000    0.00000
 4187.50000 4187.50000  136.11180   93.12500    0.36520    0.47552    -999.25   16.04538    0.11385    0.22007    2.26290    2.36088    2.36088    2.00000    1.37820    1.00000    1.00000    1.00000 1250.46618    0.20002    0.10622    0.57991    0.68613    -999.25    0.00000    0.00000    0.00000    0.00000    -999.25    0.00000    0.11385    0.00000    0.00000    0.00000    0.00000    0.00000
 4188.00000 4188.00000  136.09320   92.56250    0.37190    0.47646    -999.25   17.00509    0.11615    0.22221    2.26540    2.35713    2.35713    2.00000    1.38920    1.00000    1.00000    1.00000 1250.61852    0.20035    0.10606    0.57744    0.68350    -999.25    0.00000    0.00000    0.00000    0.00000    -999.25    0.00000    0.11615    0.00000    0.00000    0.00000    0.00000    0.00000
 4188.50000 4188.50000  136.07450   90.68750    0.34980    0.46231    -999.25   13.69646    0.11108    0.21434    2.26870    2.37055    2.37055    2.00000    1.39540    1.00000    1.00000    1.00000 1250.77087    0.21778    0.10326    0.56788    0.67114    -999.25    0.00000    0.00000    0.00000    0.00000    -999.25    0.00000    0.11108    0.00000    0.00000    0.00000    0.00000    0.00000
 4189.00000 4189.00000  136.05590   93.81250    0.35530    0.47195    -999.25   12.27254    0.10332    0.21045    2.27190    2.37776    2.37776    2.00000    1.40080    1.00000    1.00000    1.00000 1250.92322    0.19746    0.10713    0.59208    0.69921    -999.25    0.00000    0.00000    0.00000    0.00000    -999.25    0.00000    0.10332    0.00000    0.00000    0.00000    0.00000    0.00000
