~Version ---------------------------------------------------
VERS.   2.0 : CWLS log ASCII Standard -VERSION 2.0
WRAP.    NO : One line per depth step
DLM . SPACE : Column Data Section Delimiter
~Well ------------------------------------------------------
STRT  .m                4000.50000 : START DEPTH
STOP  .m                5516.88000 : STOP DEPTH
STEP  .m                   0.15240 : STEP
NULL  .                    -999.25 : NULL VALUE
COMP  .                            : COMPANY
WELL  .                         X3 : WELL
FLD   .                            : FIELD
LOC   .                            : LOCATION
PROV  .                            : PROVINCE
CNTY  .                            : COUNTY
STAT  .                            : STATE
CTRY  .                            : COUNTRY
SRVC  .                            : SERVICE COMPANY
DATE  . 2024-04-15 17:03:00.591302 : DATE
UWI   .                            : UNIQUE WELL ID
API   .                            : API NUMBER
LIC   .                            : 
LATI  .                            : 
LONG  .                            : 
NS    .                            : 
EW    .                            : 
XCOORD.                            : 
YCOORD.                            : 
GDAT  .                            : 
SECT  .                            : 
RANG  .                            : 
TOWN  .                            : 
~Curve Information -----------------------------------------
DEPT .m      : 
DEPTH.None   : None
GR   .GAPI   : None
RHOB .g/cc   : None
NPHI .v/v    : None
DTC  .None   : None
PEF  .None   : None
RT   .ohm.m  : None
~Params ----------------------------------------------------
EKB.      : 
EGL.      : 
KB .      : 
GL .      : 
TD .      : 
TDD.      : 
TDL.      : 
~Other -----------------------------------------------------
~ASCII -----------------------------------------------------
# ...
 5289.80400 5289.80400   34.47542    2.24978    0.27097    -999.25    -999.25    1.05841
 5289.95640 5289.95640   34.64242    2.25493    0.26905    -999.25    -999.25    1.06859
 5290.10880 5290.10880   34.67834    2.25085    0.26989    -999.25    -999.25    1.07139
 5290.26120 5290.26120   34.66173    2.24308    0.27184    -999.25    -999.25    1.07124
 5290.41360 5290.41360   34.64512    2.23531    0.27379    -999.25    -999.25    1.07109
 5290.56600 5290.56600   34.89311    2.22744    0.27399    -999.25    -999.25    1.07229
 5290.71840 5290.71840   35.48750    2.21946    0.27189    -999.25    -999.25    1.07528
 5290.87080 5290.87080   36.08189    2.21147    0.26978    -999.25    -999.25    1.07827
 5291.02320 5291.02320   36.61673    2.20421    0.26832    -999.25    -999.25    1.08312
 5291.17560 5291.17560   36.81987    2.20101    0.27046    -999.25    -999.25    1.09836
 5291.32800 5291.32800   37.02302    2.19781    0.27259    -999.25    -999.25    1.11360
 5291.48040 5291.48040   37.22617    2.19461    0.27473    -999.25    -999.25    1.12884
 5291.63280 5291.63280   37.68379    2.19635    0.27205    -999.25    -999.25    1.14182
 5291.78520 5291.78520   38.17897    2.19882    0.26867    -999.25    -999.25    1.15447
 5291.93760 5291.93760   38.67415    2.20129    0.26529    -999.25    -999.25    1.16712
 5292.09000 5292.09000   38.45102    2.20406    0.26322    -999.25    -999.25    1.18162
 5292.24240 5292.24240   37.72986    2.20705    0.26206    -999.25    -999.25    1.19741
 5292.39480 5292.39480   37.00871    2.21004    0.26090    -999.25    -999.25    1.21320
 5292.54720 5292.54720   36.52698    2.21398    0.25930    -999.25    -999.25    1.22692
 5292.69960 5292.69960   36.57888    2.22004    0.25671    -999.25    -999.25    1.23604
 5292.85200 5292.85200   36.63079    2.22611    0.25412    -999.25    -999.25    1.24515
 5293.00440 5293.00440   36.70177    2.23209    0.25163    -999.25    -999.25    1.25426
 5293.15680 5293.15680   37.41421    2.23504    0.25263    -999.25    -999.25    1.26316
 5293.30920 5293.30920   38.12665    2.23800    0.25364    -999.25    -999.25    1.27206
 5293.46160 5293.46160   38.83909    2.24096    0.25465    -999.25    -999.25    1.28096
 5293.61400 5293.61400   38.91994    2.24063    0.25449    -999.25    -999.25    1.29736
 5293.76640 5293.76640   38.78806    2.23920    0.25394    -999.25    -999.25    1.31629
 5293.91880 5293.91880   38.65617    2.23776    0.25339    -999.25    -999.25    1.33521
 5294.07120 5294.07120   37.79272    2.23468    0.25262    -999.25    -999.25    1.35826
 5294.22360 5294.22360   36.09495    2.22971    0.25158    -999.25    -999.25    1.38600
 5294.37600 5294.37600   34.39718    2.22474    0.25054    -999.25    -999.25    1.41373
 5294.52840 5294.52840   33.48971    2.22056    0.24926    -999.25    -999.25    1.44732
 5294.68080 5294.68080   36.03277    2.21980    0.24688    -999.25    -999.25    1.50649
 5294.83320 5294.83320   38.57584    2.21903    0.24450    -999.25    -999.25    1.56565
 5294.98560 5294.98560   41.11891    2.21827    0.24212    -999.25    -999.25    1.62481
 5295.13800 5295.13800   39.96029    2.22300    0.24024    -999.25    -999.25    1.69656
 5295.29040 5295.29040   38.41541    2.22831    0.23842    -999.25    -999.25    1.76962
 5295.44280 5295.44280   36.87054    2.23361    0.23659    -999.25    -999.25    1.84268
 5295.59520 5295.59520   35.87249    2.24026    0.23481    -999.25    -999.25    1.91709
 5295.74760 5295.74760   35.20299    2.24773    0.23308    -999.25    -999.25    1.99232
 5295.90000 5295.90000   34.53350    2.25520    0.23134    -999.25    -999.25    2.06754
 5296.05240 5296.05240   34.05685    2.26302    0.22798    -999.25    -999.25    2.14446
 5296.20480 5296.20480   33.94822    2.27153    0.22152    -999.25    -999.25    2.22462
 5296.35720 5296.35720   33.83959    2.28003    0.21505    -999.25    -999.25    2.30479
 5296.50960 5296.50960   33.76012    2.28849    0.20860    -999.25    -999.25    2.38304
 5296.66200 5296.66200   34.11442    2.29629    0.20220    -999.25    -999.25    2.43284
 5296.81440 5296.81440   34.46872    2.30410    0.19580    -999.25    -999.25    2.48265
 5296.96680 5296.96680   34.82302    2.31190    0.18939    -999.25    -999.25    2.53245
 5297.11920 5297.11920   34.73613    2.31360    0.18593    -999.25    -999.25    2.55067
 5297.27160 5297.27160   34.52637    2.31360    0.18327    -999.25    -999.25    2.56008
 5297.42400 5297.42400   34.31661    2.31360    0.18062    -999.25    -999.25    2.56950
 5297.57640 5297.57640   33.82925    2.31103    0.18052    -999.25    -999.25    2.55735
 5297.72880 5297.72880   33.06576    2.30591    0.18296    -999.25    -999.25    2.52373
 5297.88120 5297.88120   32.30226    2.30079    0.18540    -999.25    -999.25    2.49011
 5298.03360 5298.03360   31.68752    2.29601    0.18797    -999.25    -999.25    2.45600
 5298.18600 5298.18600   31.59874    2.29241    0.19102    -999.25    -999.25    2.42015
 5298.33840 5298.33840   31.50995    2.28881    0.19407    -999.25    -999.25    2.38431
 5298.49080 5298.49080   31.42116    2.28522    0.19712    -999.25    -999.25    2.34846
 5298.64320 5298.64320   32.21122    2.28789    0.20074    -999.25    -999.25    2.21719
 5298.79560 5298.79560   33.05774    2.29097    0.20439    -999.25    -999.25    2.07979
 5298.94800 5298.94800   33.90426    2.29405    0.20805    -999.25    -999.25    1.94238
 5299.10040 5299.10040    -999.25    2.29470    0.21071    -999.25    -999.25    1.89817
 5299.25280 5299.25280    -999.25    2.29409    0.21284    -999.25    -999.25    1.90222
 5299.40520 5299.40520    -999.25    2.29348    0.21497    -999.25    -999.25    1.90628
 5299.55760 5299.55760    -999.25    2.29290    0.21805    -999.25    -999.25    1.92266
 5299.71000 5299.71000    -999.25    2.29239    0.22268    -999.25    -999.25    1.95933
 5299.86240 5299.86240    -999.25    2.29187    0.22732    -999.25    -999.25    1.99599
 5300.01480 5300.01480    -999.25    2.29125    0.23179    -999.25    -999.25    2.03278
 5300.16720 5300.16720    -999.25    2.28976    0.23478    -999.25    -999.25    2.07067
 5300.31960 5300.31960    -999.25    2.28827    0.23776    -999.25    -999.25    2.10855
 5300.47200 5300.47200    -999.25    2.28677    0.24075    -999.25    -999.25    2.14644
 5300.62440 5300.62440    -999.25    2.29053    0.23777    -999.25    -999.25    2.17838
 5300.77680 5300.77680    -999.25    2.29547    0.23344    -999.25    -999.25    2.20898
 5300.92920 5300.92920    -999.25    2.30041    0.22911    -999.25    -999.25    2.23958
 5301.08160 5301.08160    -999.25    2.30818    0.22320    -999.25    -999.25    2.24948
 5301.23400 5301.23400    -999.25    2.31842    0.21591    -999.25    -999.25    2.24140
 5301.38640 5301.38640    -999.25    2.32867    0.20863    -999.25    -999.25    2.23332
 5301.53880 5301.53880    -999.25    2.33935    0.20192    -999.25    -999.25    2.21384
 5301.69120 5301.69120    -999.25    2.35133    0.19689    -999.25    -999.25    2.16095
 5301.84360 5301.84360    -999.25    2.36331    0.19186    -999.25    -999.25    2.10807
 5301.99600 5301.99600    -999.25    2.37529    0.18683    -999.25    -999.25    2.05519
 5302.14840 5302.14840    -999.25    2.37780    0.18486    -999.25    -999.25    2.00468
 5302.30080 5302.30080    -999.25    2.38005    0.18297    -999.25    -999.25    1.95424
 5302.45320 5302.45320    -999.25    2.38231    0.18108    -999.25    -999.25    1.90379
 5302.60560 5302.60560    -999.25    2.38040    0.18276    -999.25    -999.25    1.84160
 5302.75800 5302.75800    -999.25    2.37665    0.18602    -999.25    -999.25    1.77421
 5302.91040 5302.91040    -999.25    2.37290    0.18928    -999.25    -999.25    1.70682
 5303.06280 5303.06280    -999.25    2.36874    0.19187    -999.25    -999.25    1.63574
 5303.21520 5303.21520    -999.25    2.36399    0.19348    -999.25    -999.25    1.55938
 5303.36760 5303.36760    -999.25    2.35923    0.19510    -999.25    -999.25    1.48303
