~Version ---------------------------------------------------
VERS.   2.0 : CWLS log ASCII Standard -VERSION 2.0
WRAP.    NO : One line per depth step
DLM . SPACE : Column Data Section Delimiter
~Well ------------------------------------------------------
STRT  .m                4000.50000 : START DEPTH
STOP  .m                5517.00000 : STOP DEPTH
STEP  .m                   0.50000 : STEP
NULL  .                    -999.25 : NULL VALUE
COMP  .                            : COMPANY
WELL  .                     X3.las : WELL
FLD   .                            : FIELD
LOC   .                            : LOCATION
PROV  .                            : PROVINCE
CNTY  .                            : COUNTY
STAT  .                            : STATE
CTRY  .                            : COUNTRY
SRVC  .                            : SERVICE COMPANY
DATE  . 2024-04-14 16:30:14.689995 : DATE
UWI   .                            : UNIQUE WELL ID
API   .                            : API NUMBER
LIC   .                            : 
LATI  .                            : 
LONG  .                            : 
NS    .                            : 
EW    .                            : 
XCOORD.                            : 
YCOORD.                            : 
GDAT  .                            : 
SECT  .                            : 
RANG  .                            : 
TOWN  .                            : 
~Curve Information -----------------------------------------
DEPT      .m      : 
DEPTH     .None   : None
DTC       .None   : None
GR        .GAPI   : None
NPHI      .v/v    : None
NPHIHC    .None   : None
PEF       .None   : None
PERM      .mD     : None
PHIE      .v/v    : None
PHIT      .v/v    : None
RHOB      .g/cc   : None
RHOBFC    .None   : None
RHOBHC    .None   : None
ROCKTYPE  .None   : None
RT        .ohm.m  : None
SW_J      .None   : None
SWE       .v/v    : None
SWT       .v/v    : None
TVDSS     .None   : None
VCALC     .None   : None
VCLB      .None   : None
VCLD      .None   : None
VCLW      .None   : None
VCOAL     .None   : None
VDOLO     .None   : None
VGAS      .None   : None
VOIL      .None   : None
VSAND     .v/v    : None
VSHALE    .v/v    : None
VSILT     .v/v    : None
VWATER    .None   : None
BADHOLE   .None   : None
BS        .None   : None
CALI      .None   : None
COAL_FLAG .None   : None
PERFORATED.None   : None
~Params ----------------------------------------------------
EKB.      : 
EGL.      : 
KB .      : 
GL .      : 
TD .      : 
TDD.      : 
TDL.      : 
~Other -----------------------------------------------------
~ASCII -----------------------------------------------------
# ...
 4525.50000 4525.50000  139.39800   90.32240    0.35890    0.47024    -999.25   20.69044    0.12714    0.22959    2.24520    2.34385    2.34385    2.00000    1.34110    1.00000    1.00000    1.00000 1353.48294    0.21790    0.10245    0.55250    0.65495    -999.25    0.00000    0.00000    0.00000    0.00000    -999.25    0.00000    0.12714    0.00000    0.00000    0.00000    0.00000    0.00000
 4526.00000 4526.00000  139.36450   90.36100    0.35800    0.46889    -999.25   20.25098    0.12658    0.22877    2.24690    2.34525    2.34525    2.00000    1.34080    1.00000    1.00000    1.00000 1353.63535    0.21950    0.10220    0.55172    0.65392    -999.25    0.00000    0.00000    0.00000    0.00000    -999.25    0.00000    0.12658    0.00000    0.00000    0.00000    0.00000    0.00000
 4526.50000 4526.50000  139.33110   90.39970    0.37990    0.47772    -999.25   25.42888    0.13453    0.23762    2.24630    2.32992    2.32992    2.00000    1.33980    1.00000    1.00000    1.00000 1353.78776    0.21222    0.10309    0.55015    0.65324    -999.25    0.00000    0.00000    0.00000    0.00000    -999.25    0.00000    0.13453    0.00000    0.00000    0.00000    0.00000    0.00000
 4527.00000 4527.00000  139.29770   90.43830    0.38500    0.48030    -999.25   27.24828    0.13706    0.24038    2.24440    2.32514    2.32514    2.00000    1.34400    1.00000    1.00000    1.00000 1353.94016    0.21025    0.10332    0.54937    0.65269    -999.25    0.00000    0.00000    0.00000    0.00000    -999.25    0.00000    0.13706    0.00000    0.00000    0.00000    0.00000    0.00000
 4527.50000 4527.50000  139.26420   90.47690    0.37650    0.47738    -999.25   24.41874    0.13269    0.23602    2.24590    2.33273    2.33273    2.00000    1.35080    1.00000    1.00000    1.00000 1354.09257    0.21136    0.10333    0.55261    0.65595    -999.25    0.00000    0.00000    0.00000    0.00000    -999.25    0.00000    0.13269    0.00000    0.00000    0.00000    0.00000    0.00000
 4528.00000 4528.00000  139.23080   90.51550    0.38680    0.47855    -999.25   28.32295    0.13954    0.24193    2.24510    2.32233    2.32233    2.00000    1.35270    1.00000    1.00000    1.00000 1354.24498    0.21472    0.10239    0.54335    0.64574    -999.25    0.00000    0.00000    0.00000    0.00000    -999.25    0.00000    0.13954    0.00000    0.00000    0.00000    0.00000    0.00000
 4528.50000 4528.50000  139.19730   90.55410    0.36840    0.47014    -999.25   21.02736    0.12793    0.23021    2.25410    2.34275    2.34275    2.00000    1.35590    1.00000    1.00000    1.00000 1354.39739    0.21865    0.10228    0.55113    0.65341    -999.25    0.00000    0.00000    0.00000    0.00000    -999.25    0.00000    0.12793    0.00000    0.00000    0.00000    0.00000    0.00000
 4529.00000 4529.00000  139.16390   90.61590    0.38280    0.47605    -999.25   22.72297    0.12968    0.23321    2.25820    2.33766    2.33766    2.00000    1.35840    1.00000    1.00000    1.00000 1354.54979    0.21111    0.10353    0.55568    0.65921    -999.25    0.00000    0.00000    0.00000    0.00000    -999.25    0.00000    0.12968    0.00000    0.00000    0.00000    0.00000    0.00000
 4529.50000 4529.50000  139.13040   90.67770    0.36550    0.46905    -999.25   17.90762    0.12086    0.22413    2.26240    2.35347    2.35347    2.00000    1.36160    1.00000    1.00000    1.00000 1354.70220    0.21500    0.10327    0.56087    0.66414    -999.25    0.00000    0.00000    0.00000    0.00000    -999.25    0.00000    0.12086    0.00000    0.00000    0.00000    0.00000    0.00000
 4530.00000 4530.00000  139.00000   90.73950    0.37220    0.47004    -999.25   19.48053    0.12441    0.22730    2.26300    2.34790    2.34790    2.00000    1.36470    1.00000    1.00000    1.00000 1354.85461    0.21616    0.10289    0.55653    0.65943    -999.25    0.00000    0.00000    0.00000    0.00000    -999.25    0.00000    0.12441    0.00000    0.00000    0.00000    0.00000    0.00000
 4530.50000 4530.50000  138.86950   90.80120    0.36780    0.46804    -999.25   18.19181    0.12190    0.22472    2.26470    2.35239    2.35239    2.00000    1.36820    1.00000    1.00000    1.00000 1355.00702    0.21728    0.10282    0.55800    0.66082    -999.25    0.00000    0.00000    0.00000    0.00000    -999.25    0.00000    0.12190    0.00000    0.00000    0.00000    0.00000    0.00000
 4531.00000 4531.00000  138.73910   90.86300    0.39440    0.47779    -999.25   24.29429    0.13231    0.23582    2.26360    2.33310    2.33310    2.00000    1.37220    1.00000    1.00000    1.00000 1355.15942    0.21046    0.10351    0.55372    0.65724    -999.25    0.00000    0.00000    0.00000    0.00000    -999.25    0.00000    0.13231    0.00000    0.00000    0.00000    0.00000    0.00000
 4531.50000 4531.50000  138.60870   90.92480    0.39550    0.47961    -999.25   25.95929    0.13492    0.23844    2.25860    2.32853    2.32853    2.00000    1.37540    1.00000    1.00000    1.00000 1355.31183    0.20969    0.10352    0.55187    0.65539    -999.25    0.00000    0.00000    0.00000    0.00000    -999.25    0.00000    0.13492    0.00000    0.00000    0.00000    0.00000    0.00000
 4532.00000 4532.00000  138.47820   90.98660    0.38500    0.47403    -999.25   21.41255    0.12753    0.23091    2.26610    2.34165    2.34165    2.00000    1.37900    1.00000    1.00000    1.00000 1355.46424    0.21252    0.10338    0.55657    0.65995    -999.25    0.00000    0.00000    0.00000    0.00000    -999.25    0.00000    0.12753    0.00000    0.00000    0.00000    0.00000    0.00000
 4532.50000 4532.50000  138.34780   91.04840    0.37050    0.47199    -999.25   19.47306    0.12376    0.22729    2.25950    2.34800    2.34800    2.00000    1.39230    1.00000    1.00000    1.00000 1355.61665    0.21276    0.10352    0.55996    0.66348    -999.25    0.00000    0.00000    0.00000    0.00000    -999.25    0.00000    0.12376    0.00000    0.00000    0.00000    0.00000    0.00000
 4533.00000 4533.00000  138.21730   91.11020    0.36960    0.47121    -999.25   20.15063    0.12560    0.22859    2.25710    2.34567    2.34567    2.00000    1.40660    1.00000    1.00000    1.00000 1355.76905    0.21530    0.10299    0.55611    0.65910    -999.25    0.00000    0.00000    0.00000    0.00000    -999.25    0.00000    0.12560    0.00000    0.00000    0.00000    0.00000    0.00000
 4533.50000 4533.50000  138.08690   91.17190    0.38450    0.47998    -999.25   28.09816    0.13868    0.24161    2.24210    2.32295    2.32295    2.00000    1.41610    1.00000    1.00000    1.00000 1355.92146    0.21194    0.10293    0.54645    0.64938    -999.25    0.00000    0.00000    0.00000    0.00000    -999.25    0.00000    0.13868    0.00000    0.00000    0.00000    0.00000    0.00000
 4534.00000 4534.00000  137.95650   91.23370    0.38570    0.48728    -999.25   33.11161    0.14448    0.24831    2.22540    2.31135    2.31135    2.00000    1.42230    1.00000    1.00000    1.00000 1356.07387    0.20536    0.10383    0.54633    0.65016    -999.25    0.00000    0.00000    0.00000    0.00000    -999.25    0.00000    0.14448    0.00000    0.00000    0.00000    0.00000    0.00000
 4534.50000 4534.50000  137.82610   91.29550    0.37830    0.48652    -999.25   32.06110    0.14310    0.24698    2.22090    2.31367    2.31367    2.00000    1.42160    1.00000    1.00000    1.00000 1356.22627    0.20546    0.10388    0.54756    0.65143    -999.25    0.00000    0.00000    0.00000    0.00000    -999.25    0.00000    0.14310    0.00000    0.00000    0.00000    0.00000    0.00000
 4535.00000 4535.00000  137.77180   91.35730    0.37860    0.48685    -999.25   31.92696    0.14278    0.24681    2.22120    2.31399    2.31399    2.00000    1.41290    1.00000    1.00000    1.00000 1356.37868    0.20474    0.10402    0.54845    0.65248    -999.25    0.00000    0.00000    0.00000    0.00000    -999.25    0.00000    0.14278    0.00000    0.00000    0.00000    0.00000    0.00000
 4535.50000 4535.50000  137.71740   91.41910    0.37880    0.48178    -999.25   28.79621    0.13930    0.24260    2.23310    2.32126    2.32126    2.00000    1.41540    1.00000    1.00000    1.00000 1356.53109    0.20971    0.10330    0.54770    0.65100    -999.25    0.00000    0.00000    0.00000    0.00000    -999.25    0.00000    0.13930    0.00000    0.00000    0.00000    0.00000    0.00000
