~Version ---------------------------------------------------
VERS.   2.0 : CWLS log ASCII Standard -VERSION 2.0
WRAP.    NO : One line per depth step
DLM . SPACE : Column Data Section Delimiter
~Well ------------------------------------------------------
STRT  .m                4000.50000 : START DEPTH
STOP  .m                5517.00000 : STOP DEPTH
STEP  .m                   0.50000 : STEP
NULL  .                    -999.25 : NULL VALUE
COMP  .                            : COMPANY
WELL  .                     X3.las : WELL
FLD   .                            : FIELD
LOC   .                            : LOCATION
PROV  .                            : PROVINCE
CNTY  .                            : COUNTY
STAT  .                            : STATE
CTRY  .                            : COUNTRY
SRVC  .                            : SERVICE COMPANY
DATE  . 2024-04-14 16:30:14.689995 : DATE
UWI   .                            : UNIQUE WELL ID
API   .                            : API NUMBER
LIC   .                            : 
LATI  .                            : 
LONG  .                            : 
NS    .                            : 
EW    .                            : 
XCOORD.                            : 
YCOORD.                            : 
GDAT  .                            : 
SECT  .                            : 
RANG  .                            : 
TOWN  .                            : 
~Curve Information -----------------------------------------
DEPT      .m      : 
DEPTH     .None   : None
DTC       .None   : None
GR        .GAPI   : None
NPHI      .v/v    : None
NPHIHC    .None   : None
PEF       .None   : None
PERM      .mD     : None
PHIE      .v/v    : None
PHIT      .v/v    : None
RHOB      .g/cc   : None
RHOBFC    .None   : None
RHOBHC    .None   : None
ROCKTYPE  .None   : None
RT        .ohm.m  : None
SW_J      .None   : None
SWE       .v/v    : None
SWT       .v/v    : None
TVDSS     .None   : None
VCALC     .None   : None
VCLB      .None   : None
VCLD      .None   : None
VCLW      .None   : None
VCOAL     .None   : None
VDOLO     .None   : None
VGAS      .None   : None
VOIL      .None   : None
VSAND     .v/v    : None
VSHALE    .v/v    : None
VSILT     .v/v    : None
VWATER    .None   : None
BADHOLE   .None   : None
BS        .None   : None
CALI      .None   : None
COAL_FLAG .None   : None
PERFORATED.None   : None
~Params ----------------------------------------------------
EKB.      : 
EGL.      : 
KB .      : 
GL .      : 
TD .      : 
TDD.      : 
TDL.      : 
~Other -----------------------------------------------------
~ASCII -----------------------------------------------------
# ...
 4431.00000 4431.00000  143.41610   92.56250    0.39740    0.49936    -999.25   41.84850    0.15258    0.25819    2.20950    2.29429    2.29429    2.00000    1.33860    1.00000    1.00000    1.00000 1324.68099    0.19337    0.10562    0.54843    0.65405    -999.25    0.00000    0.00000    0.00000    0.00000    -999.25    0.00000    0.15258    0.00000    0.00000    0.00000    0.00000    0.00000
 4431.50000 4431.50000  143.35400   87.68750    0.39460    0.48409    -999.25   50.24986    0.16757    0.26619    2.20650    2.27963    2.27963    2.00000    1.33940    1.00000    1.00000    1.00000 1324.83339    0.22723    0.09862    0.50658    0.60520    -999.25    0.00000    0.00000    0.00000    0.00000    -999.25    0.00000    0.16757    0.00000    0.00000    0.00000    0.00000    0.00000
 4432.00000 4432.00000  143.29190   85.37500    0.40220    0.47976    -999.25   53.50433    0.17251    0.26899    2.21260    2.27453    2.27453    2.00000    1.34770    1.00000    1.00000    1.00000 1324.98580    0.23731    0.09648    0.49370    0.59018    -999.25    0.00000    0.00000    0.00000    0.00000    -999.25    0.00000    0.17251    0.00000    0.00000    0.00000    0.00000    0.00000
 4432.50000 4432.50000  143.22980   83.31250    0.40320    0.47174    -999.25   53.92028    0.17567    0.26933    2.21970    2.27363    2.27363    2.00000    1.35760    1.00000    1.00000    1.00000 1325.13821    0.25159    0.09367    0.47907    0.57274    -999.25    0.00000    0.00000    0.00000    0.00000    -999.25    0.00000    0.17567    0.00000    0.00000    0.00000    0.00000    0.00000
 4433.00000 4433.00000  143.16770   83.06250    0.37080    0.45812    -999.25   39.67104    0.16354    0.25591    2.22370    2.29691    2.29691    2.00000    1.37010    1.00000    1.00000    1.00000 1325.29062    0.26300    0.09236    0.48109    0.57346    -999.25    0.00000    0.00000    0.00000    0.00000    -999.25    0.00000    0.16354    0.00000    0.00000    0.00000    0.00000    0.00000
 4433.50000 4433.50000  143.10560   83.31250    0.34520    0.44848    -999.25   28.20026    0.14918    0.24175    2.23070    2.32159    2.32159    2.00000    1.37810    1.00000    1.00000    1.00000 1325.44302    0.26686    0.09258    0.49138    0.58396    -999.25    0.00000    0.00000    0.00000    0.00000    -999.25    0.00000    0.14918    0.00000    0.00000    0.00000    0.00000    0.00000
 4434.00000 4434.00000  143.04350   82.25000    0.33670    0.44170    -999.25   27.69663    0.15050    0.24103    2.22940    2.32264    2.32264    2.00000    1.38130    1.00000    1.00000    1.00000 1325.59543    0.27799    0.09053    0.48098    0.57151    -999.25    0.00000    0.00000    0.00000    0.00000    -999.25    0.00000    0.15050    0.00000    0.00000    0.00000    0.00000    0.00000
 4434.50000 4434.50000  142.98130   78.31250    0.33700    0.43135    -999.25   30.50792    0.15877    0.24495    2.23270    2.31535    2.31535    2.00000    1.38060    1.00000    1.00000    1.00000 1325.74784    0.29956    0.08618    0.45549    0.54167    -999.25    0.00000    0.00000    0.00000    0.00000    -999.25    0.00000    0.15877    0.00000    0.00000    0.00000    0.00000    0.00000
 4435.00000 4435.00000  142.91920   75.18750    0.34250    0.42455    -999.25   39.76627    0.17488    0.25601    2.22560    2.29556    2.29556    2.00000    1.38080    1.00000    1.00000    1.00000 1325.90025    0.32149    0.08113    0.42250    0.50363    -999.25    0.00000    0.00000    0.00000    0.00000    -999.25    0.00000    0.17488    0.00000    0.00000    0.00000    0.00000    0.00000
 4435.50000 4435.50000  142.85710   74.81250    0.37020    0.43408    -999.25   53.66134    0.18820    0.26912    2.22140    2.27271    2.27271    2.00000    1.38290    1.00000    1.00000    1.00000 1326.05265    0.31689    0.08092    0.41399    0.49491    -999.25    0.00000    0.00000    0.00000    0.00000    -999.25    0.00000    0.18820    0.00000    0.00000    0.00000    0.00000    0.00000
 4436.00000 4436.00000  142.79500   74.75000    0.37330    0.43842    -999.25   60.44995    0.19354    0.27451    2.21130    2.26331    2.26331    2.00000    1.38790    1.00000    1.00000    1.00000 1326.20506    0.31426    0.08098    0.41122    0.49220    -999.25    0.00000    0.00000    0.00000    0.00000    -999.25    0.00000    0.19354    0.00000    0.00000    0.00000    0.00000    0.00000
 4436.50000 4436.50000  142.73290   72.37500    0.37460    0.43167    -999.25   66.19235    0.20116    0.27870    2.21100    2.25568    2.25568    2.00000    1.39810    1.00000    1.00000    1.00000 1326.35747    0.32982    0.07753    0.39148    0.46901    -999.25    0.00000    0.00000    0.00000    0.00000    -999.25    0.00000    0.20116    0.00000    0.00000    0.00000    0.00000    0.00000
 4437.00000 4437.00000  142.67080   69.50000    0.36740    0.41903    -999.25   63.79284    0.20333    0.27699    2.21800    2.25827    2.25827    2.00000    1.40320    1.00000    1.00000    1.00000 1326.50987    0.35024    0.07366    0.37278    0.44643    -999.25    0.00000    0.00000    0.00000    0.00000    -999.25    0.00000    0.20333    0.00000    0.00000    0.00000    0.00000    0.00000
 4437.50000 4437.50000  142.60870   70.87500    0.38720    0.42795    -999.25   69.14525    0.20504    0.28073    2.22190    2.25195    2.25195    2.00000    1.39630    1.00000    1.00000    1.00000 1326.66228    0.33815    0.07570    0.38112    0.45682    -999.25    0.00000    0.00000    0.00000    0.00000    -999.25    0.00000    0.20504    0.00000    0.00000    0.00000    0.00000    0.00000
 4438.00000 4438.00000  142.54660   72.93750    0.40350    0.43614    -999.25   64.53331    0.19813    0.27752    2.23510    2.25792    2.25792    2.00000    1.38530    1.00000    1.00000    1.00000 1326.81469    0.32097    0.07939    0.40151    0.48090    -999.25    0.00000    0.00000    0.00000    0.00000    -999.25    0.00000    0.19813    0.00000    0.00000    0.00000    0.00000    0.00000
 4438.50000 4438.50000  142.48450   77.56250    0.39600    0.44534    -999.25   53.07200    0.18375    0.26862    2.23640    2.27397    2.27397    2.00000    1.37080    1.00000    1.00000    1.00000 1326.96710    0.29685    0.08487    0.43452    0.51940    -999.25    0.00000    0.00000    0.00000    0.00000    -999.25    0.00000    0.18375    0.00000    0.00000    0.00000    0.00000    0.00000
 4439.00000 4439.00000  142.42230   79.43750    0.36130    0.43651    -999.25   30.58812    0.15720    0.24505    2.25210    2.31535    2.31535    2.00000    1.36220    1.00000    1.00000    1.00000 1327.11950    0.29068    0.08785    0.46426    0.55211    -999.25    0.00000    0.00000    0.00000    0.00000    -999.25    0.00000    0.15720    0.00000    0.00000    0.00000    0.00000    0.00000
 4439.50000 4439.50000  142.36020   80.00000    0.34820    0.43713    -999.25   30.93405    0.15757    0.24551    2.23780    2.31455    2.31455    2.00000    1.36350    1.00000    1.00000    1.00000 1327.27191    0.29002    0.08794    0.46447    0.55242    -999.25    0.00000    0.00000    0.00000    0.00000    -999.25    0.00000    0.15757    0.00000    0.00000    0.00000    0.00000    0.00000
 4440.00000 4440.00000  142.29810   81.37500    0.35130    0.44059    -999.25   30.00405    0.15488    0.24427    2.23990    2.31688    2.31688    2.00000    1.36680    1.00000    1.00000    1.00000 1327.42432    0.28288    0.08938    0.47286    0.56224    -999.25    0.00000    0.00000    0.00000    0.00000    -999.25    0.00000    0.15488    0.00000    0.00000    0.00000    0.00000    0.00000
 4440.50000 4440.50000  142.23600   81.06250    0.37190    0.45193    -999.25   44.95822    0.17234    0.26130    2.22100    2.28716    2.28716    2.00000    1.36020    1.00000    1.00000    1.00000 1327.57673    0.27869    0.08896    0.46001    0.54897    -999.25    0.00000    0.00000    0.00000    0.00000    -999.25    0.00000    0.17234    0.00000    0.00000    0.00000    0.00000    0.00000
 4441.00000 4441.00000  142.17390   81.18750    0.36420    0.45068    -999.25   41.52443    0.16847    0.25786    2.22050    2.29319    2.29319    2.00000    1.35330    1.00000    1.00000    1.00000 1327.72913    0.27774    0.08939    0.46440    0.55380    -999.25    0.00000    0.00000    0.00000    0.00000    -999.25    0.00000    0.16847    0.00000    0.00000    0.00000    0.00000    0.00000
