~Version ---------------------------------------------------
VERS.   2.0 : CWLS log ASCII Standard -VERSION 2.0
WRAP.    NO : One line per depth step
DLM . SPACE : Column Data Section Delimiter
~Well ------------------------------------------------------
STRT  .m                4000.50000 : START DEPTH
STOP  .m                5516.88000 : STOP DEPTH
STEP  .m                   0.15240 : STEP
NULL  .                    -999.25 : NULL VALUE
COMP  .                            : COMPANY
WELL  .                         X3 : WELL
FLD   .                            : FIELD
LOC   .                            : LOCATION
PROV  .                            : PROVINCE
CNTY  .                            : COUNTY
STAT  .                            : STATE
CTRY  .                            : COUNTRY
SRVC  .                            : SERVICE COMPANY
DATE  . 2024-04-15 17:03:00.591302 : DATE
UWI   .                            : UNIQUE WELL ID
API   .                            : API NUMBER
LIC   .                            : 
LATI  .                            : 
LONG  .                            : 
NS    .                            : 
EW    .                            : 
XCOORD.                            : 
YCOORD.                            : 
GDAT  .                            : 
SECT  .                            : 
RANG  .                            : 
TOWN  .                            : 
~Curve Information -----------------------------------------
DEPT .m      : 
DEPTH.None   : None
GR   .GAPI   : None
RHOB .g/cc   : None
NPHI .v/v    : None
DTC  .None   : None
PEF  .None   : None
RT   .ohm.m  : None
~Params ----------------------------------------------------
EKB.      : 
EGL.      : 
KB .      : 
GL .      : 
TD .      : 
TDD.      : 
TDL.      : 
~Other -----------------------------------------------------
~ASCII -----------------------------------------------------
# ...
 4261.10400 4261.10400   85.10650    2.24190    0.38008  140.64487    -999.25    1.20531
 4261.25640 4261.25640   85.35415    2.23882    0.38386  140.69788    -999.25    1.20504
 4261.40880 4261.40880   85.60180    2.23574    0.38764  140.75088    -999.25    1.20476
 4261.56120 4261.56120   86.04070    2.23307    0.38961  140.80389    -999.25    1.20390
 4261.71360 4261.71360   86.76460    2.23100    0.38887  140.85689    -999.25    1.20216
 4261.86600 4261.86600   87.48850    2.22892    0.38814  140.90989    -999.25    1.20043
 4262.01840 4262.01840   88.15260    2.22698    0.38783  140.96290    -999.25    1.19873
 4262.17080 4262.17080   88.38120    2.22597    0.39057  141.01590    -999.25    1.19736
 4262.32320 4262.32320   88.60980    2.22497    0.39332  141.06891    -999.25    1.19599
 4262.47560 4262.47560   88.83840    2.22396    0.39606  141.12191    -999.25    1.19462
 4262.62800 4262.62800   88.47500    2.22175    0.39302  141.17494    -999.25    1.19417
 4262.78040 4262.78040   87.99875    2.21931    0.38887  141.22798    -999.25    1.19390
 4262.93280 4262.93280   87.52250    2.21688    0.38473  141.28101    -999.25    1.19362
 4263.08520 4263.08520   87.19535    2.21415    0.38099  141.33403    -999.25    1.19336
 4263.23760 4263.23760   86.98580    2.21119    0.37758  141.38704    -999.25    1.19312
 4263.39000 4263.39000   86.77625    2.20823    0.37416  141.44004    -999.25    1.19288
 4263.54240 4263.54240   86.33350    2.20577    0.37242  141.49305    -999.25    1.19267
 4263.69480 4263.69480   85.28575    2.20458    0.37501  141.54605    -999.25    1.19258
 4263.84720 4263.84720   84.23800    2.20339    0.37760  141.59906    -999.25    1.19249
 4263.99960 4263.99960   83.19025    2.20220    0.38019  141.65206    -999.25    1.19240
 4264.15200 4264.15200   83.90950    2.20144    0.38841  141.70507    -999.25    1.19228
 4264.30440 4264.30440   84.63340    2.20068    0.39664  141.75807    -999.25    1.19216
 4264.45680 4264.45680   85.35730    2.19992    0.40487  141.81108    -999.25    1.19203
 4264.60920 4264.60920   86.47705    2.20007    0.40331  141.86408    -999.25    1.19274
 4264.76160 4264.76160   87.75340    2.20059    0.39789  141.91708    -999.25    1.19378
 4264.91400 4264.91400   89.02975    2.20111    0.39246  141.97009    -999.25    1.19482
 4265.06640 4265.06640   89.54250    2.20205    0.38971  142.02309    -999.25    1.19628
 4265.21880 4265.21880   89.06625    2.20354    0.39041  142.07610    -999.25    1.19829
 4265.37120 4265.37120   88.59000    2.20504    0.39111  142.12910    -999.25    1.20030
 4265.52360 4265.52360   88.20815    2.20668    0.39019  142.17683    -999.25    1.20252
 4265.67600 4265.67600   88.34150    2.20915    0.38044  142.19576    -999.25    1.20591
 4265.82840 4265.82840   88.47485    2.21162    0.37068  142.21469    -999.25    1.20929
 4265.98080 4265.98080   88.60820    2.21409    0.36093  142.23362    -999.25    1.21267
 4266.13320 4266.13320   87.15980    2.21357    0.36569  142.25254    -999.25    1.21672
 4266.28560 4266.28560   85.48340    2.21263    0.37255  142.27147    -999.25    1.22087
 4266.43800 4266.43800   83.80700    2.21168    0.37941  142.29040    -999.25    1.22501
 4266.59040 4266.59040   83.47530    2.21088    0.38175  142.30933    -999.25    1.22831
 4266.74280 4266.74280   84.06585    2.21018    0.38099  142.32826    -999.25    1.23102
 4266.89520 4266.89520   84.65640    2.20948    0.38022  142.34718    -999.25    1.23373
 4267.04760 4267.04760   84.75310    2.20850    0.38079  142.36612    -999.25    1.23596
 4267.20000 4267.20000   83.76250    2.20692    0.38426  142.38508    -999.25    1.23712
 4267.35240 4267.35240   82.77190    2.20534    0.38773  142.40404    -999.25    1.23828
 4267.50480 4267.50480   81.82210    2.20382    0.39115  142.42300    -999.25    1.23945
 4267.65720 4267.65720   82.12690    2.20455    0.39280  142.44192    -999.25    1.24119
 4267.80960 4267.80960   82.43170    2.20529    0.39444  142.46085    -999.25    1.24293
 4267.96200 4267.96200   82.73650    2.20602    0.39609  142.47978    -999.25    1.24467
 4268.11440 4268.11440   82.72670    2.20663    0.39883  142.49871    -999.25    1.24558
 4268.26680 4268.26680   82.61240    2.20721    0.40194  142.51764    -999.25    1.24622
 4268.41920 4268.41920   82.49810    2.20779    0.40505  142.53656    -999.25    1.24686
 4268.57160 4268.57160   83.10875    2.20804    0.40749  142.55549    -999.25    1.24749
 4268.72400 4268.72400   84.53750    2.20792    0.40916  142.57442    -999.25    1.24810
 4268.87640 4268.87640   85.96625    2.20780    0.41084  142.59335    -999.25    1.24871
 4269.02880 4269.02880   87.33380    2.20745    0.41177  142.61228    -999.25    1.24961
 4269.18120 4269.18120   88.43870    2.20614    0.40948  142.63121    -999.25    1.25181
 4269.33360 4269.33360   89.54360    2.20483    0.40720  142.65013    -999.25    1.25400
 4269.48600 4269.48600   90.64850    2.20352    0.40491  142.66906    -999.25    1.25620
 4269.63840 4269.63840   91.00950    2.20110    0.40024  142.68799    -999.25    1.25778
 4269.79080 4269.79080   91.29525    2.19857    0.39534  142.70692    -999.25    1.25931
 4269.94320 4269.94320   91.58100    2.19604    0.39043  142.72585    -999.25    1.26083
 4270.09560 4270.09560   91.22145    2.19535    0.38871  142.74477    -999.25    1.26146
 4270.24800 4270.24800   90.47850    2.19574    0.38890  142.76370    -999.25    1.26155
 4270.40040 4270.40040   89.73555    2.19614    0.38908  142.78263    -999.25    1.26164
 4270.55280 4270.55280   89.03220    2.19573    0.38898  142.80156    -999.25    1.26173
 4270.70520 4270.70520   88.40355    2.19381    0.38834  142.82049    -999.25    1.26182
 4270.85760 4270.85760   87.77490    2.19189    0.38770  142.83941    -999.25    1.26191
 4271.01000 4271.01000   87.17500    2.19026    0.38688  142.85834    -999.25    1.26202
 4271.16240 4271.16240   86.98450    2.19273    0.38353  142.87730    -999.25    1.26226
 4271.31480 4271.31480   86.79400    2.19520    0.38017  142.89626    -999.25    1.26250
 4271.46720 4271.46720   86.60350    2.19767    0.37682  142.91522    -999.25    1.26275
 4271.61960 4271.61960   87.44455    2.19803    0.37258  142.93415    -999.25    1.26273
 4271.77200 4271.77200   88.56850    2.19782    0.36810  142.95308    -999.25    1.26264
 4271.92440 4271.92440   89.69245    2.19761    0.36362  142.97201    -999.25    1.26255
 4272.07680 4272.07680   90.49000    2.19994    0.35974  142.99094    -999.25    1.26222
 4272.22920 4272.22920   90.96625    2.20479    0.35645  143.00987    -999.25    1.26167
 4272.38160 4272.38160   91.44250    2.20963    0.35316  143.02879    -999.25    1.26113
 4272.53400 4272.53400   91.88050    2.21350    0.35186  143.04122    -999.25    1.26060
 4272.68640 4272.68640   92.18530    2.21392    0.35753  143.03101    -999.25    1.26014
 4272.83880 4272.83880   92.49010    2.21435    0.36320  143.02080    -999.25    1.25968
 4272.99120 4272.99120   92.79490    2.21478    0.36887  143.01059    -999.25    1.25923
 4273.14360 4273.14360   92.63300    2.21529    0.37121  143.00041    -999.25    1.25888
 4273.29600 4273.29600   92.44250    2.21581    0.37334  142.99023    -999.25    1.25855
 4273.44840 4273.44840   92.25200    2.21632    0.37548  142.98005    -999.25    1.25821
 4273.60080 4273.60080   91.10390    2.21493    0.38320  142.96985    -999.25    1.25721
 4273.75320 4273.75320   89.46560    2.21255    0.39377  142.95964    -999.25    1.25587
 4273.90560 4273.90560   87.82730    2.21017    0.40435  142.94942    -999.25    1.25453
 4274.05800 4274.05800   86.66750    2.20934    0.40729  142.93923    -999.25    1.25339
 4274.21040 4274.21040   86.28650    2.21101    0.39781  142.92905    -999.25    1.25256
 4274.36280 4274.36280   85.90550    2.21269    0.38833  142.91886    -999.25    1.25174
 4274.51520 4274.51520   85.61380    2.21423    0.37996  142.90868    -999.25    1.25113
 4274.66760 4274.66760   86.12815    2.21450    0.38161  142.89847    -999.25    1.25244
