~Version ---------------------------------------------------
VERS.   2.0 : CWLS log ASCII Standard -VERSION 2.0
WRAP.    NO : One line per depth step
DLM . SPACE : Column Data Section Delimiter
~Well ------------------------------------------------------
STRT  .m                4000.50000 : START DEPTH
STOP  .m                5517.00000 : STOP DEPTH
STEP  .m                   0.50000 : STEP
NULL  .                    -999.25 : NULL VALUE
COMP  .                            : COMPANY
WELL  .                     X3.las : WELL
FLD   .                            : FIELD
LOC   .                            : LOCATION
PROV  .                            : PROVINCE
CNTY  .                            : COUNTY
STAT  .                            : STATE
CTRY  .                            : COUNTRY
SRVC  .                            : SERVICE COMPANY
DATE  . 2024-04-14 16:30:14.689995 : DATE
UWI   .                            : UNIQUE WELL ID
API   .                            : API NUMBER
LIC   .                            : 
LATI  .                            : 
LONG  .                            : 
NS    .                            : 
EW    .                            : 
XCOORD.                            : 
YCOORD.                            : 
GDAT  .                            : 
SECT  .                            : 
RANG  .                            : 
TOWN  .                            : 
~Curve Information -----------------------------------------
DEPT      .m      : 
DEPTH     .None   : None
DTC       .None   : None
GR        .GAPI   : None
NPHI      .v/v    : None
NPHIHC    .None   : None
PEF       .None   : None
PERM      .mD     : None
PHIE      .v/v    : None
PHIT      .v/v    : None
RHOB      .g/cc   : None
RHOBFC    .None   : None
RHOBHC    .None   : None
ROCKTYPE  .None   : None
RT        .ohm.m  : None
SW_J      .None   : None
SWE       .v/v    : None
SWT       .v/v    : None
TVDSS     .None   : None
VCALC     .None   : None
VCLB      .None   : None
VCLD      .None   : None
VCLW      .None   : None
VCOAL     .None   : None
VDOLO     .None   : None
VGAS      .None   : None
VOIL      .None   : None
VSAND     .v/v    : None
VSHALE    .v/v    : None
VSILT     .v/v    : None
VWATER    .None   : None
BADHOLE   .None   : None
BS        .None   : None
CALI      .None   : None
COAL_FLAG .None   : None
PERFORATED.None   : None
~Params ----------------------------------------------------
EKB.      : 
EGL.      : 
KB .      : 
GL .      : 
TD .      : 
TDD.      : 
TDL.      : 
~Other -----------------------------------------------------
~ASCII -----------------------------------------------------
# ...
 4263.00000 4263.00000  141.30440   87.31250    0.38290    0.47726    -999.25   41.24976    0.15921    0.25757    2.21580    2.29462    2.29462    2.00000    1.19350    1.00000    1.00000    1.00000 1273.47513    0.23124    0.09836    0.51118    0.60955    -999.25    0.00000    0.00000    0.00000    0.00000    -999.25    0.00000    0.15921    0.00000    0.00000    0.00000    0.00000    0.00000
 4263.50000 4263.50000  141.47830   86.62500    0.37170    0.47662    -999.25   40.77817    0.15882    0.25708    2.20610    2.29547    2.29547    2.00000    1.19270    1.00000    1.00000    1.00000 1273.62754    0.23190    0.09826    0.51102    0.60928    -999.25    0.00000    0.00000    0.00000    0.00000    -999.25    0.00000    0.15882    0.00000    0.00000    0.00000    0.00000    0.00000
 4264.00000 4264.00000  141.65220   83.18750    0.38020    0.46759    -999.25   53.51479    0.17666    0.26900    2.20220    2.27409    2.27409    2.00000    1.19240    1.00000    1.00000    1.00000 1273.77995    0.25850    0.09234    0.47251    0.56485    -999.25    0.00000    0.00000    0.00000    0.00000    -999.25    0.00000    0.17666    0.00000    0.00000    0.00000    0.00000    0.00000
 4264.50000 4264.50000  141.82610   85.56250    0.40720    0.48239    -999.25   65.09831    0.18273    0.27793    2.19970    2.25881    2.25881    2.00000    1.19200    1.00000    1.00000    1.00000 1273.93235    0.24091    0.09519    0.48116    0.57635    -999.25    0.00000    0.00000    0.00000    0.00000    -999.25    0.00000    0.18273    0.00000    0.00000    0.00000    0.00000    0.00000
 4265.00000 4265.00000  142.00000   89.75000    0.38940    0.49073    -999.25   46.55315    0.16116    0.26282    2.20140    2.28581    2.28581    2.00000    1.19540    1.00000    1.00000    1.00000 1274.08476    0.21261    0.10166    0.52457    0.62623    -999.25    0.00000    0.00000    0.00000    0.00000    -999.25    0.00000    0.16116    0.00000    0.00000    0.00000    0.00000    0.00000
 4265.50000 4265.50000  142.17390   88.18750    0.39170    0.48479    -999.25   48.16190    0.16501    0.26431    2.20630    2.28297    2.28297    2.00000    1.20200    1.00000    1.00000    1.00000 1274.23717    0.22430    0.09930    0.51139    0.61069    -999.25    0.00000    0.00000    0.00000    0.00000    -999.25    0.00000    0.16501    0.00000    0.00000    0.00000    0.00000    0.00000
 4266.00000 4266.00000  142.23600   88.62500    0.35970    0.47561    -999.25   30.87147    0.14480    0.24543    2.21440    2.31604    2.31604    2.00000    1.21310    1.00000    1.00000    1.00000 1274.38958    0.22303    0.10063    0.53154    0.63218    -999.25    0.00000    0.00000    0.00000    0.00000    -999.25    0.00000    0.14480    0.00000    0.00000    0.00000    0.00000    0.00000
 4266.50000 4266.50000  142.29810   83.12500    0.38220    0.46494    -999.25   50.18653    0.17398    0.26613    2.21130    2.27906    2.27906    2.00000    1.22670    1.00000    1.00000    1.00000 1274.54198    0.26048    0.09215    0.47339    0.56554    -999.25    0.00000    0.00000    0.00000    0.00000    -999.25    0.00000    0.17398    0.00000    0.00000    0.00000    0.00000    0.00000
 4267.00000 4267.00000  142.36020   85.06250    0.37970    0.47027    -999.25   47.11921    0.16872    0.26335    2.20900    2.28416    2.28416    2.00000    1.23560    1.00000    1.00000    1.00000 1274.69439    0.24868    0.09463    0.48797    0.58260    -999.25    0.00000    0.00000    0.00000    0.00000    -999.25    0.00000    0.16872    0.00000    0.00000    0.00000    0.00000    0.00000
 4267.50000 4267.50000  142.42240   81.81250    0.39110    0.46776    -999.25   59.79562    0.18287    0.27402    2.20380    2.26521    2.26521    2.00000    1.23940    1.00000    1.00000    1.00000 1274.84680    0.26278    0.09115    0.46320    0.55435    -999.25    0.00000    0.00000    0.00000    0.00000    -999.25    0.00000    0.18287    0.00000    0.00000    0.00000    0.00000    0.00000
 4268.00000 4268.00000  142.48450   82.81250    0.39650    0.46952    -999.25   60.66890    0.18310    0.27468    2.20620    2.26410    2.26410    2.00000    1.24510    1.00000    1.00000    1.00000 1274.99920    0.26033    0.09158    0.46499    0.55658    -999.25    0.00000    0.00000    0.00000    0.00000    -999.25    0.00000    0.18310    0.00000    0.00000    0.00000    0.00000    0.00000
 4268.50000 4268.50000  142.54660   82.43750    0.40670    0.47231    -999.25   64.72531    0.18587    0.27766    2.20810    2.25893    2.25893    2.00000    1.24720    1.00000    1.00000    1.00000 1275.15161    0.25820    0.09179    0.46414    0.55594    -999.25    0.00000    0.00000    0.00000    0.00000    -999.25    0.00000    0.18587    0.00000    0.00000    0.00000    0.00000    0.00000
 4269.00000 4269.00000  142.60870   87.12500    0.41220    0.48741    -999.25   59.11024    0.17549    0.27349    2.20770    2.26683    2.26683    2.00000    1.24920    1.00000    1.00000    1.00000 1275.30402    0.22812    0.09800    0.49839    0.59639    -999.25    0.00000    0.00000    0.00000    0.00000    -999.25    0.00000    0.17549    0.00000    0.00000    0.00000    0.00000    0.00000
 4269.50000 4269.50000  142.67080   90.75000    0.40470    0.49634    -999.25   51.72285    0.16500    0.26747    2.20340    2.27778    2.27778    2.00000    1.25640    1.00000    1.00000    1.00000 1275.45643    0.20710    0.10247    0.52543    0.62790    -999.25    0.00000    0.00000    0.00000    0.00000    -999.25    0.00000    0.16500    0.00000    0.00000    0.00000    0.00000    0.00000
 4270.00000 4270.00000  142.73290   91.68750    0.38860    0.49858    -999.25   45.66056    0.15748    0.26197    2.19510    2.28758    2.28758    2.00000    1.26140    1.00000    1.00000    1.00000 1275.60883    0.19819    0.10450    0.53984    0.64434    -999.25    0.00000    0.00000    0.00000    0.00000    -999.25    0.00000    0.15748    0.00000    0.00000    0.00000    0.00000    0.00000
 4270.50000 4270.50000  142.79500   89.25000    0.38920    0.49110    -999.25   49.43263    0.16430    0.26546    2.19640    2.28115    2.28115    2.00000    1.26170    1.00000    1.00000    1.00000 1275.76124    0.21438    0.10116    0.52016    0.62132    -999.25    0.00000    0.00000    0.00000    0.00000    -999.25    0.00000    0.16430    0.00000    0.00000    0.00000    0.00000    0.00000
 4271.00000 4271.00000  142.85710   87.18750    0.38710    0.48526    -999.25   55.92451    0.17311    0.27098    2.19010    2.27120    2.27120    2.00000    1.26200    1.00000    1.00000    1.00000 1275.91365    0.22957    0.09787    0.49945    0.59733    -999.25    0.00000    0.00000    0.00000    0.00000    -999.25    0.00000    0.17311    0.00000    0.00000    0.00000    0.00000    0.00000
 4271.50000 4271.50000  142.91930   86.56250    0.37610    0.47908    -999.25   46.79473    0.16537    0.26305    2.19820    2.28501    2.28501    2.00000    1.26280    1.00000    1.00000    1.00000 1276.06605    0.23308    0.09768    0.50388    0.60155    -999.25    0.00000    0.00000    0.00000    0.00000    -999.25    0.00000    0.16537    0.00000    0.00000    0.00000    0.00000    0.00000
 4272.00000 4272.00000  142.98140   90.25000    0.36140    0.48381    -999.25   36.19266    0.15019    0.25202    2.19750    2.30467    2.30467    2.00000    1.26250    1.00000    1.00000    1.00000 1276.21846    0.21479    0.10183    0.53319    0.63503    -999.25    0.00000    0.00000    0.00000    0.00000    -999.25    0.00000    0.15019    0.00000    0.00000    0.00000    0.00000    0.00000
 4272.50000 4272.50000  143.04350   91.81250    0.35060    0.48184    -999.25   24.85991    0.13210    0.23673    2.21340    2.33164    2.33164    2.00000    1.26070    1.00000    1.00000    1.00000 1276.37087    0.20425    0.10463    0.55902    0.66365    -999.25    0.00000    0.00000    0.00000    0.00000    -999.25    0.00000    0.13210    0.00000    0.00000    0.00000    0.00000    0.00000
 4273.00000 4273.00000  143.01000   92.81250    0.36920    0.49096    -999.25   28.80714    0.13630    0.24261    2.21480    2.32155    2.32155    2.00000    1.25920    1.00000    1.00000    1.00000 1276.52328    0.19375    0.10631    0.56363    0.66994    -999.25    0.00000    0.00000    0.00000    0.00000    -999.25    0.00000    0.13630    0.00000    0.00000    0.00000    0.00000    0.00000
