~Version ---------------------------------------------------
VERS.   2.0 : CWLS log ASCII Standard -VERSION 2.0
WRAP.    NO : One line per depth step
DLM . SPACE : Column Data Section Delimiter
~Well ------------------------------------------------------
STRT  .m                4000.50000 : START DEPTH
STOP  .m                5517.00000 : STOP DEPTH
STEP  .m                   0.50000 : STEP
NULL  .                    -999.25 : NULL VALUE
COMP  .                            : COMPANY
WELL  .                     X3.las : WELL
FLD   .                            : FIELD
LOC   .                            : LOCATION
PROV  .                            : PROVINCE
CNTY  .                            : COUNTY
STAT  .                            : STATE
CTRY  .                            : COUNTRY
SRVC  .                            : SERVICE COMPANY
DATE  . 2024-04-14 16:30:14.689995 : DATE
UWI   .                            : UNIQUE WELL ID
API   .                            : API NUMBER
LIC   .                            : 
LATI  .                            : 
LONG  .                            : 
NS    .                            : 
EW    .                            : 
XCOORD.                            : 
YCOORD.                            : 
GDAT  .                            : 
SECT  .                            : 
RANG  .                            : 
TOWN  .                            : 
~Curve Information -----------------------------------------
DEPT      .m      : 
DEPTH     .None   : None
DTC       .None   : None
GR        .GAPI   : None
NPHI      .v/v    : None
NPHIHC    .None   : None
PEF       .None   : None
PERM      .mD     : None
PHIE      .v/v    : None
PHIT      .v/v    : None
RHOB      .g/cc   : None
RHOBFC    .None   : None
RHOBHC    .None   : None
ROCKTYPE  .None   : None
RT        .ohm.m  : None
SW_J      .None   : None
SWE       .v/v    : None
SWT       .v/v    : None
TVDSS     .None   : None
VCALC     .None   : None
VCLB      .None   : None
VCLD      .None   : None
VCLW      .None   : None
VCOAL     .None   : None
VDOLO     .None   : None
VGAS      .None   : None
VOIL      .None   : None
VSAND     .v/v    : None
VSHALE    .v/v    : None
VSILT     .v/v    : None
VWATER    .None   : None
BADHOLE   .None   : None
BS        .None   : None
CALI      .None   : None
COAL_FLAG .None   : None
PERFORATED.None   : None
~Params ----------------------------------------------------
EKB.      : 
EGL.      : 
KB .      : 
GL .      : 
TD .      : 
TDD.      : 
TDL.      : 
~Other -----------------------------------------------------
~ASCII -----------------------------------------------------
# ...
 5040.00000 5040.00000   91.00000   23.03110    0.18730    0.18897    -999.25    9.28830    0.17977    0.20090    2.38480    2.38480    2.38480    2.00000    2.83140    0.76569    1.00000    1.00000 1510.30105    0.68087    0.02114    0.11823    0.13936    -999.25    0.00000    0.00000    0.00000    0.00000    -999.25    0.00000    0.17977    0.00000    0.00000    0.00000    0.00000    0.00000
 5040.50000 5040.50000   90.40000   23.60910    0.20310    0.20519    -999.25   21.57179    0.21475    0.23120    2.33180    2.33180    2.33180    2.00000    2.91820    0.66922    0.99003    0.99074 1510.45346    0.68032    0.01644    0.08849    0.10493    -999.25    0.00000    0.00214    0.00000    0.00000    -999.25    0.00000    0.21261    0.00000    0.00000    0.00000    0.00000    0.00000
 5041.00000 5041.00000   91.00000   27.30290    0.20540    0.21030    -999.25   28.47311    0.22774    0.24214    2.29590    2.31262    2.31262    2.00000    2.83980    0.64271    0.94164    0.94511 1510.60587    0.68143    0.01441    0.07643    0.09084    -999.25    0.00000    0.01329    0.00000    0.00000    -999.25    0.00000    0.21445    0.00000    0.00000    0.00000    0.00000    0.00000
 5041.50000 5041.50000   90.80000   25.11770    0.21400    0.21635    -999.25   31.13723    0.23063    0.24578    2.30640    2.30640    2.30640    2.00000    2.48430    0.63697    0.99273    0.99318 1510.75828    0.67424    0.01515    0.07998    0.09513    -999.25    0.00000    0.00168    0.00000    0.00000    -999.25    0.00000    0.22896    0.00000    0.00000    0.00000    0.00000    0.00000
 5042.00000 5042.00000   90.70000   27.07300    0.22140    0.22373    -999.25   25.34957    0.21714    0.23750    2.32130    2.32130    2.32130    2.00000    2.35990    0.66316    1.00000    1.00000 1510.91068    0.65384    0.02036    0.10866    0.12902    -999.25    0.00000    0.00000    0.00000    0.00000    -999.25    0.00000    0.21714    0.00000    0.00000    0.00000    0.00000    0.00000
 5042.50000 5042.50000   91.70000   28.38430    0.22900    0.23134    -999.25   21.51145    0.20616    0.23109    2.33290    2.33290    2.33290    2.00000    2.21780    0.68574    1.00000    1.00000 1511.06309    0.63476    0.02492    0.13415    0.15908    -999.25    0.00000    0.00000    0.00000    0.00000    -999.25    0.00000    0.20616    0.00000    0.00000    0.00000    0.00000    0.00000
 5043.00000 5043.00000   95.10000   28.55440    0.21860    0.22068    -999.25   14.14626    0.18901    0.21550    2.36010    2.36010    2.36010    2.00000    2.28400    0.73994    1.00000    1.00000 1511.21550    0.63905    0.02649    0.14545    0.17194    -999.25    0.00000    0.00000    0.00000    0.00000    -999.25    0.00000    0.18901    0.00000    0.00000    0.00000    0.00000    0.00000
 5043.50000 5043.50000   99.90000   23.41470    0.21310    0.21508    -999.25   12.21781    0.18395    0.21030    2.36910    2.36910    2.36910    2.00000    1.94990    0.76304    1.00000    1.00000 1511.36791    0.64404    0.02635    0.14566    0.17201    -999.25    0.00000    0.00000    0.00000    0.00000    -999.25    0.00000    0.18395    0.00000    0.00000    0.00000    0.00000    0.00000
 5044.00000 5044.00000  120.76920   23.62740    0.21190    0.21396    -999.25   15.69760    0.19611    0.21927    2.35320    2.35320    2.35320    2.00000    1.98100    0.73653    1.00000    1.00000 1511.52031    0.65419    0.02316    0.12655    0.14970    -999.25    0.00000    0.00000    0.00000    0.00000    -999.25    0.00000    0.19611    0.00000    0.00000    0.00000    0.00000    0.00000
 5044.50000 5044.50000  121.95700   23.20100    0.22050    0.22278    -999.25   22.80703    0.21193    0.23335    2.32860    2.32860    2.32860    2.00000    1.58470    0.69660    1.00000    1.00000 1511.67272    0.65171    0.02142    0.11494    0.13636    -999.25    0.00000    0.00000    0.00000    0.00000    -999.25    0.00000    0.21193    0.00000    0.00000    0.00000    0.00000    0.00000
 5045.00000 5045.00000  123.14480   23.17680    0.22600    0.22848    -999.25   32.28155    0.22862    0.24726    2.30420    2.30420    2.30420    2.00000    1.50230    0.66178    1.00000    1.00000 1511.82513    0.65449    0.01864    0.09824    0.11689    -999.25    0.00000    0.00000    0.00000    0.00000    -999.25    0.00000    0.22862    0.00000    0.00000    0.00000    0.00000    0.00000
 5045.50000 5045.50000  124.33260   20.65530    0.23770    0.24050    -999.25   49.64635    0.24932    0.26565    2.27210    2.27210    2.27210    2.00000    1.31820    0.62013    1.00000    1.00000 1511.97754    0.65037    0.01634    0.08397    0.10031    -999.25    0.00000    0.00000    0.00000    0.00000    -999.25    0.00000    0.24932    0.00000    0.00000    0.00000    0.00000    0.00000
 5046.00000 5046.00000  125.52040   20.60000    0.26760    0.27095    -999.25   73.33659    0.26301    0.28350    2.24160    2.24160    2.24160    2.00000    1.30950    0.58508    1.00000    1.00000 1512.12994    0.61372    0.02049    0.10277    0.12327    -999.25    0.00000    0.00000    0.00000    0.00000    -999.25    0.00000    0.26301    0.00000    0.00000    0.00000    0.00000    0.00000
 5046.50000 5046.50000  125.06790   22.13460    0.28410    0.28800    -999.25   64.07839    0.29481    0.31126    2.19310    2.19310    2.19310    1.00000    1.31640    0.44682    1.00000    1.00000 1512.28235    0.60941    0.01645    0.07933    0.09578    -999.25    0.00000    0.00000    0.00000    0.00000    -999.25    0.00000    0.29481    0.00000    0.00000    0.00000    0.00000    0.00000
 5047.00000 5047.00000  124.61540   26.68920    0.31240    0.31693    -999.25   92.28214    0.30975    0.32982    2.16130    2.16130    2.16130    1.00000    1.31800    0.40818    0.98825    0.98896 1512.43476    0.57604    0.02007    0.09414    0.11421    -999.25    0.00000    0.00364    0.00000    0.00000    -999.25    0.00000    0.30611    0.00000    0.00000    0.00000    0.00000    0.00000
 5047.50000 5047.50000  124.16290   26.09530    0.31340    0.31809    -999.25  111.69030    0.32335    0.33996    2.14340    2.14340    2.14340    1.00000    1.17690    0.39159    0.99791    0.99801 1512.58716    0.58328    0.01661    0.07675    0.09337    -999.25    0.00000    0.00068    0.00000    0.00000    -999.25    0.00000    0.32267    0.00000    0.00000    0.00000    0.00000    0.00000
 5048.00000 5048.00000  123.71040   24.23680    0.32070    0.32547    -999.25  108.40330    0.31835    0.33835    2.14650    2.14650    2.14650    1.00000    1.19390    0.39975    1.00000    1.00000 1512.73957    0.56899    0.02001    0.09266    0.11266    -999.25    0.00000    0.00000    0.00000    0.00000    -999.25    0.00000    0.31835    0.00000    0.00000    0.00000    0.00000    0.00000
 5048.50000 5048.50000  123.25800   24.86400    0.31310    0.31764    -999.25   91.90847    0.30919    0.32960    2.16170    2.16170    2.16170    1.00000    1.29080    0.42396    1.00000    1.00000 1512.89198    0.57462    0.02041    0.09578    0.11619    -999.25    0.00000    0.00000    0.00000    0.00000    -999.25    0.00000    0.30919    0.00000    0.00000    0.00000    0.00000    0.00000
 5049.00000 5049.00000  122.80550   27.15660    0.31980    0.32432    -999.25   79.40929    0.29637    0.32204    2.17530    2.17530    2.17530    1.00000    1.28660    0.44735    1.00000    1.00000 1513.04439    0.55610    0.02568    0.12186    0.14753    -999.25    0.00000    0.00000    0.00000    0.00000    -999.25    0.00000    0.29637    0.00000    0.00000    0.00000    0.00000    0.00000
 5049.50000 5049.50000  122.35300   25.05180    0.32950    0.33409    -999.25   73.81924    0.28775    0.31833    2.18220    2.18220    2.18220    1.00000    1.31170    0.46257    1.00000    1.00000 1513.19679    0.53571    0.03059    0.14595    0.17654    -999.25    0.00000    0.00000    0.00000    0.00000    -999.25    0.00000    0.28775    0.00000    0.00000    0.00000    0.00000    0.00000
 5050.00000 5050.00000  122.35300   24.19960    0.32800    0.33256    -999.25   72.95347    0.28750    0.31774    2.18320    2.18320    2.18320    1.00000    1.31470    0.47028    1.00000    1.00000 1513.34920    0.53783    0.03024    0.14444    0.17468    -999.25    0.00000    0.00000    0.00000    0.00000    -999.25    0.00000    0.28750    0.00000    0.00000    0.00000    0.00000    0.00000
