~Version ---------------------------------------------------
VERS.   2.0 : CWLS log ASCII Standard -VERSION 2.0
WRAP.    NO : One line per depth step
DLM . SPACE : Column Data Section Delimiter
~Well ------------------------------------------------------
STRT  .m                4000.50000 : START DEPTH
STOP  .m                5516.88000 : STOP DEPTH
STEP  .m                   0.15240 : STEP
NULL  .                    -999.25 : NULL VALUE
COMP  .                            : COMPANY
WELL  .                         X3 : WELL
FLD   .                            : FIELD
LOC   .                            : LOCATION
PROV  .                            : PROVINCE
CNTY  .                            : COUNTY
STAT  .                            : STATE
CTRY  .                            : COUNTRY
SRVC  .                            : SERVICE COMPANY
DATE  . 2024-04-15 17:03:00.591302 : DATE
UWI   .                            : UNIQUE WELL ID
API   .                            : API NUMBER
LIC   .                            : 
LATI  .                            : 
LONG  .                            : 
NS    .                            : 
EW    .                            : 
XCOORD.                            : 
YCOORD.                            : 
GDAT  .                            : 
SECT  .                            : 
RANG  .                            : 
TOWN  .                            : 
~Curve Information -----------------------------------------
DEPT .m      : 
DEPTH.None   : None
GR   .GAPI   : None
RHOB .g/cc   : None
NPHI .v/v    : None
DTC  .None   : None
PEF  .None   : None
RT   .ohm.m  : None
~Params ----------------------------------------------------
EKB.      : 
EGL.      : 
KB .      : 
GL .      : 
TD .      : 
TDD.      : 
TDL.      : 
~Other -----------------------------------------------------
~ASCII -----------------------------------------------------
# ...
 4343.40000 4343.40000   85.30000    2.24550    0.36614  137.54234    -999.25    1.24656
 4343.55240 4343.55240   85.09935    2.24758    0.36692  137.55629    -999.25    1.24620
 4343.70480 4343.70480   84.66120    2.25014    0.37307  137.57022    -999.25    1.24589
 4343.85720 4343.85720   84.22305    2.25270    0.37923  137.58415    -999.25    1.24559
 4344.00960 4344.00960   83.81490    2.25514    0.38470  137.59808    -999.25    1.24528
 4344.16200 4344.16200   83.85300    2.25581    0.38001  137.61204    -999.25    1.24494
 4344.31440 4344.31440   83.89110    2.25648    0.37532  137.62600    -999.25    1.24461
 4344.46680 4344.46680   83.92920    2.25715    0.37062  137.63996    -999.25    1.24427
 4344.61920 4344.61920   84.84640    2.25430    0.37148  137.65392    -999.25    1.24415
 4344.77160 4344.77160   86.00845    2.25046    0.37389  137.66788    -999.25    1.24409
 4344.92400 4344.92400   87.17050    2.24662    0.37630  137.68184    -999.25    1.24403
 4345.07640 4345.07640   88.58085    2.24262    0.37322  137.69578    -999.25    1.24444
 4345.22880 4345.22880   90.23820    2.23848    0.36469  137.70971    -999.25    1.24533
 4345.38120 4345.38120   91.89555    2.23433    0.35615  137.72364    -999.25    1.24621
 4345.53360 4345.53360   93.30090    2.23056    0.34984  137.73758    -999.25    1.24722
 4345.68600 4345.68600   93.81525    2.22812    0.35136  137.75154    -999.25    1.24869
 4345.83840 4345.83840   94.32960    2.22569    0.35288  137.76550    -999.25    1.25015
 4345.99080 4345.99080   94.84395    2.22325    0.35441  137.77946    -999.25    1.25161
 4346.14320 4346.14320   94.17690    2.22356    0.36435  137.79342    -999.25    1.25276
 4346.29560 4346.29560   93.43395    2.22405    0.37484  137.80738    -999.25    1.25389
 4346.44800 4346.44800   92.69100    2.22453    0.38532  137.82134    -999.25    1.25502
 4346.60040 4346.60040   91.94805    2.22460    0.38976  137.86975    -999.25    1.25556
 4346.75280 4346.75280   91.20510    2.22445    0.39107  137.93602    -999.25    1.25580
 4346.90520 4346.90520   90.46215    2.22429    0.39238  138.00228    -999.25    1.25605
 4347.05760 4347.05760   89.99280    2.22493    0.39070  138.06854    -999.25    1.25605
 4347.21000 4347.21000   89.97375    2.22685    0.38409  138.13481    -999.25    1.25565
 4347.36240 4347.36240   89.95470    2.22877    0.37747  138.20107    -999.25    1.25526
 4347.51480 4347.51480   90.06330    2.23043    0.37089  138.26734    -999.25    1.25474
 4347.66720 4347.66720   91.35870    2.22966    0.36464  138.33360    -999.25    1.25309
 4347.81960 4347.81960   92.65410    2.22890    0.35840  138.39986    -999.25    1.25145
 4347.97200 4347.97200   93.94950    2.22814    0.35215  138.46613    -999.25    1.24980
 4348.12440 4348.12440   94.23415    2.22939    0.35025  138.53236    -999.25    1.24928
 4348.27680 4348.27680   94.29130    2.23110    0.34934  138.59860    -999.25    1.24900
 4348.42920 4348.42920   94.34845    2.23281    0.34842  138.66483    -999.25    1.24873
 4348.58160 4348.58160   94.29340    2.23202    0.35081  138.73108    -999.25    1.24912
 4348.73400 4348.73400   94.14100    2.22906    0.35605  138.79734    -999.25    1.25010
 4348.88640 4348.88640   93.98860    2.22610    0.36129  138.86361    -999.25    1.25107
 4349.03880 4349.03880   93.81680    2.22340    0.36519  138.92987    -999.25    1.25226
 4349.19120 4349.19120   93.58820    2.22145    0.36516  138.99613    -999.25    1.25406
 4349.34360 4349.34360   93.35960    2.21950    0.36513  139.06240    -999.25    1.25585
 4349.49600 4349.49600   93.13100    2.21755    0.36510  139.12866    -999.25    1.25765
 4349.64840 4349.64840   93.53310    2.21616    0.36560  139.19492    -999.25    1.25907
 4349.80080 4349.80080   93.95220    2.21479    0.36612  139.26119    -999.25    1.26047
 4349.95320 4349.95320   94.37130    2.21342    0.36664  139.32745    -999.25    1.26187
 4350.10560 4350.10560   94.77720    2.21378    0.36522  139.39371    -999.25    1.26236
 4350.25800 4350.25800   95.17725    2.21491    0.36293  139.45998    -999.25    1.26245
 4350.41040 4350.41040   95.57730    2.21604    0.36064  139.52624    -999.25    1.26255
 4350.56280 4350.56280   95.40430    2.21608    0.35930  139.59251    -999.25    1.26157
 4350.71520 4350.71520   94.41370    2.21459    0.35930  139.65877    -999.25    1.25907
 4350.86760 4350.86760   93.42310    2.21310    0.35930  139.72503    -999.25    1.25657
 4351.02000 4351.02000   92.53750    2.21184    0.35906  139.79128    -999.25    1.25408
 4351.17240 4351.17240   92.34700    2.21211    0.35720  139.85746    -999.25    1.25164
 4351.32480 4351.32480   92.15650    2.21238    0.35534  139.92363    -999.25    1.24920
 4351.47720 4351.47720   91.96600    2.21266    0.35348  139.98980    -999.25    1.24676
 4351.62960 4351.62960   92.21290    2.21275    0.35279  140.15748    -999.25    1.24451
 4351.78200 4351.78200   92.53675    2.21281    0.35230  140.34301    -999.25    1.24228
 4351.93440 4351.93440   92.86060    2.21287    0.35181  140.52854    -999.25    1.24006
 4352.08680 4352.08680   93.85715    2.21300    0.34908  140.71407    -999.25    1.23889
 4352.23920 4352.23920   95.36210    2.21319    0.34466  140.89960    -999.25    1.23853
 4352.39160 4352.39160   96.86705    2.21337    0.34024  141.08513    -999.25    1.23816
 4352.54400 4352.54400   98.00350    2.21462    0.33816  141.27067    -999.25    1.23816
 4352.69640 4352.69640   98.23210    2.21849    0.34181  141.45620    -999.25    1.23904
 4352.84880 4352.84880   98.46070    2.22236    0.34547  141.64173    -999.25    1.23992
 4353.00120 4353.00120   98.69065    2.22619    0.34915  141.82726    -999.25    1.24081
 4353.15360 4353.15360   99.09070    2.22460    0.35494  142.01279    -999.25    1.24151
 4353.30600 4353.30600   99.49075    2.22302    0.36073  142.19832    -999.25    1.24221
 4353.45840 4353.45840   99.89080    2.22143    0.36652  142.38386    -999.25    1.24291
 4353.61080 4353.61080   99.09975    2.22226    0.37278  142.56945    -999.25    1.24396
 4353.76320 4353.76320   97.86150    2.22400    0.37921  142.75508    -999.25    1.24515
 4353.91560 4353.91560   96.62325    2.22574    0.38564  142.94070    -999.25    1.24634
 4354.06800 4354.06800   96.06500    2.22465    0.38823  143.05594    -999.25    1.24685
 4354.22040 4354.22040   96.35075    2.22004    0.38607  143.08383    -999.25    1.24652
 4354.37280 4354.37280   96.63650    2.21544    0.38391  143.11172    -999.25    1.24618
 4354.52520 4354.52520   96.67340    2.21134    0.38151  143.13961    -999.25    1.24589
 4354.67760 4354.67760   95.45420    2.20975    0.37794  143.16750    -999.25    1.24586
 4354.83000 4354.83000   94.23500    2.20817    0.37438  143.19539    -999.25    1.24583
 4354.98240 4354.98240   93.01580    2.20658    0.37081  143.22328    -999.25    1.24580
 4355.13480 4355.13480   92.62225    2.20465    0.36485  143.25120    -999.25    1.24661
 4355.28720 4355.28720   92.33650    2.20267    0.35857  143.27912    -999.25    1.24752
 4355.43960 4355.43960   92.05075    2.20069    0.35229  143.30703    -999.25    1.24844
 4355.59200 4355.59200   91.32800    2.20051    0.35322  143.33494    -999.25    1.25014
 4355.74440 4355.74440   90.31835    2.20151    0.35889  143.36283    -999.25    1.25237
 4355.89680 4355.89680   89.30870    2.20252    0.36456  143.39071    -999.25    1.25459
 4356.04920 4356.04920   89.02475    2.20356    0.36745  143.41860    -999.25    1.25702
 4356.20160 4356.20160   90.26300    2.20469    0.36449  143.44649    -999.25    1.25985
 4356.35400 4356.35400   91.50125    2.20582    0.36153  143.47438    -999.25    1.26268
 4356.50640 4356.50640   92.70750    2.20696    0.35871  143.50227    -999.25    1.26555
 4356.65880 4356.65880   93.18375    2.20842    0.35892  143.53019    -999.25    1.26902
 4356.81120 4356.81120   93.66000    2.20989    0.35914  143.55811    -999.25    1.27250
 4356.96360 4356.96360   94.13625    2.21135    0.35935  143.58603    -999.25    1.27597
