~Version ---------------------------------------------------
VERS.   2.0 : CWLS log ASCII Standard -VERSION 2.0
WRAP.    NO : One line per depth step
DLM . SPACE : Column Data Section Delimiter
~Well ------------------------------------------------------
STRT  .m                4000.50000 : START DEPTH
STOP  .m                5517.00000 : STOP DEPTH
STEP  .m                   0.50000 : STEP
NULL  .                    -999.25 : NULL VALUE
COMP  .                            : COMPANY
WELL  .                     X3.las : WELL
FLD   .                            : FIELD
LOC   .                            : LOCATION
PROV  .                            : PROVINCE
CNTY  .                            : COUNTY
STAT  .                            : STATE
CTRY  .                            : COUNTRY
SRVC  .                            : SERVICE COMPANY
DATE  . 2024-04-14 16:30:14.689995 : DATE
UWI   .                            : UNIQUE WELL ID
API   .                            : API NUMBER
LIC   .                            : 
LATI  .                            : 
LONG  .                            : 
NS    .                            : 
EW    .                            : 
XCOORD.                            : 
YCOORD.                            : 
GDAT  .                            : 
SECT  .                            : 
RANG  .                            : 
TOWN  .                            : 
~Curve Information -----------------------------------------
DEPT      .m      : 
DEPTH     .None   : None
DTC       .None   : None
GR        .GAPI   : None
NPHI      .v/v    : None
NPHIHC    .None   : None
PEF       .None   : None
PERM      .mD     : None
PHIE      .v/v    : None
PHIT      .v/v    : None
RHOB      .g/cc   : None
RHOBFC    .None   : None
RHOBHC    .None   : None
ROCKTYPE  .None   : None
RT        .ohm.m  : None
SW_J      .None   : None
SWE       .v/v    : None
SWT       .v/v    : None
TVDSS     .None   : None
VCALC     .None   : None
VCLB      .None   : None
VCLD      .None   : None
VCLW      .None   : None
VCOAL     .None   : None
VDOLO     .None   : None
VGAS      .None   : None
VOIL      .None   : None
VSAND     .v/v    : None
VSHALE    .v/v    : None
VSILT     .v/v    : None
VWATER    .None   : None
BADHOLE   .None   : None
BS        .None   : None
CALI      .None   : None
COAL_FLAG .None   : None
PERFORATED.None   : None
~Params ----------------------------------------------------
EKB.      : 
EGL.      : 
KB .      : 
GL .      : 
TD .      : 
TDD.      : 
TDL.      : 
~Other -----------------------------------------------------
~ASCII -----------------------------------------------------
# ...
 5302.50000 5302.50000    -999.25    -999.25    0.18050    0.18213    -999.25    9.53603    0.18306    0.20179    2.38300    2.38300    2.38300    2.00000    1.88830    1.00000    1.00000    1.00000 1590.30887    0.69358    0.01873    0.10463    0.12335    -999.25    0.00000    0.00000    0.00000    0.00000    -999.25    0.00000    0.18306    0.00000    0.00000    0.00000    0.00000    0.00000
 5303.00000 5303.00000    -999.25    -999.25    0.19120    0.19298    -999.25   11.75826    0.18913    0.20896    2.37070    2.37070    2.37070    2.00000    1.66720    1.00000    1.00000    1.00000 1590.46127    0.68126    0.01983    0.10978    0.12961    -999.25    0.00000    0.00000    0.00000    0.00000    -999.25    0.00000    0.18913    0.00000    0.00000    0.00000    0.00000    0.00000
 5303.50000 5303.50000    -999.25    -999.25    0.19650    0.19841    -999.25   15.11392    0.19923    0.21789    2.35510    2.35510    2.35510    2.00000    1.41670    1.00000    1.00000    1.00000 1590.61368    0.67997    0.01866    0.10214    0.12080    -999.25    0.00000    0.00000    0.00000    0.00000    -999.25    0.00000    0.19923    0.00000    0.00000    0.00000    0.00000    0.00000
 5304.00000 5304.00000    -999.25    -999.25    0.20650    0.20866    -999.25   23.72026    0.21855    0.23488    2.32540    2.32540    2.32540    2.00000    1.18680    1.00000    1.00000    1.00000 1590.76609    0.67765    0.01633    0.08746    0.10379    -999.25    0.00000    0.00000    0.00000    0.00000    -999.25    0.00000    0.21855    0.00000    0.00000    0.00000    0.00000    0.00000
 5304.50000 5304.50000    -999.25    -999.25    0.21840    0.22070    -999.25   25.52931    0.21850    0.23778    2.32070    2.32070    2.32070    2.00000    0.98400    1.00000    1.00000    1.00000 1590.91850    0.65936    0.01928    0.10287    0.12214    -999.25    0.00000    0.00000    0.00000    0.00000    -999.25    0.00000    0.21850    0.00000    0.00000    0.00000    0.00000    0.00000
 5305.00000 5305.00000    -999.25    -999.25    0.23760    0.24018    -999.25   31.10668    0.22273    0.24574    2.30730    2.30730    2.30730    2.00000    0.82550    1.00000    1.00000    1.00000 1591.07090    0.63276    0.02301    0.12150    0.14452    -999.25    0.00000    0.00000    0.00000    0.00000    -999.25    0.00000    0.22273    0.00000    0.00000    0.00000    0.00000    0.00000
 5305.50000 5305.50000    -999.25    -999.25    0.27210    0.27526    -999.25   48.45930    0.23613    0.26458    2.27520    2.27520    2.27520    2.00000    0.72270    1.00000    1.00000    1.00000 1591.22331    0.58894    0.02845    0.14647    0.17493    -999.25    0.00000    0.00000    0.00000    0.00000    -999.25    0.00000    0.23613    0.00000    0.00000    0.00000    0.00000    0.00000
 5306.00000 5306.00000    -999.25    -999.25    0.29470    0.29869    -999.25  120.11470    0.28622    0.30780    2.19960    2.19960    2.19960    2.00000    0.66500    1.00000    1.00000    1.00000 1591.37572    0.58766    0.02158    0.10454    0.12612    -999.25    0.00000    0.00000    0.00000    0.00000    -999.25    0.00000    0.28622    0.00000    0.00000    0.00000    0.00000    0.00000
 5306.50000 5306.50000    -999.25    -999.25    0.31080    0.31549    -999.25  115.74140    0.32701    0.34189    2.13990    2.13990    2.13990    1.00000    0.64630    1.00000    1.00000    1.00000 1591.52812    0.58958    0.01488    0.06853    0.08341    -999.25    0.00000    0.00000    0.00000    0.00000    -999.25    0.00000    0.32701    0.00000    0.00000    0.00000    0.00000    0.00000
 5307.00000 5307.00000    -999.25    -999.25    0.31380    0.31884    -999.25  168.30200    0.35513    0.36282    2.10300    2.10300    2.10300    1.00000    0.65830    1.00000    1.00000    1.00000 1591.68053    0.60285    0.00770    0.03432    0.04202    -999.25    0.00000    0.00000    0.00000    0.00000    -999.25    0.00000    0.35513    0.00000    0.00000    0.00000    0.00000    0.00000
 5307.50000 5307.50000    -999.25    -999.25    0.32660    0.33196    -999.25  194.41200    0.36190    0.37123    2.08860    2.08860    2.08860    1.00000    0.68940    1.00000    1.00000    1.00000 1591.83294    0.58772    0.00933    0.04106    0.05039    -999.25    0.00000    0.00000    0.00000    0.00000    -999.25    0.00000    0.36190    0.00000    0.00000    0.00000    0.00000    0.00000
 5308.00000 5308.00000    -999.25    -999.25    0.32660    0.33182    -999.25  167.39720    0.34963    0.36251    2.10400    2.10400    2.10400    1.00000    0.70790    1.00000    1.00000    1.00000 1591.98535    0.58000    0.01288    0.05749    0.07037    -999.25    0.00000    0.00000    0.00000    0.00000    -999.25    0.00000    0.34963    0.00000    0.00000    0.00000    0.00000    0.00000
 5308.50000 5308.50000    -999.25    -999.25    0.31820    0.32314    -999.25  139.89820    0.33869    0.35233    2.12170    2.12170    2.12170    1.00000    0.68930    1.00000    1.00000    1.00000 1592.13775    0.58579    0.01365    0.06187    0.07552    -999.25    0.00000    0.00000    0.00000    0.00000    -999.25    0.00000    0.33869    0.00000    0.00000    0.00000    0.00000    0.00000
 5309.00000 5309.00000    -999.25    -999.25    0.29880    0.30322    -999.25  101.33000    0.32168    0.33475    2.15210    2.15210    2.15210    1.00000    0.65270    1.00000    1.00000    1.00000 1592.29016    0.60439    0.01307    0.06086    0.07393    -999.25    0.00000    0.00000    0.00000    0.00000    -999.25    0.00000    0.32168    0.00000    0.00000    0.00000    0.00000    0.00000
 5309.50000 5309.50000    -999.25    -999.25    0.28510    0.28926    -999.25   90.83398    0.31885    0.32899    2.16180    2.16180    2.16180    1.00000    0.61530    1.00000    1.00000    1.00000 1592.44257    0.62341    0.01013    0.04760    0.05774    -999.25    0.00000    0.00000    0.00000    0.00000    -999.25    0.00000    0.31885    0.00000    0.00000    0.00000    0.00000    0.00000
 5310.00000 5310.00000    -999.25    -999.25    0.28720    0.29136    -999.25   87.13430    0.31507    0.32683    2.16570    2.16570    2.16570    1.00000    0.60170    1.00000    1.00000    1.00000 1592.59498    0.61778    0.01175    0.05539    0.06714    -999.25    0.00000    0.00000    0.00000    0.00000    -999.25    0.00000    0.31507    0.00000    0.00000    0.00000    0.00000    0.00000
 5310.50000 5310.50000    -999.25    -999.25    0.28620    0.29029    -999.25   81.10808    0.31034    0.32313    2.17220    2.17220    2.17220    1.00000    0.61820    1.00000    1.00000    1.00000 1592.74738    0.61626    0.01279    0.06061    0.07340    -999.25    0.00000    0.00000    0.00000    0.00000    -999.25    0.00000    0.31034    0.00000    0.00000    0.00000    0.00000    0.00000
 5311.00000 5311.00000    -999.25    -999.25    0.29020    0.29411    -999.25  116.63630    0.28581    0.30629    2.20210    2.20210    2.20210    2.00000    0.63860    1.00000    1.00000    1.00000 1592.89979    0.59425    0.02048    0.09946    0.11994    -999.25    0.00000    0.00000    0.00000    0.00000    -999.25    0.00000    0.28581    0.00000    0.00000    0.00000    0.00000    0.00000
 5311.50000 5311.50000    -999.25    -999.25    0.28150    0.28531    -999.25  117.79600    0.28966    0.30680    2.20090    2.20090    2.20090    2.00000    0.64230    1.00000    1.00000    1.00000 1593.05220    0.61001    0.01714    0.08319    0.10033    -999.25    0.00000    0.00000    0.00000    0.00000    -999.25    0.00000    0.28966    0.00000    0.00000    0.00000    0.00000    0.00000
 5312.00000 5312.00000    -999.25    -999.25    -999.25    -999.25    -999.25    -999.25    -999.25    -999.25    -999.25    -999.25    -999.25    -999.25    -999.25    -999.25    -999.25    -999.25 1593.20460    -999.25    -999.25    -999.25    -999.25    -999.25    -999.25    -999.25    -999.25    -999.25    -999.25    -999.25    -999.25    0.00000    0.00000    0.00000    0.00000    0.00000
 5312.50000 5312.50000    -999.25    -999.25    -999.25    -999.25    -999.25    -999.25    -999.25    -999.25    -999.25    -999.25    -999.25    -999.25    -999.25    -999.25    -999.25    -999.25 1593.35701    -999.25    -999.25    -999.25    -999.25    -999.25    -999.25    -999.25    -999.25    -999.25    -999.25    -999.25    -999.25    0.00000    0.00000    0.00000    0.00000    0.00000
