~Version ---------------------------------------------------
VERS.   2.0 : CWLS log ASCII Standard -VERSION 2.0
WRAP.    NO : One line per depth step
DLM . SPACE : Column Data Section Delimiter
~Well ------------------------------------------------------
STRT  .m                4000.50000 : START DEPTH
STOP  .m                5517.00000 : STOP DEPTH
STEP  .m                   0.50000 : STEP
NULL  .                    -999.25 : NULL VALUE
COMP  .                            : COMPANY
WELL  .                     X3.las : WELL
FLD   .                            : FIELD
LOC   .                            : LOCATION
PROV  .                            : PROVINCE
CNTY  .                            : COUNTY
STAT  .                            : STATE
CTRY  .                            : COUNTRY
SRVC  .                            : SERVICE COMPANY
DATE  . 2024-04-14 16:30:14.689995 : DATE
UWI   .                            : UNIQUE WELL ID
API   .                            : API NUMBER
LIC   .                            : 
LATI  .                            : 
LONG  .                            : 
NS    .                            : 
EW    .                            : 
XCOORD.                            : 
YCOORD.                            : 
GDAT  .                            : 
SECT  .                            : 
RANG  .                            : 
TOWN  .                            : 
~Curve Information -----------------------------------------
DEPT      .m      : 
DEPTH     .None   : None
DTC       .None   : None
GR        .GAPI   : None
NPHI      .v/v    : None
NPHIHC    .None   : None
PEF       .None   : None
PERM      .mD     : None
PHIE      .v/v    : None
PHIT      .v/v    : None
RHOB      .g/cc   : None
RHOBFC    .None   : None
RHOBHC    .None   : None
ROCKTYPE  .None   : None
RT        .ohm.m  : None
SW_J      .None   : None
SWE       .v/v    : None
SWT       .v/v    : None
TVDSS     .None   : None
VCALC     .None   : None
VCLB      .None   : None
VCLD      .None   : None
VCLW      .None   : None
VCOAL     .None   : None
VDOLO     .None   : None
VGAS      .None   : None
VOIL      .None   : None
VSAND     .v/v    : None
VSHALE    .v/v    : None
VSILT     .v/v    : None
VWATER    .None   : None
BADHOLE   .None   : None
BS        .None   : None
CALI      .None   : None
COAL_FLAG .None   : None
PERFORATED.None   : None
~Params ----------------------------------------------------
EKB.      : 
EGL.      : 
KB .      : 
GL .      : 
TD .      : 
TDD.      : 
TDL.      : 
~Other -----------------------------------------------------
~ASCII -----------------------------------------------------
# ...
 5218.50000 5218.50000  105.40000   32.01990    0.31930    0.35706    -999.25  162.87810    0.33761    0.36094    2.08070    2.10766    2.10766    1.00000    0.70260    1.00000    1.00000    1.00000 1564.70747    0.53466    0.02334    0.10439    0.12773    -999.25    0.00000    0.00000    0.00000    0.00000    -999.25    0.00000    0.33761    0.00000    0.00000    0.00000    0.00000    0.00000
 5219.00000 5219.00000  102.60000   25.41780    0.29860    0.32088    -999.25  141.05240    0.34020    0.35279    2.10620    2.12081    2.12081    1.00000    0.70930    1.00000    1.00000    1.00000 1564.85987    0.59014    0.01260    0.05706    0.06966    -999.25    0.00000    0.00000    0.00000    0.00000    -999.25    0.00000    0.34020    0.00000    0.00000    0.00000    0.00000    0.00000
 5219.50000 5219.50000  101.90000   27.03260    0.31420    0.32371    -999.25  133.43030    0.33478    0.34970    2.12270    2.12638    2.12638    1.00000    0.70710    1.00000    1.00000    1.00000 1565.01228    0.58240    0.01492    0.06791    0.08282    -999.25    0.00000    0.00000    0.00000    0.00000    -999.25    0.00000    0.33478    0.00000    0.00000    0.00000    0.00000    0.00000
 5220.00000 5220.00000  105.50000   27.69350    0.31700    0.32663    -999.25  138.22490    0.33641    0.35166    2.11930    2.12301    2.12301    1.00000    0.68010    1.00000    1.00000    1.00000 1565.16469    0.57912    0.01525    0.06922    0.08447    -999.25    0.00000    0.00000    0.00000    0.00000    -999.25    0.00000    0.33641    0.00000    0.00000    0.00000    0.00000    0.00000
 5220.50000 5220.50000  105.00000   28.58930    0.33020    0.33538    -999.25  151.49510    0.34025    0.35682    2.11420    2.11420    2.11420    1.00000    0.69000    1.00000    1.00000    1.00000 1565.31710    0.56860    0.01657    0.07458    0.09115    -999.25    0.00000    0.00000    0.00000    0.00000    -999.25    0.00000    0.34025    0.00000    0.00000    0.00000    0.00000    0.00000
 5221.00000 5221.00000  111.50000   30.12560    0.32190    0.33157    -999.25  131.45330    0.33062    0.34887    2.12440    2.12812    2.12812    1.00000    0.70230    1.00000    1.00000    1.00000 1565.46950    0.56797    0.01825    0.08316    0.10140    -999.25    0.00000    0.00000    0.00000    0.00000    -999.25    0.00000    0.33062    0.00000    0.00000    0.00000    0.00000    0.00000
 5221.50000 5221.50000  102.50000   29.90090    0.32270    0.32758    -999.25  120.17840    0.32529    0.34394    2.13670    2.13670    2.13670    1.00000    0.75040    1.00000    1.00000    1.00000 1565.62191    0.57041    0.01865    0.08565    0.10430    -999.25    0.00000    0.00000    0.00000    0.00000    -999.25    0.00000    0.32529    0.00000    0.00000    0.00000    0.00000    0.00000
 5222.00000 5222.00000   99.50000   32.25810    0.31520    0.33334    -999.25  116.84730    0.32099    0.34241    2.12860    2.13961    2.13961    1.00000    0.77080    1.00000    1.00000    1.00000 1565.77432    0.55900    0.02142    0.09859    0.12001    -999.25    0.00000    0.00000    0.00000    0.00000    -999.25    0.00000    0.32099    0.00000    0.00000    0.00000    0.00000    0.00000
 5222.50000 5222.50000  106.70000   30.86030    0.31040    0.32828    -999.25  113.87300    0.32096    0.34101    2.13100    2.14190    2.14190    1.00000    0.79780    1.00000    1.00000    1.00000 1565.92673    0.56652    0.02005    0.09247    0.11251    -999.25    0.00000    0.00000    0.00000    0.00000    -999.25    0.00000    0.32096    0.00000    0.00000    0.00000    0.00000    0.00000
 5223.00000 5223.00000  110.20000   27.53960    0.31980    0.32446    -999.25   95.89085    0.30973    0.33183    2.15800    2.15800    2.15800    1.00000    0.81020    1.00000    1.00000    1.00000 1566.07913    0.56479    0.02210    0.10338    0.12549    -999.25    0.00000    0.00000    0.00000    0.00000    -999.25    0.00000    0.30973    0.00000    0.00000    0.00000    0.00000    0.00000
 5223.50000 5223.50000  113.40000   28.94220    0.31910    0.32346    -999.25   64.39658    0.28235    0.31151    2.19390    2.19390    2.19390    1.00000    0.82250    1.00000    1.00000    1.00000 1566.23154    0.54798    0.02916    0.14051    0.16967    -999.25    0.00000    0.00000    0.00000    0.00000    -999.25    0.00000    0.28235    0.00000    0.00000    0.00000    0.00000    0.00000
 5224.00000 5224.00000  117.00000   30.45820    0.31520    0.31940    -999.25  112.41130    0.27422    0.30442    2.20630    2.20630    2.20630    2.00000    0.81090    1.00000    1.00000    1.00000 1566.38395    0.54855    0.03020    0.14704    0.17723    -999.25    0.00000    0.00000    0.00000    0.00000    -999.25    0.00000    0.27422    0.00000    0.00000    0.00000    0.00000    0.00000
 5224.50000 5224.50000  111.00000   28.92720    0.31480    0.31916    -999.25   70.24311    0.28978    0.31584    2.18610    2.18610    2.18610    1.00000    0.80790    1.00000    1.00000    1.00000 1566.53636    0.55940    0.02605    0.12477    0.15082    -999.25    0.00000    0.00000    0.00000    0.00000    -999.25    0.00000    0.28978    0.00000    0.00000    0.00000    0.00000    0.00000
 5225.00000 5225.00000  107.00000   28.63330    0.31390    0.31835    -999.25   80.90794    0.29986    0.32300    2.17340    2.17340    2.17340    1.00000    0.77130    1.00000    1.00000    1.00000 1566.68876    0.56735    0.02314    0.10965    0.13279    -999.25    0.00000    0.00000    0.00000    0.00000    -999.25    0.00000    0.29986    0.00000    0.00000    0.00000    0.00000    0.00000
 5225.50000 5225.50000  107.30000   28.98730    0.29760    0.30172    -999.25   68.43527    0.29433    0.31453    2.18780    2.18780    2.18780    1.00000    0.82180    1.00000    1.00000    1.00000 1566.84117    0.58854    0.02020    0.09693    0.11713    -999.25    0.00000    0.00000    0.00000    0.00000    -999.25    0.00000    0.29433    0.00000    0.00000    0.00000    0.00000    0.00000
 5226.00000 5226.00000  103.60000   27.46770    0.27200    0.27558    -999.25   97.93793    0.28041    0.29750    2.21700    2.21700    2.21700    2.00000    0.82060    1.00000    1.00000    1.00000 1566.99358    0.61846    0.01709    0.08404    0.10113    -999.25    0.00000    0.00000    0.00000    0.00000    -999.25    0.00000    0.28041    0.00000    0.00000    0.00000    0.00000    0.00000
 5226.50000 5226.50000  103.80000   31.51660    0.27170    0.28245    -999.25   88.80210    0.27144    0.29269    2.21950    2.22575    2.22575    2.00000    0.81510    1.00000    1.00000    1.00000 1567.14599    0.60211    0.02125    0.10521    0.12645    -999.25    0.00000    0.00000    0.00000    0.00000    -999.25    0.00000    0.27144    0.00000    0.00000    0.00000    0.00000    0.00000
 5227.00000 5227.00000  102.40000   29.44330    0.26250    0.28026    -999.25  100.79230    0.28070    0.29893    2.20210    2.21464    2.21464    2.00000    0.82510    1.00000    1.00000    1.00000 1567.29839    0.61161    0.01823    0.08945    0.10768    -999.25    0.00000    0.00000    0.00000    0.00000    -999.25    0.00000    0.28070    0.00000    0.00000    0.00000    0.00000    0.00000
 5227.50000 5227.50000  100.00000   29.42520    0.27110    0.29371    -999.25   66.10362    0.29487    0.31281    2.17420    2.19057    2.19057    1.00000    0.85260    1.00000    1.00000    1.00000 1567.45080    0.60090    0.01794    0.08630    0.10424    -999.25    0.00000    0.00000    0.00000    0.00000    -999.25    0.00000    0.29487    0.00000    0.00000    0.00000    0.00000    0.00000
 5228.00000 5228.00000   96.90000   31.14770    0.25790    0.29396    -999.25  119.22990    0.28740    0.30742    2.17120    2.20011    2.20011    2.00000    0.88350    1.00000    1.00000    1.00000 1567.60321    0.59554    0.02002    0.09704    0.11705    -999.25    0.00000    0.00000    0.00000    0.00000    -999.25    0.00000    0.28740    0.00000    0.00000    0.00000    0.00000    0.00000
 5228.50000 5228.50000   99.30000   28.08390    0.27770    0.28923    -999.25   64.59229    0.29491    0.31166    2.18590    2.19244    2.19244    1.00000    0.96050    1.00000    1.00000    1.00000 1567.75562    0.60763    0.01675    0.08071    0.09746    -999.25    0.00000    0.00000    0.00000    0.00000    -999.25    0.00000    0.29491    0.00000    0.00000    0.00000    0.00000    0.00000
