~Version ---------------------------------------------------
VERS.   2.0 : CWLS log ASCII Standard -VERSION 2.0
WRAP.    NO : One line per depth step
DLM . SPACE : Column Data Section Delimiter
~Well ------------------------------------------------------
STRT  .m                4000.50000 : START DEPTH
STOP  .m                5516.88000 : STOP DEPTH
STEP  .m                   0.15240 : STEP
NULL  .                    -999.25 : NULL VALUE
COMP  .                            : COMPANY
WELL  .                         X3 : WELL
FLD   .                            : FIELD
LOC   .                            : LOCATION
PROV  .                            : PROVINCE
CNTY  .                            : COUNTY
STAT  .                            : STATE
CTRY  .                            : COUNTRY
SRVC  .                            : SERVICE COMPANY
DATE  . 2024-04-15 17:03:00.591302 : DATE
UWI   .                            : UNIQUE WELL ID
API   .                            : API NUMBER
LIC   .                            : 
LATI  .                            : 
LONG  .                            : 
NS    .                            : 
EW    .                            : 
XCOORD.                            : 
YCOORD.                            : 
GDAT  .                            : 
SECT  .                            : 
RANG  .                            : 
TOWN  .                            : 
~Curve Information -----------------------------------------
DEPT .m      : 
DEPTH.None   : None
GR   .GAPI   : None
RHOB .g/cc   : None
NPHI .v/v    : None
DTC  .None   : None
PEF  .None   : None
RT   .ohm.m  : None
~Params ----------------------------------------------------
EKB.      : 
EGL.      : 
KB .      : 
GL .      : 
TD .      : 
TDD.      : 
TDL.      : 
~Other -----------------------------------------------------
~ASCII -----------------------------------------------------
# ...
 4768.59600 4768.59600   43.58735    1.85000    0.12553  125.89280    -999.25 2000.00000
 4768.74840 4768.74840   43.77048    1.85000    0.12590  125.40512    -999.25 2000.00000
 4768.90080 4768.90080   43.95360    1.85000    0.12626  124.91744    -999.25 2000.00000
 4769.05320 4769.05320   43.42763    1.85000    0.12850  124.78088    -999.25 2000.00000
 4769.20560 4769.20560   41.57945    1.85000    0.13423  125.29904    -999.25 2000.00000
 4769.35800 4769.35800   39.73126    1.85000    0.13996  125.81720    -999.25 2000.00000
 4769.51040 4769.51040   37.94509    1.85000    0.14552  126.19808    -999.25 2000.00000
 4769.66280 4769.66280   37.00564    1.85000    0.14872  124.70456    -999.25 2000.00000
 4769.81520 4769.81520   36.06618    1.85000    0.15192  123.21104    -999.25 2000.00000
 4769.96760 4769.96760   35.12673    1.85000    0.15512  121.71752    -999.25 2000.00000
 4770.12000 4770.12000   34.33838    1.85000    0.16067  121.44800    -999.25 2000.00000
 4770.27240 4770.27240   33.59082    1.85000    0.16686  121.50896    -999.25 2000.00000
 4770.42480 4770.42480   32.84327    1.85000    0.17305  121.56992    -999.25 2000.00000
 4770.57720 4770.57720   32.32496    1.85000    0.17587  120.79712    -999.25 2000.00000
 4770.72960 4770.72960   32.02994    1.85000    0.17541  119.21216    -999.25 2000.00000
 4770.88200 4770.88200   31.73492    1.85000    0.17495  117.62720    -999.25 2000.00000
 4771.03440 4771.03440   31.52144    1.85000    0.17426  116.65456    -999.25 2000.00000
 4771.18680 4771.18680   31.58765    1.85000    0.17273  117.78232    -999.25 2000.00000
 4771.33920 4771.33920   31.65385    1.85000    0.17121  118.91008    -999.25 2000.00000
 4771.49160 4771.49160   31.72005    1.85000    0.16968  120.03784    -999.25 2000.00000
 4771.64400 4771.64400   31.89771    1.85000    0.16485  120.76240    -999.25 2000.00000
 4771.79640 4771.79640   32.08187    1.85000    0.15982  121.46344    -999.25 2000.00000
 4771.94880 4771.94880   32.26603    1.85000    0.15479  122.16448    -999.25 2000.00000
 4772.10120 4772.10120   31.85358    1.85743    0.15211  123.67512    -999.25 2000.00000
 4772.25360 4772.25360   31.13928    1.86861    0.15061  125.59536    -999.25 2000.00000
 4772.40600 4772.40600   30.42498    1.87980    0.14912  127.51560    -999.25 2000.00000
 4772.55840 4772.55840   29.96310    1.89572    0.14927  129.21392    -999.25 2000.00000
 4772.71080 4772.71080   29.90750    1.91925    0.15208  130.55504    -999.25 2000.00000
 4772.86320 4772.86320   29.85190    1.94278    0.15488  131.89616    -999.25 2000.00000
 4773.01560 4773.01560   29.81261    1.96372    0.15760  133.17488    -999.25 2000.00000
 4773.16800 4773.16800   29.91631    1.96192    0.15955  133.90640    -999.25 2000.00000
 4773.32040 4773.32040   30.02000    1.96012    0.16150  134.63792    -999.25 2000.00000
 4773.47280 4773.47280   30.12369    1.95832    0.16345  135.36944    -999.25 2000.00000
 4773.62520 4773.62520   29.50924    1.94473    0.16515  135.60016    -999.25 2000.00000
 4773.77760 4773.77760   28.73877    1.92857    0.16680  135.72208    -999.25 2000.00000
 4773.93000 4773.93000   27.96829    1.91242    0.16844  135.84400    -999.25 2000.00000
 4774.08240 4774.08240   27.81076    1.89719    0.16770  134.68048    -999.25 2000.00000
 4774.23480 4774.23480   28.17393    1.88274    0.16493  132.42496    -999.25 2000.00000
 4774.38720 4774.38720   28.53710    1.86829    0.16215  130.16944    -999.25 2000.00000
 4774.53960 4774.53960   28.82544    1.85865    0.16114  127.90600    -999.25 2000.00000
 4774.69200 4774.69200   28.90063    1.86267    0.16513  125.62000    -999.25 2000.00000
 4774.84440 4774.84440   28.97583    1.86669    0.16912  123.33400    -999.25 2000.00000
 4774.99680 4774.99680   29.05102    1.87072    0.17312  121.04800    -999.25 2000.00000
 4775.14920 4775.14920   30.67220    1.88551    0.17538  120.76128    -999.25 2000.00000
 4775.30160 4775.30160   32.32653    1.90054    0.17760  120.51744    -999.25 2000.00000
 4775.45400 4775.45400   33.98086    1.91556    0.17983  120.27360    -999.25 2000.00000
 4775.60640 4775.60640   34.38325    1.93014    0.18218  120.43408    -999.25 2000.00000
 4775.75880 4775.75880   34.24438    1.94453    0.18459  120.76936    -999.25 2000.00000
 4775.91120 4775.91120   34.10551    1.95892    0.18700  121.10464    -999.25 2000.00000
 4776.06360 4776.06360   34.07025    1.97030    0.18812  122.30488    -999.25 2000.00000
 4776.21600 4776.21600   34.17964    1.97750    0.18745  124.71280    -999.25 2000.00000
 4776.36840 4776.36840   34.28904    1.98469    0.18678  127.12072    -999.25 2000.00000
 4776.52080 4776.52080   34.32689    1.99037    0.18583  129.42464    -999.25 2000.00000
 4776.67320 4776.67320   33.91212    1.98647    0.18312  131.07056    -999.25 2000.00000
 4776.82560 4776.82560   33.49735    1.98256    0.18040  132.71648    -999.25 2000.00000
 4776.97800 4776.97800   33.08258    1.97866    0.17769  134.36240    -999.25 2000.00000
 4777.13040 4777.13040   33.24467    1.95760    0.17151  134.10448    -999.25 2000.00000
 4777.28280 4777.28280   33.50408    1.93364    0.16474  133.52536    -999.25 2000.00000
 4777.43520 4777.43520   33.76350    1.90969    0.15798  132.94624    -999.25 2000.00000
 4777.58760 4777.58760   33.36595    1.89083    0.15091  131.12320    -999.25 2000.00000
 4777.74000 4777.74000   32.48242    1.87574    0.14363  128.38000    -999.25 2000.00000
 4777.89240 4777.89240   31.59890    1.86065    0.13634  125.63680    -999.25 2000.00000
 4778.04480 4778.04480   31.03595    1.85000    0.12945  123.71792    -999.25 2000.00000
 4778.19720 4778.19720   31.24294    1.85000    0.12351  123.77888    -999.25 2000.00000
 4778.34960 4778.34960   31.44993    1.85000    0.11757  123.83984    -999.25 2000.00000
 4778.50200 4778.50200   31.65966    1.85000    0.11163  123.90280    -999.25 2000.00000
 4778.65440 4778.65440   32.07559    1.85000    0.10660  124.11616    -999.25 2000.00000
 4778.80680 4778.80680   32.49152    1.85000    0.10158  124.32952    -999.25 2000.00000
 4778.95920 4778.95920   32.90745    1.85000    0.09655  124.54288    -999.25 2000.00000
 4779.11160 4779.11160   33.12098    1.85007    0.09149  122.39032    -999.25 2000.00000
 4779.26400 4779.26400   33.26052    1.85016    0.08644  119.37280    -999.25 2000.00000
 4779.41640 4779.41640   33.40006    1.85025    0.08138  116.35528    -999.25 2000.00000
 4779.56880 4779.56880   33.35401    1.85487    0.07878  114.90640    -999.25 1979.52485
 4779.72120 4779.72120   33.08247    1.86499    0.07918  115.36360    -999.25 1934.17003
 4779.87360 4779.87360   32.81092    1.87511    0.07957  115.82080    -999.25 1888.81521
 4780.02600 4780.02600   32.65020    1.88667    0.08023  115.84640    -999.25 1812.11420
 4780.17840 4780.17840   33.02824    1.90526    0.08215  113.77376    -999.25 1583.02255
 4780.33080 4780.33080   33.40628    1.92386    0.08407  111.70112    -999.25 1353.93091
 4780.48320 4780.48320   33.78433    1.94245    0.08599  109.62848    -999.25 1124.83927
 4780.63560 4780.63560   34.42570    1.93276    0.08625  108.96608    -999.25  995.48296
 4780.78800 4780.78800   35.09971    1.91956    0.08632  108.47840    -999.25  878.48322
 4780.94040 4780.94040   35.77371    1.90636    0.08638  107.99072    -999.25  761.48349
 4781.09280 4781.09280   35.78895    1.89170    0.08501  109.11776    -999.25  691.86690
 4781.24520 4781.24520   35.38110    1.87609    0.08272  111.28184    -999.25  652.68172
 4781.39760 4781.39760   34.97324    1.86049    0.08044  113.44592    -999.25  613.49654
 4781.55000 4781.55000   35.16170    1.85000    0.07815  114.89000    -999.25  589.16808
 4781.70240 4781.70240   36.57140    1.85000    0.07586  114.85952    -999.25  595.26615
 4781.85480 4781.85480   37.98110    1.85000    0.07358  114.82904    -999.25  601.36423
 4782.00720 4782.00720   39.24610    1.85000    0.07143  114.80720    -999.25  610.37121
 4782.15960 4782.15960   37.59302    1.85000    0.07197  114.95960    -999.25  678.04114
