~Version ---------------------------------------------------
VERS.   2.0 : CWLS log ASCII Standard -VERSION 2.0
WRAP.    NO : One line per depth step
DLM . SPACE : Column Data Section Delimiter
~Well ------------------------------------------------------
STRT  .m                4000.50000 : START DEPTH
STOP  .m                5517.00000 : STOP DEPTH
STEP  .m                   0.50000 : STEP
NULL  .                    -999.25 : NULL VALUE
COMP  .                            : COMPANY
WELL  .                     X3.las : WELL
FLD   .                            : FIELD
LOC   .                            : LOCATION
PROV  .                            : PROVINCE
CNTY  .                            : COUNTY
STAT  .                            : STATE
CTRY  .                            : COUNTRY
SRVC  .                            : SERVICE COMPANY
DATE  . 2024-04-14 16:30:14.689995 : DATE
UWI   .                            : UNIQUE WELL ID
API   .                            : API NUMBER
LIC   .                            : 
LATI  .                            : 
LONG  .                            : 
NS    .                            : 
EW    .                            : 
XCOORD.                            : 
YCOORD.                            : 
GDAT  .                            : 
SECT  .                            : 
RANG  .                            : 
TOWN  .                            : 
~Curve Information -----------------------------------------
DEPT      .m      : 
DEPTH     .None   : None
DTC       .None   : None
GR        .GAPI   : None
NPHI      .v/v    : None
NPHIHC    .None   : None
PEF       .None   : None
PERM      .mD     : None
PHIE      .v/v    : None
PHIT      .v/v    : None
RHOB      .g/cc   : None
RHOBFC    .None   : None
RHOBHC    .None   : None
ROCKTYPE  .None   : None
RT        .ohm.m  : None
SW_J      .None   : None
SWE       .v/v    : None
SWT       .v/v    : None
TVDSS     .None   : None
VCALC     .None   : None
VCLB      .None   : None
VCLD      .None   : None
VCLW      .None   : None
VCOAL     .None   : None
VDOLO     .None   : None
VGAS      .None   : None
VOIL      .None   : None
VSAND     .v/v    : None
VSHALE    .v/v    : None
VSILT     .v/v    : None
VWATER    .None   : None
BADHOLE   .None   : None
BS        .None   : None
CALI      .None   : None
COAL_FLAG .None   : None
PERFORATED.None   : None
~Params ----------------------------------------------------
EKB.      : 
EGL.      : 
KB .      : 
GL .      : 
TD .      : 
TDD.      : 
TDL.      : 
~Other -----------------------------------------------------
~ASCII -----------------------------------------------------
# ...
 4609.50000 4609.50000  140.95650  110.93890    0.34890    0.54353    -999.25   53.21042    0.06839    0.19993    2.20860    2.39885    2.39885    3.00000    1.87860    1.00000    1.00000    1.00000 1379.08623    0.06336    0.13154    0.73670    0.86825    -999.25    0.00000    0.00000    0.00000    0.00000    -999.25    0.00000    0.06839    0.00000    0.00000    0.00000    0.00000    0.00000
 4610.00000 4610.00000  140.82600  110.56270    0.34950    0.54118    -999.25    9.38687    0.07068    0.20126    2.20980    2.39642    2.39642    2.00000    1.89830    1.00000    1.00000    1.00000 1379.23858    0.06867    0.13058    0.73008    0.86065    -999.25    0.00000    0.00000    0.00000    0.00000    -999.25    0.00000    0.07068    0.00000    0.00000    0.00000    0.00000    0.00000
 4610.50000 4610.50000  140.69560  110.78600    0.33830    0.53502    -999.25   38.72771    0.06058    0.19106    2.21830    2.41424    2.41424    3.00000    1.92100    1.00000    1.00000    1.00000 1379.39092    0.07007    0.13048    0.73887    0.86935    -999.25    0.00000    0.00000    0.00000    0.00000    -999.25    0.00000    0.06058    0.00000    0.00000    0.00000    0.00000    0.00000
 4611.00000 4611.00000  140.56520  112.60910    0.35480    0.54548    -999.25   43.57294    0.06117    0.19431    2.22300    2.40887    2.40887    3.00000    1.93750    1.00000    1.00000    1.00000 1379.54327    0.05484    0.13313    0.75086    0.88399    -999.25    0.00000    0.00000    0.00000    0.00000    -999.25    0.00000    0.06117    0.00000    0.00000    0.00000    0.00000    0.00000
 4611.50000 4611.50000  140.43480  103.36540    0.36700    0.51655    -999.25   14.44240    0.09620    0.21624    2.23180    2.36907    2.36907    2.00000    1.94110    1.00000    1.00000    1.00000 1379.69562    0.12518    0.12004    0.65857    0.77861    -999.25    0.00000    0.00000    0.00000    0.00000    -999.25    0.00000    0.09620    0.00000    0.00000    0.00000    0.00000    0.00000
 4612.00000 4612.00000  140.45220  104.87880    0.35480    0.51877    -999.25   10.06942    0.08047    0.20363    2.23610    2.39146    2.39146    2.00000    1.94490    1.00000    1.00000    1.00000 1379.84796    0.10980    0.12316    0.68658    0.80974    -999.25    0.00000    0.00000    0.00000    0.00000    -999.25    0.00000    0.08047    0.00000    0.00000    0.00000    0.00000    0.00000
 4612.50000 4612.50000  141.30450  101.99160    0.35630    0.50779    -999.25   12.10939    0.09148    0.20998    2.23860    2.37983    2.37983    2.00000    1.93110    1.00000    1.00000    1.00000 1380.00031    0.13469    0.11850    0.65532    0.77382    -999.25    0.00000    0.00000    0.00000    0.00000    -999.25    0.00000    0.09148    0.00000    0.00000    0.00000    0.00000    0.00000
 4613.00000 4613.00000  140.92400  101.52530    0.34740    0.50290    -999.25   11.61175    0.09127    0.20852    2.23560    2.38225    2.38225    2.00000    1.93370    1.00000    1.00000    1.00000 1380.15265    0.14186    0.11725    0.64962    0.76687    -999.25    0.00000    0.00000    0.00000    0.00000    -999.25    0.00000    0.09127    0.00000    0.00000    0.00000    0.00000    0.00000
 4613.50000 4613.50000  140.54360  104.21650    0.35470    0.51621    -999.25   11.17280    0.08550    0.20719    2.23280    2.38507    2.38507    2.00000    1.92370    1.00000    1.00000    1.00000 1380.30500    0.11751    0.12168    0.67531    0.79699    -999.25    0.00000    0.00000    0.00000    0.00000    -999.25    0.00000    0.08550    0.00000    0.00000    0.00000    0.00000    0.00000
 4614.00000 4614.00000  140.16310  104.52180    0.34040    0.50987    -999.25   43.47653    0.07208    0.19425    2.24320    2.40774    2.40774    3.00000    1.95040    1.00000    1.00000    1.00000 1380.45735    0.11672    0.12216    0.68904    0.81120    -999.25    0.00000    0.00000    0.00000    0.00000    -999.25    0.00000    0.07208    0.00000    0.00000    0.00000    0.00000    0.00000
 4614.50000 4614.50000  139.78270  105.92750    0.33700    0.51242    -999.25   32.33678    0.06176    0.18620    2.24920    2.42205    2.42205    3.00000    1.88740    1.00000    1.00000    1.00000 1380.60969    0.10493    0.12444    0.70887    0.83331    -999.25    0.00000    0.00000    0.00000    0.00000    -999.25    0.00000    0.06176    0.00000    0.00000    0.00000    0.00000    0.00000
 4615.00000 4615.00000  139.40230  104.75400    0.33450    0.50522    -999.25   32.21677    0.06385    0.18610    2.25400    2.42197    2.42197    3.00000    1.95210    1.00000    1.00000    1.00000 1380.76204    0.11737    0.12226    0.69653    0.81878    -999.25    0.00000    0.00000    0.00000    0.00000    -999.25    0.00000    0.06385    0.00000    0.00000    0.00000    0.00000    0.00000
 4615.50000 4615.50000  139.02190  106.08590    0.33600    0.51021    -999.25   30.30700    0.06041    0.18449    2.25310    2.42501    2.42501    3.00000    1.92980    1.00000    1.00000    1.00000 1380.91439    0.10721    0.12408    0.70830    0.83238    -999.25    0.00000    0.00000    0.00000    0.00000    -999.25    0.00000    0.06041    0.00000    0.00000    0.00000    0.00000    0.00000
 4616.00000 4616.00000  138.64140  106.76990    0.33660    0.51467    -999.25   30.30995    0.05905    0.18449    2.24900    2.42516    2.42516    3.00000    1.92950    1.00000    1.00000    1.00000 1381.06673    0.09945    0.12544    0.71606    0.84150    -999.25    0.00000    0.00000    0.00000    0.00000    -999.25    0.00000    0.05905    0.00000    0.00000    0.00000    0.00000    0.00000
 4616.50000 4616.50000  138.26090  106.32390    0.33840    0.51712    -999.25   40.13391    0.06723    0.19204    2.23650    2.41189    2.41189    3.00000    1.91390    1.00000    1.00000    1.00000 1381.21908    0.10209    0.12481    0.70587    0.83068    -999.25    0.00000    0.00000    0.00000    0.00000    -999.25    0.00000    0.06723    0.00000    0.00000    0.00000    0.00000    0.00000
 4617.00000 4617.00000  138.36960  102.11540    0.34530    0.50566    -999.25   10.05032    0.08448    0.20356    2.23840    2.39112    2.39112    2.00000    1.84130    1.00000    1.00000    1.00000 1381.37143    0.13254    0.11908    0.66390    0.78298    -999.25    0.00000    0.00000    0.00000    0.00000    -999.25    0.00000    0.08448    0.00000    0.00000    0.00000    0.00000    0.00000
 4617.50000 4617.50000  138.47830  101.06630    0.34780    0.50316    -999.25   11.37041    0.09032    0.20779    2.23700    2.38355    2.38355    2.00000    1.79680    1.00000    1.00000    1.00000 1381.52377    0.14075    0.11748    0.65146    0.76894    -999.25    0.00000    0.00000    0.00000    0.00000    -999.25    0.00000    0.09032    0.00000    0.00000    0.00000    0.00000    0.00000
 4618.00000 4618.00000  138.58690  101.90940    0.34790    0.50168    -999.25   10.07999    0.08584    0.20366    2.24540    2.39080    2.39080    2.00000    1.78820    1.00000    1.00000    1.00000 1381.67612    0.13955    0.11782    0.65678    0.77461    -999.25    0.00000    0.00000    0.00000    0.00000    -999.25    0.00000    0.08584    0.00000    0.00000    0.00000    0.00000    0.00000
 4618.50000 4618.50000  138.69560  104.85060    0.36300    0.51901    -999.25   10.60632    0.08250    0.20540    2.24260    2.38834    2.38834    2.00000    1.80890    1.00000    1.00000    1.00000 1381.82847    0.11100    0.12290    0.68360    0.80651    -999.25    0.00000    0.00000    0.00000    0.00000    -999.25    0.00000    0.08250    0.00000    0.00000    0.00000    0.00000    0.00000
 4619.00000 4619.00000  138.80430  105.30310    0.36670    0.51989    -999.25   10.45419    0.08163    0.20490    2.24680    2.38924    2.38924    2.00000    1.76270    1.00000    1.00000    1.00000 1381.98081    0.10901    0.12327    0.68609    0.80936    -999.25    0.00000    0.00000    0.00000    0.00000    -999.25    0.00000    0.08163    0.00000    0.00000    0.00000    0.00000    0.00000
 4619.50000 4619.50000  138.91300  103.57890    0.38520    0.52121    -999.25   15.88006    0.09884    0.21969    2.24170    2.36314    2.36314    2.00000    1.72940    1.00000    1.00000    1.00000 1382.13316    0.12022    0.12085    0.66009    0.78093    -999.25    0.00000    0.00000    0.00000    0.00000    -999.25    0.00000    0.09884    0.00000    0.00000    0.00000    0.00000    0.00000
