~Version ---------------------------------------------------
VERS.   2.0 : CWLS log ASCII Standard -VERSION 2.0
WRAP.    NO : One line per depth step
DLM . SPACE : Column Data Section Delimiter
~Well ------------------------------------------------------
STRT  .m                4000.50000 : START DEPTH
STOP  .m                5516.88000 : STOP DEPTH
STEP  .m                   0.15240 : STEP
NULL  .                    -999.25 : NULL VALUE
COMP  .                            : COMPANY
WELL  .                         X3 : WELL
FLD   .                            : FIELD
LOC   .                            : LOCATION
PROV  .                            : PROVINCE
CNTY  .                            : COUNTY
STAT  .                            : STATE
CTRY  .                            : COUNTRY
SRVC  .                            : SERVICE COMPANY
DATE  . 2024-04-15 17:03:00.591302 : DATE
UWI   .                            : UNIQUE WELL ID
API   .                            : API NUMBER
LIC   .                            : 
LATI  .                            : 
LONG  .                            : 
NS    .                            : 
EW    .                            : 
XCOORD.                            : 
YCOORD.                            : 
GDAT  .                            : 
SECT  .                            : 
RANG  .                            : 
TOWN  .                            : 
~Curve Information -----------------------------------------
DEPT .m      : 
DEPTH.None   : None
GR   .GAPI   : None
RHOB .g/cc   : None
NPHI .v/v    : None
DTC  .None   : None
PEF  .None   : None
RT   .ohm.m  : None
~Params ----------------------------------------------------
EKB.      : 
EGL.      : 
KB .      : 
GL .      : 
TD .      : 
TDD.      : 
TDL.      : 
~Other -----------------------------------------------------
~ASCII -----------------------------------------------------
# ...
 4946.90400 4946.90400   22.18980    2.15908    0.14591  130.90510    -999.25  161.55449
 4947.05640 4947.05640   21.73037    2.16504    0.14654  130.16004    -999.25  158.10228
 4947.20880 4947.20880   20.94423    2.14462    0.14907  128.14681    -999.25  151.83304
 4947.36120 4947.36120   20.15809    2.12420    0.15160  126.13358    -999.25  145.56379
 4947.51360 4947.51360   19.55414    2.10326    0.15403  124.25376    -999.25  139.12713
 4947.66600 4947.66600   20.80967    2.07701    0.15553  123.73560    -999.25  130.98186
 4947.81840 4947.81840   22.06521    2.05077    0.15702  123.21744    -999.25  122.83660
 4947.97080 4947.97080   23.32074    2.02453    0.15851  122.69928    -999.25  114.69134
 4948.12320 4948.12320   23.16216    2.00964    0.16291  121.36844    -999.25  108.37496
 4948.27560 4948.27560   22.66841    1.99745    0.16801  119.84499    -999.25  102.49204
 4948.42800 4948.42800   22.17467    1.98526    0.17310  118.32154    -999.25   96.60913
 4948.58040 4948.58040   21.58063    1.98291    0.17791  117.66546    -999.25   92.39318
 4948.73280 4948.73280   20.89678    1.98937    0.18248  117.78613    -999.25   89.67004
 4948.88520 4948.88520   20.21293    1.99583    0.18706  117.90680    -999.25   86.94689
 4949.03760 4949.03760   19.88384    2.00387    0.19039  118.02748    -999.25   84.92641
 4949.19000 4949.19000   20.63792    2.01674    0.18993  118.14818    -999.25   85.05129
 4949.34240 4949.34240   21.39200    2.02960    0.18947  118.26888    -999.25   85.17616
 4949.49480 4949.49480   22.14607    2.04246    0.18902  118.38958    -999.25   85.30104
 4949.64720 4949.64720   21.96975    2.05906    0.18132  118.51025    -999.25   87.43617
 4949.79960 4949.79960   21.76057    2.07580    0.17336  118.63092    -999.25   89.64231
 4949.95200 4949.95200   21.55138    2.09253    0.16541  118.75159    -999.25   91.84845
 4950.10440 4950.10440   21.51137    2.10421    0.15778  118.87226    -999.25   94.42363
 4950.25680 4950.25680   21.54914    2.11357    0.15032  118.99293    -999.25   97.16847
 4950.40920 4950.40920   21.58690    2.12292    0.14285  119.11360    -999.25   99.91332
 4950.56160 4950.56160   21.52203    2.12415    0.13751  118.99039    -999.25  102.04457
 4950.71400 4950.71400   21.30586    2.11339    0.13532  118.50768    -999.25  103.27136
 4950.86640 4950.86640   21.08970    2.10263    0.13312  118.02496    -999.25  104.49815
 4951.01880 4951.01880   20.78875    2.09089    0.13141  117.60180    -999.25  105.62504
 4951.17120 4951.17120   19.88529    2.07218    0.13312  117.60180    -999.25  106.04207
 4951.32360 4951.32360   18.98183    2.05346    0.13482  117.60180    -999.25  106.45910
 4951.47600 4951.47600   18.07838    2.03475    0.13653  117.60180    -999.25  106.87613
 4951.62840 4951.62840   18.43709    2.02140    0.13757  117.60180    -999.25  107.25643
 4951.78080 4951.78080   19.03173    2.00906    0.13848  117.60180    -999.25  107.62987
 4951.93320 4951.93320   19.62636    1.99671    0.13940  117.60180    -999.25  108.00331
 4952.08560 4952.08560   19.88322    1.98979    0.14031  117.60180    -999.25  109.39096
 4952.23800 4952.23800   19.87648    1.98711    0.14123  117.60180    -999.25  111.57007
 4952.39040 4952.39040   19.86974    1.98443    0.14214  117.60180    -999.25  113.74917
 4952.54280 4952.54280   20.06647    1.98315    0.14292  117.60180    -999.25  116.80681
 4952.69520 4952.69520   20.78421    1.98547    0.14335  117.60180    -999.25  122.11414
 4952.84760 4952.84760   21.50196    1.98778    0.14377  117.60180    -999.25  127.42147
 4953.00000 4953.00000   22.21970    1.99010    0.14420  117.60180    -999.25  132.72880
 4953.15240 4953.15240   22.69208    1.99382    0.14447  117.44090    -999.25  140.01575
 4953.30480 4953.30480   23.16446    1.99754    0.14475  117.27999    -999.25  147.30269
 4953.45720 4953.45720   23.63684    2.00126    0.14502  117.11909    -999.25  154.58964
 4953.60960 4953.60960   23.12277    2.01050    0.14411  116.95818    -999.25  162.06661
 4953.76200 4953.76200   22.22349    2.02190    0.14274  116.79728    -999.25  169.61778
 4953.91440 4953.91440   21.32421    2.03330    0.14137  116.63638    -999.25  177.16896
 4954.06680 4954.06680   20.80001    2.04379    0.14167  116.47547    -999.25  183.41331
 4954.21920 4954.21920   20.75645    2.05312    0.14411  116.31457    -999.25  187.98306
 4954.37160 4954.37160   20.71290    2.06244    0.14655  116.15366    -999.25  192.55280
 4954.52400 4954.52400   20.73136    2.06973    0.14842  115.79004    -999.25  196.45691
 4954.67640 4954.67640   21.08160    2.06614    0.14726  114.34188    -999.25  196.79991
 4954.82880 4954.82880   21.43185    2.06254    0.14610  112.89371    -999.25  197.14290
 4954.98120 4954.98120   21.78209    2.05894    0.14494  111.44554    -999.25  197.48589
 4955.13360 4955.13360   22.41870    2.04196    0.14630  110.42054    -999.25  195.85411
 4955.28600 4955.28600   23.09560    2.02309    0.14800  109.45509    -999.25  193.94445
 4955.43840 4955.43840   23.77250    2.00423    0.14971  108.48964    -999.25  192.03478
 4955.59080 4955.59080   23.48060    1.98972    0.14826  107.52420    -999.25  189.71547
 4955.74320 4955.74320   22.53145    1.97817    0.14466  106.55878    -999.25  187.11824
 4955.89560 4955.89560   21.58230    1.96661    0.14106  105.59335    -999.25  184.52101
 4956.04800 4956.04800   21.00359    1.96032    0.13928  104.62792    -999.25  181.36363
 4956.20040 4956.20040   21.23058    1.96547    0.14145  103.66247    -999.25  176.98795
 4956.35280 4956.35280   21.45756    1.97062    0.14361  102.69701    -999.25  172.61228
 4956.50520 4956.50520   21.66606    1.97600    0.14568  101.74803    -999.25  168.14937
 4956.65760 4956.65760   21.35139    1.98783    0.14498  101.26532    -999.25  161.21715
 4956.81000 4956.81000   21.03671    1.99966    0.14427  100.78261    -999.25  154.28493
 4956.96240 4956.96240   20.72204    2.01148    0.14357  100.29989    -999.25  147.35271
 4957.11480 4957.11480   21.02499    2.01536    0.14296   99.81718    -999.25  138.92871
 4957.26720 4957.26720   21.53022    2.01664    0.14238   99.33446    -999.25  130.01612
 4957.41960 4957.41960   22.03546    2.01792    0.14181   98.85174    -999.25  121.10352
 4957.57200 4957.57200   22.58047    2.01811    0.14126   98.44504    -999.25  112.43230
 4957.72440 4957.72440   23.16989    2.01707    0.14074   98.12323    -999.25  104.03061
 4957.87680 4957.87680   23.75931    2.01604    0.14022   97.80141    -999.25   95.62892
 4958.02920 4958.02920   23.95401    2.01538    0.14035   97.47960    -999.25   87.42587
 4958.18160 4958.18160   22.48329    2.01633    0.14325   97.15779    -999.25   80.06096
 4958.33400 4958.33400   21.01257    2.01727    0.14615   96.83597    -999.25   72.69605
 4958.48640 4958.48640   19.54185    2.01822    0.14904   96.51416    -999.25   65.33114
 4958.63880 4958.63880   19.33315    2.03104    0.15016   96.19235    -999.25   59.07945
 4958.79120 4958.79120   19.24811    2.04503    0.15111   95.87054    -999.25   52.93685
 4958.94360 4958.94360   19.16307    2.05902    0.15205   95.54873    -999.25   46.79425
 4959.09600 4959.09600   19.47655    2.08307    0.15248   95.42963    -999.25   41.19473
 4959.24840 4959.24840   20.02415    2.11304    0.15260   95.42963    -999.25   35.91429
 4959.40080 4959.40080   20.57175    2.14300    0.15272   95.42963    -999.25   30.63384
 4959.55320 4959.55320   20.88738    2.17535    0.15213   95.68239    -999.25   26.55193
 4959.70560 4959.70560   20.77046    2.21217    0.15021   96.40647    -999.25   24.70487
 4959.85800 4959.85800   20.65354    2.24899    0.14829   97.13055    -999.25   22.85781
 4960.01040 4960.01040   20.53557    2.28448    0.14658   97.85462    -999.25   21.07822
 4960.16280 4960.16280   20.40329    2.30176    0.14770   98.57870    -999.25   20.21978
 4960.31520 4960.31520   20.27101    2.31904    0.14883   99.30278    -999.25   19.36134
 4960.46760 4960.46760   20.13872    2.33633    0.14996  100.02686    -999.25   18.50290
