~Version ---------------------------------------------------
VERS.   2.0 : CWLS log ASCII Standard -VERSION 2.0
WRAP.    NO : One line per depth step
DLM . SPACE : Column Data Section Delimiter
~Well ------------------------------------------------------
STRT  .m                4000.50000 : START DEPTH
STOP  .m                5517.00000 : STOP DEPTH
STEP  .m                   0.50000 : STEP
NULL  .                    -999.25 : NULL VALUE
COMP  .                            : COMPANY
WELL  .                     X3.las : WELL
FLD   .                            : FIELD
LOC   .                            : LOCATION
PROV  .                            : PROVINCE
CNTY  .                            : COUNTY
STAT  .                            : STATE
CTRY  .                            : COUNTRY
SRVC  .                            : SERVICE COMPANY
DATE  . 2024-04-14 16:30:14.689995 : DATE
UWI   .                            : UNIQUE WELL ID
API   .                            : API NUMBER
LIC   .                            : 
LATI  .                            : 
LONG  .                            : 
NS    .                            : 
EW    .                            : 
XCOORD.                            : 
YCOORD.                            : 
GDAT  .                            : 
SECT  .                            : 
RANG  .                            : 
TOWN  .                            : 
~Curve Information -----------------------------------------
DEPT      .m      : 
DEPTH     .None   : None
DTC       .None   : None
GR        .GAPI   : None
NPHI      .v/v    : None
NPHIHC    .None   : None
PEF       .None   : None
PERM      .mD     : None
PHIE      .v/v    : None
PHIT      .v/v    : None
RHOB      .g/cc   : None
RHOBFC    .None   : None
RHOBHC    .None   : None
ROCKTYPE  .None   : None
RT        .ohm.m  : None
SW_J      .None   : None
SWE       .v/v    : None
SWT       .v/v    : None
TVDSS     .None   : None
VCALC     .None   : None
VCLB      .None   : None
VCLD      .None   : None
VCLW      .None   : None
VCOAL     .None   : None
VDOLO     .None   : None
VGAS      .None   : None
VOIL      .None   : None
VSAND     .v/v    : None
VSHALE    .v/v    : None
VSILT     .v/v    : None
VWATER    .None   : None
BADHOLE   .None   : None
BS        .None   : None
CALI      .None   : None
COAL_FLAG .None   : None
PERFORATED.None   : None
~Params ----------------------------------------------------
EKB.      : 
EGL.      : 
KB .      : 
GL .      : 
TD .      : 
TDD.      : 
TDL.      : 
~Other -----------------------------------------------------
~ASCII -----------------------------------------------------
# ...
 5124.00000 5124.00000   79.50000   27.00680    0.16350    0.16467    -999.25   11.46033    0.13449    0.16056    2.45530    2.45530    2.45530    3.00000    4.26710    1.00000    1.00000    1.00000 1535.90550    0.68630    0.02606    0.15314    0.17920    -999.25    0.00000    0.00000    0.00000    0.00000    -999.25    0.00000    0.13449    0.00000    0.00000    0.00000    0.00000    0.00000
 5124.50000 5124.50000   79.20000   25.88900    0.16650    0.16768    -999.25   11.04452    0.13251    0.15971    2.45690    2.45690    2.45690    3.00000    4.87990    1.00000    1.00000    1.00000 1536.05791    0.68029    0.02720    0.16000    0.18720    -999.25    0.00000    0.00000    0.00000    0.00000    -999.25    0.00000    0.13251    0.00000    0.00000    0.00000    0.00000    0.00000
 5125.00000 5125.00000   76.90000   24.51090    0.16100    0.16210    -999.25    8.56047    0.12678    0.15400    2.46680    2.46680    2.46680    3.00000    5.32320    1.00000    1.00000    1.00000 1536.21032    0.68478    0.02722    0.16122    0.18844    -999.25    0.00000    0.00000    0.00000    0.00000    -999.25    0.00000    0.12678    0.00000    0.00000    0.00000    0.00000    0.00000
 5125.50000 5125.50000   76.80000   24.83840    0.14240    0.14327    -999.25    3.76457    0.11139    0.13695    2.49630    2.49630    2.49630    3.00000    5.73580    1.00000    1.00000    1.00000 1536.36272    0.70196    0.02556    0.16109    0.18665    -999.25    0.00000    0.00000    0.00000    0.00000    -999.25    0.00000    0.11139    0.00000    0.00000    0.00000    0.00000    0.00000
 5126.00000 5126.00000   77.20000   26.00170    0.11890    0.11957    -999.25    1.89466    0.10369    0.12415    2.51810    2.51810    2.51810    3.00000    5.52190    1.00000    1.00000    1.00000 1536.51513    0.73151    0.02046    0.14434    0.16480    -999.25    0.00000    0.00000    0.00000    0.00000    -999.25    0.00000    0.10369    0.00000    0.00000    0.00000    0.00000    0.00000
 5126.50000 5126.50000   77.00000   23.92150    0.11440    0.11502    -999.25    1.50726    0.10049    0.12016    2.52500    2.52500    2.52500    3.00000    6.09800    1.00000    1.00000    1.00000 1536.66754    0.73576    0.01968    0.14407    0.16375    -999.25    0.00000    0.00000    0.00000    0.00000    -999.25    0.00000    0.10049    0.00000    0.00000    0.00000    0.00000    0.00000
 5127.00000 5127.00000   77.60000   22.72070    0.12020    0.12082    -999.25    1.08684    0.09335    0.11468    2.53490    2.53490    2.53490    3.00000    5.25250    1.00000    1.00000    1.00000 1536.81995    0.72067    0.02133    0.16465    0.18598    -999.25    0.00000    0.00000    0.00000    0.00000    -999.25    0.00000    0.09335    0.00000    0.00000    0.00000    0.00000    0.00000
 5127.50000 5127.50000   77.70000   28.70510    0.13020    0.13091    -999.25    1.58089    0.09757    0.12098    2.52410    2.52410    2.52410    3.00000    5.74400    1.00000    1.00000    1.00000 1536.97235    0.70889    0.02342    0.17013    0.19354    -999.25    0.00000    0.00000    0.00000    0.00000    -999.25    0.00000    0.09757    0.00000    0.00000    0.00000    0.00000    0.00000
 5128.00000 5128.00000   77.40000   29.66380    0.13510    0.13578    -999.25    0.93280    0.08751    0.11220    2.53980    2.53980    2.53980    3.00000    5.63620    1.00000    1.00000    1.00000 1537.12476    0.69239    0.02470    0.19541    0.22011    -999.25    0.00000    0.00000    0.00000    0.00000    -999.25    0.00000    0.08751    0.00000    0.00000    0.00000    0.00000    0.00000
 5128.50000 5128.50000   78.80000   29.26490    0.13100    0.13167    -999.25    1.00614    0.08964    0.11342    2.53750    2.53750    2.53750    3.00000    5.58440    1.00000    1.00000    1.00000 1537.27717    0.70066    0.02379    0.18592    0.20971    -999.25    0.00000    0.00000    0.00000    0.00000    -999.25    0.00000    0.08964    0.00000    0.00000    0.00000    0.00000    0.00000
 5129.00000 5129.00000   80.50000   26.52630    0.11660    0.11718    -999.25    0.83702    0.08982    0.11048    2.54220    2.54220    2.54220    3.00000    5.37080    1.00000    1.00000    1.00000 1537.42958    0.72317    0.02066    0.16636    0.18702    -999.25    0.00000    0.00000    0.00000    0.00000    -999.25    0.00000    0.08982    0.00000    0.00000    0.00000    0.00000    0.00000
 5129.50000 5129.50000   80.90000   29.26070    0.11230    0.11292    -999.25    1.73011    0.10358    0.12255    2.52070    2.52070    2.52070    3.00000    5.02870    1.00000    1.00000    1.00000 1537.58198    0.74160    0.01897    0.13585    0.15483    -999.25    0.00000    0.00000    0.00000    0.00000    -999.25    0.00000    0.10358    0.00000    0.00000    0.00000    0.00000    0.00000
 5130.00000 5130.00000   83.40000   28.91610    0.10950    0.11014    -999.25    2.29338    0.10984    0.12759    2.51170    2.51170    2.51170    3.00000    4.81200    1.00000    1.00000    1.00000 1537.73439    0.75104    0.01775    0.12137    0.13912    -999.25    0.00000    0.00000    0.00000    0.00000    -999.25    0.00000    0.10984    0.00000    0.00000    0.00000    0.00000    0.00000
 5130.50000 5130.50000   83.30000   27.36740    0.11730    0.11803    -999.25    3.91081    0.11921    0.13770    2.49410    2.49410    2.49410    3.00000    4.40490    1.00000    1.00000    1.00000 1537.88680    0.74653    0.01849    0.11577    0.13426    -999.25    0.00000    0.00000    0.00000    0.00000    -999.25    0.00000    0.11921    0.00000    0.00000    0.00000    0.00000    0.00000
 5131.00000 5131.00000   82.90000   24.11230    0.12680    0.12761    -999.25    4.81368    0.12127    0.14184    2.48710    2.48710    2.48710    3.00000    4.22720    1.00000    1.00000    1.00000 1538.03920    0.73366    0.02058    0.12449    0.14507    -999.25    0.00000    0.00000    0.00000    0.00000    -999.25    0.00000    0.12127    0.00000    0.00000    0.00000    0.00000    0.00000
 5131.50000 5131.50000   86.30000   28.81730    0.13940    0.14030    -999.25    5.20858    0.11952    0.14345    2.48470    2.48470    2.48470    3.00000    3.36600    1.00000    1.00000    1.00000 1538.19161    0.71307    0.02393    0.14348    0.16741    -999.25    0.00000    0.00000    0.00000    0.00000    -999.25    0.00000    0.11952    0.00000    0.00000    0.00000    0.00000    0.00000
 5132.00000 5132.00000   86.30000   29.95190    0.14840    0.14937    -999.25    6.18710    0.12149    0.14702    2.47870    2.47870    2.47870    3.00000    3.60950    1.00000    1.00000    1.00000 1538.34402    0.70054    0.02553    0.15243    0.17796    -999.25    0.00000    0.00000    0.00000    0.00000    -999.25    0.00000    0.12149    0.00000    0.00000    0.00000    0.00000    0.00000
 5132.50000 5132.50000   88.80000   32.41910    0.15260    0.15362    -999.25    7.21053    0.12445    0.15027    2.47310    2.47310    2.47310    3.00000    3.21110    1.00000    1.00000    1.00000 1538.49643    0.69612    0.02582    0.15360    0.17943    -999.25    0.00000    0.00000    0.00000    0.00000    -999.25    0.00000    0.12445    0.00000    0.00000    0.00000    0.00000    0.00000
 5133.00000 5133.00000   89.70000   30.87270    0.17190    0.17308    -999.25    8.55642    0.12354    0.15399    2.46720    2.46720    2.46720    3.00000    2.76000    1.00000    1.00000    1.00000 1538.64883    0.66568    0.03045    0.18032    0.21077    -999.25    0.00000    0.00000    0.00000    0.00000    -999.25    0.00000    0.12354    0.00000    0.00000    0.00000    0.00000    0.00000
 5133.50000 5133.50000   92.00000   30.51070    0.18630    0.18754    -999.25    6.90834    0.11336    0.14936    2.47590    2.47590    2.47590    3.00000    2.37410    1.00000    1.00000    1.00000 1538.80124    0.63630    0.03600    0.21435    0.25034    -999.25    0.00000    0.00000    0.00000    0.00000    -999.25    0.00000    0.11336    0.00000    0.00000    0.00000    0.00000    0.00000
 5134.00000 5134.00000   93.00000   28.11380    0.18960    0.19094    -999.25   10.66926    0.12462    0.15892    2.45910    2.45910    2.45910    3.00000    2.10910    1.00000    1.00000    1.00000 1538.95365    0.63912    0.03430    0.20195    0.23626    -999.25    0.00000    0.00000    0.00000    0.00000    -999.25    0.00000    0.12462    0.00000    0.00000    0.00000    0.00000    0.00000
