~Version ---------------------------------------------------
VERS.   2.0 : CWLS log ASCII Standard -VERSION 2.0
WRAP.    NO : One line per depth step
DLM . SPACE : Column Data Section Delimiter
~Well ------------------------------------------------------
STRT  .m                4000.50000 : START DEPTH
STOP  .m                5517.00000 : STOP DEPTH
STEP  .m                   0.50000 : STEP
NULL  .                    -999.25 : NULL VALUE
COMP  .                            : COMPANY
WELL  .                     X3.las : WELL
FLD   .                            : FIELD
LOC   .                            : LOCATION
PROV  .                            : PROVINCE
CNTY  .                            : COUNTY
STAT  .                            : STATE
CTRY  .                            : COUNTRY
SRVC  .                            : SERVICE COMPANY
DATE  . 2024-04-14 16:30:14.689995 : DATE
UWI   .                            : UNIQUE WELL ID
API   .                            : API NUMBER
LIC   .                            : 
LATI  .                            : 
LONG  .                            : 
NS    .                            : 
EW    .                            : 
XCOORD.                            : 
YCOORD.                            : 
GDAT  .                            : 
SECT  .                            : 
RANG  .                            : 
TOWN  .                            : 
~Curve Information -----------------------------------------
DEPT      .m      : 
DEPTH     .None   : None
DTC       .None   : None
GR        .GAPI   : None
NPHI      .v/v    : None
NPHIHC    .None   : None
PEF       .None   : None
PERM      .mD     : None
PHIE      .v/v    : None
PHIT      .v/v    : None
RHOB      .g/cc   : None
RHOBFC    .None   : None
RHOBHC    .None   : None
ROCKTYPE  .None   : None
RT        .ohm.m  : None
SW_J      .None   : None
SWE       .v/v    : None
SWT       .v/v    : None
TVDSS     .None   : None
VCALC     .None   : None
VCLB      .None   : None
VCLD      .None   : None
VCLW      .None   : None
VCOAL     .None   : None
VDOLO     .None   : None
VGAS      .None   : None
VOIL      .None   : None
VSAND     .v/v    : None
VSHALE    .v/v    : None
VSILT     .v/v    : None
VWATER    .None   : None
BADHOLE   .None   : None
BS        .None   : None
CALI      .None   : None
COAL_FLAG .None   : None
PERFORATED.None   : None
~Params ----------------------------------------------------
EKB.      : 
EGL.      : 
KB .      : 
GL .      : 
TD .      : 
TDD.      : 
TDL.      : 
~Other -----------------------------------------------------
~ASCII -----------------------------------------------------
# ...
 4693.50000 4693.50000  131.73900  101.14160    0.32370    0.47734    -999.25   13.95958    0.04739    0.16515    2.30460    2.45806    2.45806    3.00000    2.49140    1.00000    1.00000    1.00000 1404.68879    0.14672    0.11775    0.68813    0.80588    -999.25    0.00000    0.00000    0.00000    0.00000    -999.25    0.00000    0.04739    0.00000    0.00000    0.00000    0.00000    0.00000
 4694.00000 4694.00000  132.60850   94.51030    0.32830    0.45532    -999.25   24.02774    0.06990    0.17847    2.31150    2.43374    2.43374    3.00000    2.29320    1.00000    1.00000    1.00000 1404.84120    0.19718    0.10857    0.62435    0.73292    -999.25    0.00000    0.00000    0.00000    0.00000    -999.25    0.00000    0.06990    0.00000    0.00000    0.00000    0.00000    0.00000
 4694.50000 4694.50000  133.47810   95.94020    0.33010    0.45661    -999.25   21.25574    0.06579    0.17537    2.31740    2.43926    2.43926    3.00000    2.31440    1.00000    1.00000    1.00000 1404.99361    0.19210    0.10958    0.63253    0.74211    -999.25    0.00000    0.00000    0.00000    0.00000    -999.25    0.00000    0.06579    0.00000    0.00000    0.00000    0.00000    0.00000
 4695.00000 4695.00000  134.34760   97.61090    0.31980    0.45961    -999.25   15.18183    0.05505    0.16714    2.31560    2.45392    2.45392    3.00000    2.42310    1.00000    1.00000    1.00000 1405.14601    0.17937    0.11209    0.65349    0.76558    -999.25    0.00000    0.00000    0.00000    0.00000    -999.25    0.00000    0.05505    0.00000    0.00000    0.00000    0.00000    0.00000
 4695.50000 4695.50000  135.21740   99.56650    0.32660    0.46810    -999.25   13.96063    0.05015    0.16515    2.31810    2.45774    2.45774    3.00000    2.39180    1.00000    1.00000    1.00000 1405.29842    0.16279    0.11500    0.67206    0.78707    -999.25    0.00000    0.00000    0.00000    0.00000    -999.25    0.00000    0.05015    0.00000    0.00000    0.00000    0.00000    0.00000
 4696.00000 4696.00000  135.32610  100.01590    0.31730    0.47158    -999.25   13.82660    0.04884    0.16492    2.30320    2.45826    2.45826    3.00000    2.37600    1.00000    1.00000    1.00000 1405.45083    0.15652    0.11608    0.67856    0.79464    -999.25    0.00000    0.00000    0.00000    0.00000    -999.25    0.00000    0.04884    0.00000    0.00000    0.00000    0.00000    0.00000
 4696.50000 4696.50000  135.43480   98.10960    0.31900    0.46768    -999.25   19.70592    0.06020    0.17348    2.29560    2.44298    2.44298    3.00000    2.34940    1.00000    1.00000    1.00000 1405.60324    0.17112    0.11328    0.65539    0.76867    -999.25    0.00000    0.00000    0.00000    0.00000    -999.25    0.00000    0.06020    0.00000    0.00000    0.00000    0.00000    0.00000
 4697.00000 4697.00000  135.54350  101.86290    0.31040    0.47698    -999.25   12.48140    0.04439    0.16253    2.29220    2.46268    2.46268    3.00000    2.33740    1.00000    1.00000    1.00000 1405.75564    0.14494    0.11813    0.69253    0.81066    -999.25    0.00000    0.00000    0.00000    0.00000    -999.25    0.00000    0.04439    0.00000    0.00000    0.00000    0.00000    0.00000
 4697.50000 4697.50000  135.65120  102.83730    0.32640    0.48833    -999.25   20.05866    0.05452    0.17392    2.28180    2.44292    2.44292    3.00000    2.26210    1.00000    1.00000    1.00000 1405.90805    0.13562    0.11940    0.69046    0.80986    -999.25    0.00000    0.00000    0.00000    0.00000    -999.25    0.00000    0.05452    0.00000    0.00000    0.00000    0.00000    0.00000
 4698.00000 4698.00000  133.30340   98.86320    0.33230    0.48483    -999.25   46.62690    0.08214    0.19620    2.25650    2.40342    2.40342    3.00000    2.14410    1.00000    1.00000    1.00000 1406.06046    0.16204    0.11406    0.64177    0.75583    -999.25    0.00000    0.00000    0.00000    0.00000    -999.25    0.00000    0.08214    0.00000    0.00000    0.00000    0.00000    0.00000
 4698.50000 4698.50000  130.95560  104.81700    0.35140    0.51931    -999.25   11.08959    0.08422    0.20693    2.22610    2.38564    2.38564    2.00000    2.03510    1.00000    1.00000    1.00000 1406.21286    0.11187    0.12271    0.68120    0.80391    -999.25    0.00000    0.00000    0.00000    0.00000    -999.25    0.00000    0.08422    0.00000    0.00000    0.00000    0.00000    0.00000
 4699.00000 4699.00000  128.60770  105.44510    0.33850    0.52057    -999.25   11.20595    0.08426    0.20729    2.20840    2.38504    2.38504    2.00000    1.98480    1.00000    1.00000    1.00000 1406.36527    0.11002    0.12303    0.68269    0.80572    -999.25    0.00000    0.00000    0.00000    0.00000    -999.25    0.00000    0.08426    0.00000    0.00000    0.00000    0.00000    0.00000
 4699.50000 4699.50000  126.25990  103.55580    0.37620    0.52977    -999.25   21.01011    0.10865    0.23018    2.20620    2.34488    2.34488    2.00000    2.08720    1.00000    1.00000    1.00000 1406.51768    0.11491    0.12153    0.65490    0.77644    -999.25    0.00000    0.00000    0.00000    0.00000    -999.25    0.00000    0.10865    0.00000    0.00000    0.00000    0.00000    0.00000
 4700.00000 4700.00000  123.91240   97.72670    0.40450    0.50138    -999.25   20.60641    0.11691    0.22944    2.26350    2.34521    2.34521    2.00000    1.92720    1.00000    1.00000    1.00000 1406.67008    0.16360    0.11253    0.60696    0.71948    -999.25    0.00000    0.00000    0.00000    0.00000    -999.25    0.00000    0.11691    0.00000    0.00000    0.00000    0.00000    0.00000
 4700.50000 4700.50000  126.34720   85.97390    0.37270    0.41777    -999.25   31.53458    0.08985    0.18554    2.38220    2.41994    2.41994    3.00000    2.06510    1.00000    1.00000    1.00000 1406.82243    0.26894    0.09568    0.54552    0.64121    -999.25    0.00000    0.00000    0.00000    0.00000    -999.25    0.00000    0.08985    0.00000    0.00000    0.00000    0.00000    0.00000
 4701.00000 4701.00000  128.78200   88.36570    0.29340    0.36569    -999.25    0.29967    0.02924    0.09540    2.50380    2.57751    2.57751    3.00000    2.13650    1.00000    1.00000    1.00000 1406.97478    0.27722    0.06616    0.62738    0.69355    -999.25    0.00000    0.00000    0.00000    0.00000    -999.25    0.00000    0.02924    0.00000    0.00000    0.00000    0.00000    0.00000
 4701.50000 4701.50000  131.21680   92.95880    0.24670    0.38214    -999.25    1.69910    0.02152    0.08313    2.44520    2.59978    2.59978    4.00000    1.94630    1.00000    1.00000    1.00000 1407.12712    0.23740    0.06161    0.67947    0.74108    -999.25    0.00000    0.00000    0.00000    0.00000    -999.25    0.00000    0.02152    0.00000    0.00000    0.00000    0.00000    0.00000
 4702.00000 4702.00000  133.65160  106.43320    0.28900    0.48082    -999.25    2.74968    0.01649    0.13094    2.30770    2.51867    2.51867    3.00000    1.78270    1.00000    1.00000    1.00000 1407.27947    0.10943    0.11445    0.75963    0.87408    -999.25    0.00000    0.00000    0.00000    0.00000    -999.25    0.00000    0.01649    0.00000    0.00000    0.00000    0.00000    0.00000
 4702.50000 4702.50000  136.08700  107.66320    0.33760    0.52426    -999.25   42.96949    0.06726    0.19392    2.22470    2.40881    2.40881    3.00000    1.76330    1.00000    1.00000    1.00000 1407.43182    0.09138    0.12666    0.71470    0.84136    -999.25    0.00000    0.00000    0.00000    0.00000    -999.25    0.00000    0.06726    0.00000    0.00000    0.00000    0.00000    0.00000
 4703.00000 4703.00000  136.45490  114.10300    0.35470    0.55213    -999.25   40.74617    0.05695    0.19245    2.21860    2.41237    2.41237    3.00000    1.86810    1.00000    1.00000    1.00000 1407.58416    0.04158    0.13550    0.76596    0.90146    -999.25    0.00000    0.00000    0.00000    0.00000    -999.25    0.00000    0.05695    0.00000    0.00000    0.00000    0.00000    0.00000
 4703.50000 4703.50000  136.82280  115.66000    0.34510    0.55159    -999.25   27.72482    0.04508    0.18215    2.22280    2.43057    2.43057    3.00000    1.99710    1.00000    1.00000    1.00000 1407.73651    0.03311    0.13707    0.78473    0.92181    -999.25    0.00000    0.00000    0.00000    0.00000    -999.25    0.00000    0.04508    0.00000    0.00000    0.00000    0.00000    0.00000
