~Version ---------------------------------------------------
VERS.   2.0 : CWLS log ASCII Standard -VERSION 2.0
WRAP.    NO : One line per depth step
DLM . SPACE : Column Data Section Delimiter
~Well ------------------------------------------------------
STRT  .m                4000.50000 : START DEPTH
STOP  .m                5517.00000 : STOP DEPTH
STEP  .m                   0.50000 : STEP
NULL  .                    -999.25 : NULL VALUE
COMP  .                            : COMPANY
WELL  .                     X3.las : WELL
FLD   .                            : FIELD
LOC   .                            : LOCATION
PROV  .                            : PROVINCE
CNTY  .                            : COUNTY
STAT  .                            : STATE
CTRY  .                            : COUNTRY
SRVC  .                            : SERVICE COMPANY
DATE  . 2024-04-14 16:30:14.689995 : DATE
UWI   .                            : UNIQUE WELL ID
API   .                            : API NUMBER
LIC   .                            : 
LATI  .                            : 
LONG  .                            : 
NS    .                            : 
EW    .                            : 
XCOORD.                            : 
YCOORD.                            : 
GDAT  .                            : 
SECT  .                            : 
RANG  .                            : 
TOWN  .                            : 
~Curve Information -----------------------------------------
DEPT      .m      : 
DEPTH     .None   : None
DTC       .None   : None
GR        .GAPI   : None
NPHI      .v/v    : None
NPHIHC    .None   : None
PEF       .None   : None
PERM      .mD     : None
PHIE      .v/v    : None
PHIT      .v/v    : None
RHOB      .g/cc   : None
RHOBFC    .None   : None
RHOBHC    .None   : None
ROCKTYPE  .None   : None
RT        .ohm.m  : None
SW_J      .None   : None
SWE       .v/v    : None
SWT       .v/v    : None
TVDSS     .None   : None
VCALC     .None   : None
VCLB      .None   : None
VCLD      .None   : None
VCLW      .None   : None
VCOAL     .None   : None
VDOLO     .None   : None
VGAS      .None   : None
VOIL      .None   : None
VSAND     .v/v    : None
VSHALE    .v/v    : None
VSILT     .v/v    : None
VWATER    .None   : None
BADHOLE   .None   : None
BS        .None   : None
CALI      .None   : None
COAL_FLAG .None   : None
PERFORATED.None   : None
~Params ----------------------------------------------------
EKB.      : 
EGL.      : 
KB .      : 
GL .      : 
TD .      : 
TDD.      : 
TDL.      : 
~Other -----------------------------------------------------
~ASCII -----------------------------------------------------
# ...
 4956.00000 4956.00000  104.93200   20.93210    0.13860    0.30287    -999.25  138.96720    0.34594    0.35196    1.95870    2.12166    2.12166    1.00000  182.74180    0.08227    0.07537    0.09119 1484.69660    0.62072    0.00602    0.02732    0.03334    -999.25    0.00000    0.31987    0.00000    0.00000    -999.25    0.00000    0.02607    0.00000    0.00000    0.00000    0.00000    0.00000
 4956.50000 4956.50000  101.76450   21.67680    0.14570    0.30082    -999.25  130.20890    0.34162    0.34834    1.97560    2.12798    2.12798    1.00000  168.38590    0.08403    0.07958    0.09735 1484.84901    0.62097    0.00673    0.03069    0.03741    -999.25    0.00000    0.31443    0.00000    0.00000    -999.25    0.00000    0.02718    0.00000    0.00000    0.00000    0.00000    0.00000
 4957.00000 4957.00000  100.18080   20.64440    0.14340    0.28213    -999.25  101.91180    0.32999    0.33505    2.01440    2.15083    2.15083    1.00000  145.64240    0.09026    0.08881    0.10259 1485.00142    0.64135    0.00507    0.02359    0.02866    -999.25    0.00000    0.30068    0.00000    0.00000    -999.25    0.00000    0.02931    0.00000    0.00000    0.00000    0.00000    0.00000
 4957.50000 4957.50000   98.59708   22.30200    0.14150    0.28404    -999.25   92.33211    0.32198    0.32984    2.01860    2.16011    2.16011    1.00000  116.40160    0.09305    0.10196    0.12337 1485.15383    0.63327    0.00786    0.03689    0.04475    -999.25    0.00000    0.28915    0.00000    0.00000    -999.25    0.00000    0.03283    0.00000    0.00000    0.00000    0.00000    0.00000
 4958.00000 4958.00000   97.54126   24.23580    0.13980    0.29012    -999.25   86.78249    0.31524    0.32662    2.01520    2.16603    2.16603    1.00000   88.83700    0.09496    0.11935    0.15003 1485.30623    0.61974    0.01138    0.05364    0.06502    -999.25    0.00000    0.27761    0.00000    0.00000    -999.25    0.00000    0.03762    0.00000    0.00000    0.00000    0.00000    0.00000
 4958.50000 4958.50000   96.48544   19.41060    0.14930    0.28107    -999.25  106.95680    0.33401    0.33763    2.01830    2.14623    2.14623    1.00000   64.67390    0.08981    0.13127    0.14060 1485.45864    0.64555    0.00363    0.01681    0.02044    -999.25    0.00000    0.29016    0.00000    0.00000    -999.25    0.00000    0.04384    0.00000    0.00000    0.00000    0.00000    0.00000
 4959.00000 4959.00000   95.42963   19.13160    0.15240    0.26375    -999.25   80.76747    0.31978    0.32291    2.06420    2.17166    2.17166    1.00000   44.52100    0.09744    0.16571    0.17381 1485.61105    0.66223    0.00314    0.01486    0.01800    -999.25    0.00000    0.26679    0.00000    0.00000    -999.25    0.00000    0.05299    0.00000    0.00000    0.00000    0.00000    0.00000
 4959.50000 4959.50000   95.42963   20.92820    0.15280    0.22979    -999.25   76.16048    0.27974    0.28529    2.16250    2.23700    2.23700    2.00000   27.19670    0.24454    0.24481    0.25951 1485.76346    0.68693    0.00555    0.02778    0.03333    -999.25    0.00000    0.21125    0.00000    0.00000    -999.25    0.00000    0.06848    0.00000    0.00000    0.00000    0.00000    0.00000
 4960.00000 4960.00000   97.80521   20.54460    0.14650    0.18125    -999.25   26.51136    0.23339    0.23928    2.28330    2.31667    2.31667    2.00000   21.13680    0.29207    0.33778    0.35409 1485.91586    0.72934    0.00589    0.03138    0.03728    -999.25    0.00000    0.15455    0.00000    0.00000    -999.25    0.00000    0.07883    0.00000    0.00000    0.00000    0.00000    0.00000
 4960.50000 4960.50000  100.18080   20.11060    0.15020    0.15797    -999.25   16.97313    0.21779    0.22214    2.34000    2.34617    2.34617    2.00000   18.32040    0.31515    0.39094    0.40286 1486.06827    0.75418    0.00435    0.02368    0.02803    -999.25    0.00000    0.13265    0.00000    0.00000    -999.25    0.00000    0.08514    0.00000    0.00000    0.00000    0.00000    0.00000
 4961.00000 4961.00000  106.51570   20.17190    0.15310    0.17227    -999.25   23.21255    0.22923    0.23404    2.30820    2.32563    2.32563    2.00000   16.70540    0.29965    0.38721    0.39980 1486.22068    0.74017    0.00481    0.02579    0.03061    -999.25    0.00000    0.14047    0.00000    0.00000    -999.25    0.00000    0.08876    0.00000    0.00000    0.00000    0.00000    0.00000
 4961.50000 4961.50000  108.09940   21.52710    0.15060    0.20291    -999.25   41.23613    0.25100    0.25756    2.23450    2.28510    2.28510    2.00000   15.47930    0.27277    0.36447    0.38065 1486.37309    0.70836    0.00656    0.03408    0.04063    -999.25    0.00000    0.15952    0.00000    0.00000    -999.25    0.00000    0.09148    0.00000    0.00000    0.00000    0.00000    0.00000
 4962.00000 4962.00000  108.89130   24.06040    0.14610    0.23657    -999.25   67.00214    0.26914    0.27926    2.15820    2.24790    2.24790    2.00000   14.18430    0.25201    0.35293    0.37640 1486.52549    0.66964    0.01013    0.05110    0.06122    -999.25    0.00000    0.17415    0.00000    0.00000    -999.25    0.00000    0.09499    0.00000    0.00000    0.00000    0.00000    0.00000
 4962.50000 4962.50000  109.68320   22.24890    0.13880    0.25071    -999.25  102.86310    0.29257    0.29995    2.10020    2.21182    2.21182    2.00000   13.03440    0.23505    0.33622    0.35253 1486.67790    0.66393    0.00737    0.03612    0.04350    -999.25    0.00000    0.19420    0.00000    0.00000    -999.25    0.00000    0.09837    0.00000    0.00000    0.00000    0.00000    0.00000
 4963.00000 4963.00000  107.30760   20.29520    0.13690    0.24894    -999.25  107.29210    0.29613    0.30206    2.09630    2.20801    2.20801    2.00000   12.35180    0.23382    0.34085    0.35380 1486.83031    0.66895    0.00593    0.02899    0.03493    -999.25    0.00000    0.19519    0.00000    0.00000    -999.25    0.00000    0.10093    0.00000    0.00000    0.00000    0.00000    0.00000
 4963.50000 4963.50000  103.34830   22.68490    0.14260    0.25193    -999.25   97.91539    0.28876    0.29749    2.10750    2.21620    2.21620    2.00000   12.59850    0.23784    0.34686    0.36603 1486.98272    0.65957    0.00873    0.04294    0.05167    -999.25    0.00000    0.18860    0.00000    0.00000    -999.25    0.00000    0.10016    0.00000    0.00000    0.00000    0.00000    0.00000
 4964.00000 4964.00000   97.01335   21.32390    0.14560    0.23158    -999.25   73.27907    0.27661    0.28346    2.15570    2.24030    2.24030    2.00000   13.51760    0.25006    0.35091    0.36661 1487.13512    0.68215    0.00686    0.03439    0.04124    -999.25    0.00000    0.17954    0.00000    0.00000    -999.25    0.00000    0.09706    0.00000    0.00000    0.00000    0.00000    0.00000
 4964.50000 4964.50000   90.67845   18.33570    0.13930    0.20191    -999.25   53.76296    0.26724    0.26920    2.20320    2.26448    2.26448    2.00000   14.43360    0.26378    0.35258    0.35732 1487.28753    0.72073    0.00197    0.01007    0.01204    -999.25    0.00000    0.17301    0.00000    0.00000    -999.25    0.00000    0.09422    0.00000    0.00000    0.00000    0.00000    0.00000
 4965.00000 4965.00000   82.75982   20.29010    0.12640    0.17051    -999.25   21.84277    0.22661    0.23168    2.28550    2.32974    2.32974    2.00000   16.29610    0.30706    0.39692    0.41010 1487.43994    0.74109    0.00506    0.02724    0.03230    -999.25    0.00000    0.13667    0.00000    0.00000    -999.25    0.00000    0.08995    0.00000    0.00000    0.00000    0.00000    0.00000
 4965.50000 4965.50000   81.17609   19.20940    0.11700    0.13917    -999.25   10.87158    0.20239    0.20624    2.35160    2.37363    2.37363    2.00000   17.58880    0.34556    0.43197    0.44257 1487.59235    0.77236    0.00385    0.02140    0.02525    -999.25    0.00000    0.11497    0.00000    0.00000    -999.25    0.00000    0.08743    0.00000    0.00000    0.00000    0.00000    0.00000
 4966.00000 4966.00000   79.59236   20.74280    0.10600    0.13100    -999.25   42.47099    0.18804    0.19360    2.37000    2.39570    2.39570    3.00000   20.13570    0.46157    0.43741    0.45356 1487.74475    0.77502    0.00556    0.03138    0.03694    -999.25    0.00000    0.10579    0.00000    0.00000    -999.25    0.00000    0.08225    0.00000    0.00000    0.00000    0.00000    0.00000
