~Version ---------------------------------------------------
VERS.   2.0 : CWLS log ASCII Standard -VERSION 2.0
WRAP.    NO : One line per depth step
DLM . SPACE : Column Data Section Delimiter
~Well ------------------------------------------------------
STRT  .m                4000.50000 : START DEPTH
STOP  .m                5516.88000 : STOP DEPTH
STEP  .m                   0.15240 : STEP
NULL  .                    -999.25 : NULL VALUE
COMP  .                            : COMPANY
WELL  .                         X3 : WELL
FLD   .                            : FIELD
LOC   .                            : LOCATION
PROV  .                            : PROVINCE
CNTY  .                            : COUNTY
STAT  .                            : STATE
CTRY  .                            : COUNTRY
SRVC  .                            : SERVICE COMPANY
DATE  . 2024-04-15 17:03:00.591302 : DATE
UWI   .                            : UNIQUE WELL ID
API   .                            : API NUMBER
LIC   .                            : 
LATI  .                            : 
LONG  .                            : 
NS    .                            : 
EW    .                            : 
XCOORD.                            : 
YCOORD.                            : 
GDAT  .                            : 
SECT  .                            : 
RANG  .                            : 
TOWN  .                            : 
~Curve Information -----------------------------------------
DEPT .m      : 
DEPTH.None   : None
GR   .GAPI   : None
RHOB .g/cc   : None
NPHI .v/v    : None
DTC  .None   : None
PEF  .None   : None
RT   .ohm.m  : None
~Params ----------------------------------------------------
EKB.      : 
EGL.      : 
KB .      : 
GL .      : 
TD .      : 
TDD.      : 
TDL.      : 
~Other -----------------------------------------------------
~ASCII -----------------------------------------------------
# ...
 4686.30000 4686.30000  105.52382    2.23480    0.34516  137.43810    -999.25    2.32362
 4686.45240 4686.45240  105.23173    2.24196    0.34473  137.42789    -999.25    2.30814
 4686.60480 4686.60480  103.95085    2.24793    0.34068  137.41774    -999.25    2.30070
 4686.75720 4686.75720  102.22087    2.25336    0.33498  137.40762    -999.25    2.29692
 4686.90960 4686.90960  100.49088    2.25878    0.32928  137.39750    -999.25    2.29314
 4687.06200 4687.06200   99.28986    2.26139    0.32623  137.35375    -999.25    2.29466
 4687.21440 4687.21440   98.86009    2.25990    0.32706  137.26097    -999.25    2.30389
 4687.36680 4687.36680   98.43032    2.25841    0.32788  137.16819    -999.25    2.31313
 4687.51920 4687.51920   98.14957    2.25727    0.32830  137.07541    -999.25    2.32181
 4687.67160 4687.67160   98.90264    2.25861    0.32592  136.98266    -999.25    2.32669
 4687.82400 4687.82400   99.65571    2.25995    0.32355  136.88991    -999.25    2.33157
 4687.97640 4687.97640  100.40878    2.26129    0.32117  136.79716    -999.25    2.33644
 4688.12880 4688.12880  101.41886    2.26317    0.32657  136.70439    -999.25    2.34802
 4688.28120 4688.28120  102.47603    2.26516    0.33340  136.61161    -999.25    2.36082
 4688.43360 4688.43360  103.53320    2.26714    0.34023  136.51882    -999.25    2.37362
 4688.58600 4688.58600  103.59118    2.27060    0.34490  136.42606    -999.25    2.38176
 4688.73840 4688.73840  102.87771    2.27520    0.34792  136.33331    -999.25    2.38630
 4688.89080 4688.89080  102.16423    2.27980    0.35094  136.24056    -999.25    2.39085
 4689.04320 4689.04320  101.65576    2.28300    0.35361  136.14780    -999.25    2.39307
 4689.19560 4689.19560  101.66552    2.28263    0.35541  136.05502    -999.25    2.38944
 4689.34800 4689.34800  101.67527    2.28226    0.35721  135.96224    -999.25    2.38582
 4689.50040 4689.50040  101.68433    2.28190    0.35900  135.86946    -999.25    2.38222
 4689.65280 4689.65280  101.42918    2.28337    0.35989  135.77671    -999.25    2.38944
 4689.80520 4689.80520  101.17403    2.28483    0.36077  135.68396    -999.25    2.39667
 4689.95760 4689.95760  100.91889    2.28629    0.36165  135.59120    -999.25    2.40389
 4690.11000 4690.11000  100.95643    2.28481    0.35869  135.49843    -999.25    2.41873
 4690.26240 4690.26240  101.10678    2.28219    0.35424  135.40565    -999.25    2.43650
 4690.41480 4690.41480  101.25714    2.27957    0.34979  135.31287    -999.25    2.45427
 4690.56720 4690.56720  102.01075    2.27759    0.34717  135.22010    -999.25    2.46428
 4690.71960 4690.71960  103.52921    2.27643    0.34686  135.12735    -999.25    2.46446
 4690.87200 4690.87200  105.04766    2.27527    0.34656  135.03460    -999.25    2.46465
 4691.02440 4691.02440  105.66796    2.27396    0.34525  134.94185    -999.25    2.47272
 4691.17680 4691.17680  101.57663    2.27182    0.33870  134.84906    -999.25    2.52215
 4691.32920 4691.32920   97.48530    2.26969    0.33214  134.75628    -999.25    2.57159
 4691.48160 4691.48160   93.39397    2.26756    0.32559  134.66350    -999.25    2.62103
 4691.63400 4691.63400   92.81277    2.27199    0.32590  134.57061    -999.25    2.65026
 4691.78640 4691.78640   92.71355    2.27732    0.32715  134.47771    -999.25    2.67672
 4691.93880 4691.93880   92.61434    2.28266    0.32840  134.38481    -999.25    2.70318
 4692.09120 4692.09120   92.44890    2.28544    0.32582  134.18888    -999.25    2.73768
 4692.24360 4692.24360   92.23901    2.28651    0.32067  133.92383    -999.25    2.77757
 4692.39600 4692.39600   92.02913    2.28757    0.31552  133.65878    -999.25    2.81747
 4692.54840 4692.54840   92.46143    2.28899    0.31228  133.39372    -999.25    2.82542
 4692.70080 4692.70080   94.27365    2.29115    0.31316  133.12867    -999.25    2.76470
 4692.85320 4692.85320   96.08587    2.29332    0.31405  132.86361    -999.25    2.70399
 4693.00560 4693.00560   97.86857    2.29550    0.31500  132.59856    -999.25    2.64377
 4693.15800 4693.15800   98.87749    2.29831    0.31768  132.33360    -999.25    2.59680
 4693.31040 4693.31040   99.88641    2.30111    0.32036  132.06864    -999.25    2.54983
 4693.46280 4693.46280  100.89533    2.30392    0.32305  131.80368    -999.25    2.50287
 4693.61520 4693.61520   99.61375    2.30619    0.32476  131.93933    -999.25    2.44573
 4693.76760 4693.76760   97.59253    2.30829    0.32616  132.20436    -999.25    2.38532
 4693.92000 4693.92000   95.57131    2.31040    0.32756  132.46938    -999.25    2.32491
 4694.07240 4694.07240   94.71735    2.31235    0.32856  132.73442    -999.25    2.29627
 4694.22480 4694.22480   95.15318    2.31415    0.32911  132.99947    -999.25    2.30273
 4694.37720 4694.37720   95.58902    2.31595    0.32966  133.26453    -999.25    2.30919
 4694.52960 4694.52960   96.03911    2.31729    0.32949  133.52957    -999.25    2.32084
 4694.68200 4694.68200   96.54833    2.31674    0.32635  133.79460    -999.25    2.35397
 4694.83440 4694.83440   97.05756    2.31620    0.32321  134.05962    -999.25    2.38710
 4694.98680 4694.98680   97.56679    2.31565    0.32007  134.32465    -999.25    2.42023
 4695.13920 4695.13920   98.15534    2.31630    0.32169  134.58975    -999.25    2.41439
 4695.29160 4695.29160   98.75141    2.31706    0.32377  134.85487    -999.25    2.40485
 4695.44400 4695.44400   99.34747    2.31782    0.32584  135.11998    -999.25    2.39531
 4695.59640 4695.59640   99.65314    2.31523    0.32481  135.23836    -999.25    2.38875
 4695.74880 4695.74880   99.79012    2.31069    0.32197  135.27149    -999.25    2.38394
 4695.90120 4695.90120   99.92710    2.30614    0.31914  135.30462    -999.25    2.37912
 4696.05360 4696.05360   99.81154    2.30239    0.31748  135.33775    -999.25    2.37315
 4696.20600 4696.20600   99.23050    2.30007    0.31800  135.37088    -999.25    2.36504
 4696.35840 4696.35840   98.64946    2.29775    0.31852  135.40402    -999.25    2.35693
 4696.51080 4696.51080   98.19067    2.29553    0.31881  135.43715    -999.25    2.34914
 4696.66320 4696.66320   99.33468    2.29449    0.31619  135.47028    -999.25    2.34548
 4696.81560 4696.81560  100.47868    2.29345    0.31357  135.50341    -999.25    2.34183
 4696.96800 4696.96800  101.62269    2.29242    0.31095  135.53654    -999.25    2.33817
 4697.12040 4697.12040  102.09754    2.28970    0.31425  135.56943    -999.25    2.31927
 4697.27280 4697.27280  102.39453    2.28653    0.31913  135.60226    -999.25    2.29632
 4697.42520 4697.42520  102.69153    2.28336    0.32401  135.63509    -999.25    2.27336
 4697.57760 4697.57760  102.22052    2.27787    0.32732  135.28682    -999.25    2.24379
 4697.73000 4697.73000  101.00921    2.27016    0.32911  134.57121    -999.25    2.20782
 4697.88240 4697.88240   99.79791    2.26245    0.33091  133.85560    -999.25    2.17185
 4698.03480 4698.03480   99.27758    2.25438    0.33363  133.13999    -999.25    2.13651
 4698.18720 4698.18720  101.09230    2.24512    0.33945  132.42438    -999.25    2.10329
 4698.33960 4698.33960  102.90702    2.23585    0.34527  131.70877    -999.25    2.07007
 4698.49200 4698.49200  104.72174    2.22659    0.35109  130.99316    -999.25    2.03684
 4698.64440 4698.64440  104.99840    2.22099    0.34767  130.27753    -999.25    2.02057
 4698.79680 4698.79680  105.18984    2.21559    0.34374  129.56189    -999.25    2.00524
 4698.94920 4698.94920  105.38129    2.21020    0.33981  128.84625    -999.25    1.98991
 4699.10160 4699.10160  105.06119    2.20795    0.34616  128.13063    -999.25    2.00561
 4699.25400 4699.25400  104.48534    2.20728    0.35765  127.41502    -999.25    2.03682
 4699.40640 4699.40640  103.90948    2.20661    0.36914  126.69941    -999.25    2.06803
 4699.55880 4699.55880  102.87030    2.21294    0.37953  125.98383    -999.25    2.06838
 4699.71120 4699.71120  101.09359    2.23040    0.38815  125.26832    -999.25    2.01962
 4699.86360 4699.86360   99.31688    2.24787    0.39678  124.55280    -999.25    1.97085
