~Version ---------------------------------------------------
VERS.   2.0 : CWLS log ASCII Standard -VERSION 2.0
WRAP.    NO : One line per depth step
DLM . SPACE : Column Data Section Delimiter
~Well ------------------------------------------------------
STRT  .m                4000.50000 : START DEPTH
STOP  .m                5517.00000 : STOP DEPTH
STEP  .m                   0.50000 : STEP
NULL  .                    -999.25 : NULL VALUE
COMP  .                            : COMPANY
WELL  .                     X3.las : WELL
FLD   .                            : FIELD
LOC   .                            : LOCATION
PROV  .                            : PROVINCE
CNTY  .                            : COUNTY
STAT  .                            : STATE
CTRY  .                            : COUNTRY
SRVC  .                            : SERVICE COMPANY
DATE  . 2024-04-14 16:30:14.689995 : DATE
UWI   .                            : UNIQUE WELL ID
API   .                            : API NUMBER
LIC   .                            : 
LATI  .                            : 
LONG  .                            : 
NS    .                            : 
EW    .                            : 
XCOORD.                            : 
YCOORD.                            : 
GDAT  .                            : 
SECT  .                            : 
RANG  .                            : 
TOWN  .                            : 
~Curve Information -----------------------------------------
DEPT      .m      : 
DEPTH     .None   : None
DTC       .None   : None
GR        .GAPI   : None
NPHI      .v/v    : None
NPHIHC    .None   : None
PEF       .None   : None
PERM      .mD     : None
PHIE      .v/v    : None
PHIT      .v/v    : None
RHOB      .g/cc   : None
RHOBFC    .None   : None
RHOBHC    .None   : None
ROCKTYPE  .None   : None
RT        .ohm.m  : None
SW_J      .None   : None
SWE       .v/v    : None
SWT       .v/v    : None
TVDSS     .None   : None
VCALC     .None   : None
VCLB      .None   : None
VCLD      .None   : None
VCLW      .None   : None
VCOAL     .None   : None
VDOLO     .None   : None
VGAS      .None   : None
VOIL      .None   : None
VSAND     .v/v    : None
VSHALE    .v/v    : None
VSILT     .v/v    : None
VWATER    .None   : None
BADHOLE   .None   : None
BS        .None   : None
CALI      .None   : None
COAL_FLAG .None   : None
PERFORATED.None   : None
~Params ----------------------------------------------------
EKB.      : 
EGL.      : 
KB .      : 
GL .      : 
TD .      : 
TDD.      : 
TDL.      : 
~Other -----------------------------------------------------
~ASCII -----------------------------------------------------
# ...
 4084.50000 4084.50000  137.42130   86.18750    0.31790    0.43807    -999.25   11.68696    0.11190    0.20875    2.26670    2.37960    2.37960    2.00000    1.62230    1.00000    1.00000    1.00000 1219.07367    0.25483    0.09685    0.53643    0.63328    -999.25    0.00000    0.00000    0.00000    0.00000    -999.25    0.00000    0.11190    0.00000    0.00000    0.00000    0.00000    0.00000
 4085.00000 4085.00000  137.36130   88.00000    0.31700    0.44347    -999.25   11.22309    0.10848    0.20734    2.26260    2.38227    2.38227    2.00000    1.66440    1.00000    1.00000    1.00000 1219.22602    0.24414    0.09886    0.54852    0.64738    -999.25    0.00000    0.00000    0.00000    0.00000    -999.25    0.00000    0.10848    0.00000    0.00000    0.00000    0.00000    0.00000
 4085.50000 4085.50000  137.30130   86.68750    0.31420    0.44055    -999.25   11.95691    0.11209    0.20954    2.25870    2.37828    2.37828    2.00000    1.66480    1.00000    1.00000    1.00000 1219.37836    0.25124    0.09745    0.53922    0.63667    -999.25    0.00000    0.00000    0.00000    0.00000    -999.25    0.00000    0.11209    0.00000    0.00000    0.00000    0.00000    0.00000
 4086.00000 4086.00000  137.24140   87.31250    0.30370    0.43665    -999.25   51.14739    0.10021    0.19881    2.26830    2.39712    2.39712    3.00000    1.66520    1.00000    1.00000    1.00000 1219.53071    0.24822    0.09860    0.55297    0.65157    -999.25    0.00000    0.00000    0.00000    0.00000    -999.25    0.00000    0.10021    0.00000    0.00000    0.00000    0.00000    0.00000
 4086.50000 4086.50000  137.18140   86.62500    0.29550    0.42654    -999.25   40.31732    0.09524    0.19216    2.28010    2.40852    2.40852    3.00000    1.66770    1.00000    1.00000    1.00000 1219.68306    0.25974    0.09693    0.54810    0.64503    -999.25    0.00000    0.00000    0.00000    0.00000    -999.25    0.00000    0.09524    0.00000    0.00000    0.00000    0.00000    0.00000
 4087.00000 4087.00000  137.12140   89.12500    0.29660    0.43583    -999.25   33.32388    0.08612    0.18700    2.28010    2.41797    2.41797    3.00000    1.66870    1.00000    1.00000    1.00000 1219.83540    0.23887    0.10088    0.57412    0.67501    -999.25    0.00000    0.00000    0.00000    0.00000    -999.25    0.00000    0.08612    0.00000    0.00000    0.00000    0.00000    0.00000
 4087.50000 4087.50000  137.06140   88.06250    0.30200    0.43203    -999.25   40.64771    0.09382    0.19239    2.28170    2.40831    2.40831    3.00000    1.66370    1.00000    1.00000    1.00000 1219.98775    0.25039    0.09857    0.55723    0.65579    -999.25    0.00000    0.00000    0.00000    0.00000    -999.25    0.00000    0.09382    0.00000    0.00000    0.00000    0.00000    0.00000
 4088.00000 4088.00000  137.00150   89.50000    0.31570    0.44016    -999.25   40.74919    0.09140    0.19246    2.28920    2.40848    2.40848    3.00000    1.65720    1.00000    1.00000    1.00000 1220.14010    0.23631    0.10105    0.57123    0.67229    -999.25    0.00000    0.00000    0.00000    0.00000    -999.25    0.00000    0.09140    0.00000    0.00000    0.00000    0.00000    0.00000
 4088.50000 4088.50000  136.94150   87.12500    0.30260    0.42431    -999.25   33.12395    0.08944    0.18684    2.29960    2.41785    2.41785    3.00000    1.63770    1.00000    1.00000    1.00000 1220.29244    0.25875    0.09740    0.55441    0.65181    -999.25    0.00000    0.00000    0.00000    0.00000    -999.25    0.00000    0.08944    0.00000    0.00000    0.00000    0.00000    0.00000
 4089.00000 4089.00000  136.88150   88.68750    0.30020    0.42984    -999.25   29.83089    0.08439    0.18407    2.29560    2.42295    2.42295    3.00000    1.60810    1.00000    1.00000    1.00000 1220.44479    0.24659    0.09968    0.56934    0.66902    -999.25    0.00000    0.00000    0.00000    0.00000    -999.25    0.00000    0.08439    0.00000    0.00000    0.00000    0.00000    0.00000
 4089.50000 4089.50000  136.82160   87.56250    0.30250    0.43268    -999.25   40.57204    0.09356    0.19234    2.28170    2.40843    2.40843    3.00000    1.57710    1.00000    1.00000    1.00000 1220.59714    0.24921    0.09878    0.55845    0.65723    -999.25    0.00000    0.00000    0.00000    0.00000    -999.25    0.00000    0.09356    0.00000    0.00000    0.00000    0.00000    0.00000
 4090.00000 4090.00000  136.76160   86.75000    0.33150    0.44264    -999.25   13.39613    0.11633    0.21355    2.26920    2.37127    2.37127    2.00000    1.54450    1.00000    1.00000    1.00000 1220.74948    0.25125    0.09722    0.53520    0.63241    -999.25    0.00000    0.00000    0.00000    0.00000    -999.25    0.00000    0.11633    0.00000    0.00000    0.00000    0.00000    0.00000
 4090.50000 4090.50000  136.70160   88.56250    0.32140    0.44501    -999.25   10.56716    0.10548    0.20527    2.26950    2.38598    2.38598    2.00000    1.50990    1.00000    1.00000    1.00000 1220.90183    0.23958    0.09979    0.55515    0.65494    -999.25    0.00000    0.00000    0.00000    0.00000    -999.25    0.00000    0.10548    0.00000    0.00000    0.00000    0.00000    0.00000
 4091.00000 4091.00000  136.64170   93.75000    0.32120    0.46072    -999.25   38.88280    0.08353    0.19117    2.27660    2.41146    2.41146    3.00000    1.49120    1.00000    1.00000    1.00000 1221.05418    0.19939    0.10764    0.60944    0.71708    -999.25    0.00000    0.00000    0.00000    0.00000    -999.25    0.00000    0.08353    0.00000    0.00000    0.00000    0.00000    0.00000
 4091.50000 4091.50000  136.58170   97.93750    0.33880    0.47768    -999.25   40.37807    0.07956    0.19220    2.27810    2.41023    2.41023    3.00000    1.47490    1.00000    1.00000    1.00000 1221.20652    0.17083    0.11265    0.63697    0.74961    -999.25    0.00000    0.00000    0.00000    0.00000    -999.25    0.00000    0.07956    0.00000    0.00000    0.00000    0.00000    0.00000
 4092.00000 4092.00000  136.52180   96.50000    0.34700    0.47642    -999.25   51.82068    0.08832    0.19918    2.27720    2.39785    2.39785    3.00000    1.46410    1.00000    1.00000    1.00000 1221.35887    0.17939    0.11086    0.62143    0.73228    -999.25    0.00000    0.00000    0.00000    0.00000    -999.25    0.00000    0.08832    0.00000    0.00000    0.00000    0.00000    0.00000
 4092.50000 4092.50000  136.34790   92.12500    0.34780    0.46215    -999.25   11.96520    0.10533    0.20957    2.27470    2.37899    2.37899    2.00000    1.46890    1.00000    1.00000    1.00000 1221.51121    0.21368    0.10424    0.57675    0.68099    -999.25    0.00000    0.00000    0.00000    0.00000    -999.25    0.00000    0.10533    0.00000    0.00000    0.00000    0.00000    0.00000
 4093.00000 4093.00000  136.17400   92.25000    0.30970    0.45151    -999.25   37.17855    0.08488    0.18995    2.27450    2.41330    2.41330    3.00000    1.47810    1.00000    1.00000    1.00000 1221.66356    0.21429    0.10507    0.59576    0.70083    -999.25    0.00000    0.00000    0.00000    0.00000    -999.25    0.00000    0.08488    0.00000    0.00000    0.00000    0.00000    0.00000
 4093.50000 4093.50000  136.00010   92.43750    0.31440    0.45538    -999.25   40.44080    0.08647    0.19225    2.27230    2.40937    2.40937    3.00000    1.49710    1.00000    1.00000    1.00000 1221.81591    0.20965    0.10578    0.59810    0.70388    -999.25    0.00000    0.00000    0.00000    0.00000    -999.25    0.00000    0.08647    0.00000    0.00000    0.00000    0.00000    0.00000
 4094.00000 4094.00000  135.82620   92.00000    0.31010    0.44929    -999.25   39.41201    0.08749    0.19154    2.27470    2.41041    2.41041    3.00000    1.51950    1.00000    1.00000    1.00000 1221.96825    0.21960    0.10405    0.58886    0.69291    -999.25    0.00000    0.00000    0.00000    0.00000    -999.25    0.00000    0.08749    0.00000    0.00000    0.00000    0.00000    0.00000
 4094.50000 4094.50000  135.65210   90.31250    0.31310    0.44770    -999.25   44.10883    0.09174    0.19465    2.27480    2.40487    2.40487    3.00000    1.52690    1.00000    1.00000    1.00000 1222.12060    0.22521    0.10291    0.58015    0.68306    -999.25    0.00000    0.00000    0.00000    0.00000    -999.25    0.00000    0.09174    0.00000    0.00000    0.00000    0.00000    0.00000
