~Version ---------------------------------------------------
VERS.   2.0 : CWLS log ASCII Standard -VERSION 2.0
WRAP.    NO : One line per depth step
DLM . SPACE : Column Data Section Delimiter
~Well ------------------------------------------------------
STRT  .m                4000.50000 : START DEPTH
STOP  .m                5517.00000 : STOP DEPTH
STEP  .m                   0.50000 : STEP
NULL  .                    -999.25 : NULL VALUE
COMP  .                            : COMPANY
WELL  .                     X3.las : WELL
FLD   .                            : FIELD
LOC   .                            : LOCATION
PROV  .                            : PROVINCE
CNTY  .                            : COUNTY
STAT  .                            : STATE
CTRY  .                            : COUNTRY
SRVC  .                            : SERVICE COMPANY
DATE  . 2024-04-14 16:30:14.689995 : DATE
UWI   .                            : UNIQUE WELL ID
API   .                            : API NUMBER
LIC   .                            : 
LATI  .                            : 
LONG  .                            : 
NS    .                            : 
EW    .                            : 
XCOORD.                            : 
YCOORD.                            : 
GDAT  .                            : 
SECT  .                            : 
RANG  .                            : 
TOWN  .                            : 
~Curve Information -----------------------------------------
DEPT      .m      : 
DEPTH     .None   : None
DTC       .None   : None
GR        .GAPI   : None
NPHI      .v/v    : None
NPHIHC    .None   : None
PEF       .None   : None
PERM      .mD     : None
PHIE      .v/v    : None
PHIT      .v/v    : None
RHOB      .g/cc   : None
RHOBFC    .None   : None
RHOBHC    .None   : None
ROCKTYPE  .None   : None
RT        .ohm.m  : None
SW_J      .None   : None
SWE       .v/v    : None
SWT       .v/v    : None
TVDSS     .None   : None
VCALC     .None   : None
VCLB      .None   : None
VCLD      .None   : None
VCLW      .None   : None
VCOAL     .None   : None
VDOLO     .None   : None
VGAS      .None   : None
VOIL      .None   : None
VSAND     .v/v    : None
VSHALE    .v/v    : None
VSILT     .v/v    : None
VWATER    .None   : None
BADHOLE   .None   : None
BS        .None   : None
CALI      .None   : None
COAL_FLAG .None   : None
PERFORATED.None   : None
~Params ----------------------------------------------------
EKB.      : 
EGL.      : 
KB .      : 
GL .      : 
TD .      : 
TDD.      : 
TDL.      : 
~Other -----------------------------------------------------
~ASCII -----------------------------------------------------
# ...
 4872.00000 4872.00000  133.47070   30.77520    0.29020    0.35792    -999.25  184.06200    0.34714    0.36802    2.04170    2.09518    2.09518    1.00000  991.81320    0.05326    0.03237    0.08726 1459.09520    0.53963    0.02088    0.09235    0.11323    -999.25    0.00000    0.33591    0.00000    0.00000    -999.25    0.00000    0.01124    0.00000    0.00000    0.00000    0.00000    0.00000
 4872.50000 4872.50000  133.47070   27.65620    0.26610    0.37194    -999.25  290.44400    0.38055    0.39565    1.95970    2.04680    2.04680    1.00000 1032.33230    0.04694    0.02872    0.06578 1459.24761    0.54049    0.01510    0.06386    0.07896    -999.25    0.00000    0.36963    0.00000    0.00000    -999.25    0.00000    0.01093    0.00000    0.00000    0.00000    0.00000    0.00000
 4873.00000 4873.00000  133.47070   27.44960    0.27500    0.38577    -999.25  354.20200    0.39293    0.40831    1.93490    2.02489    2.02489    1.00000 1108.82230    0.04447    0.02677    0.06342 1459.40002    0.52799    0.01538    0.06369    0.07907    -999.25    0.00000    0.38242    0.00000    0.00000    -999.25    0.00000    0.01052    0.00000    0.00000    0.00000    0.00000    0.00000
 4873.50000 4873.50000  133.47070   27.76050    0.27850    0.36014    -999.25  224.52320    0.36284    0.37981    2.00870    2.07440    2.07440    1.00000 1259.93160    0.05062    0.02739    0.07083 1459.55243    0.54654    0.01697    0.07365    0.09062    -999.25    0.00000    0.35291    0.00000    0.00000    -999.25    0.00000    0.00994    0.00000    0.00000    0.00000    0.00000    0.00000
 4874.00000 4874.00000  129.62230   24.74480    0.28500    0.33386    -999.25  179.51900    0.35454    0.36656    2.05960    2.09692    2.09692    1.00000 1515.29040    0.05399    0.02562    0.05757 1459.70483    0.58014    0.01202    0.05330    0.06532    -999.25    0.00000    0.34546    0.00000    0.00000    -999.25    0.00000    0.00908    0.00000    0.00000    0.00000    0.00000    0.00000
 4874.50000 4874.50000  128.76710   25.20310    0.27850    0.32594    -999.25  160.03720    0.34829    0.35994    2.07180    2.10835    2.10835    1.00000 2000.00000    0.05585    0.02265    0.05428 1459.85724    0.58787    0.01165    0.05219    0.06384    -999.25    0.00000    0.34040    0.00000    0.00000    -999.25    0.00000    0.00789    0.00000    0.00000    0.00000    0.00000    0.00000
 4875.00000 4875.00000  127.91190   20.96430    0.27700    0.31148    -999.25  163.27010    0.35552    0.36108    2.08050    2.10583    2.10583    1.00000 2000.00000    0.05563    0.01861    0.03371 1460.00965    0.61406    0.00556    0.02486    0.03042    -999.25    0.00000    0.34891    0.00000    0.00000    -999.25    0.00000    0.00661    0.00000    0.00000    0.00000    0.00000    0.00000
 4875.50000 4875.50000  127.05660   19.56710    0.23690    0.26535    -999.25   79.76231    0.31829    0.32227    2.15070    2.17285    2.17285    1.00000 2000.00000    0.06811    0.01799    0.03011 1460.16206    0.65886    0.00398    0.01887    0.02284    -999.25    0.00000    0.31257    0.00000    0.00000    -999.25    0.00000    0.00573    0.00000    0.00000    0.00000    0.00000    0.00000
 4876.00000 4876.00000  124.49100   20.90610    0.18880    0.22819    -999.25   69.12830    0.27402    0.28072    2.20990    2.24503    2.24503    2.00000 2000.00000    0.19990    0.01869    0.04211 1460.31446    0.68554    0.00670    0.03374    0.04044    -999.25    0.00000    0.26890    0.00000    0.00000    -999.25    0.00000    0.00512    0.00000    0.00000    0.00000    0.00000    0.00000
 4876.50000 4876.50000  124.49100   21.00910    0.13520    0.22867    -999.25   69.36898    0.27408    0.28088    2.15110    2.24476    2.24476    2.00000 2000.00000    0.19999    0.01841    0.04220 1460.46687    0.68486    0.00681    0.03426    0.04107    -999.25    0.00000    0.26903    0.00000    0.00000    -999.25    0.00000    0.00505    0.00000    0.00000    0.00000    0.00000    0.00000
 4877.00000 4877.00000  124.49100   23.16150    0.13730    0.26834    -999.25   65.86311    0.30379    0.31262    2.05860    2.19001    2.19001    1.00000 2000.00000    0.07223    0.01811    0.04587 1460.61928    0.64485    0.00884    0.04252    0.05136    -999.25    0.00000    0.29828    0.00000    0.00000    -999.25    0.00000    0.00550    0.00000    0.00000    0.00000    0.00000    0.00000
 4877.50000 4877.50000  128.33950   25.75490    0.15640    0.29679    -999.25   88.06460    0.31383    0.32738    2.02720    2.16491    2.16491    1.00000 2000.00000    0.06670    0.02229    0.06275 1460.77169    0.60883    0.01355    0.06379    0.07734    -999.25    0.00000    0.30683    0.00000    0.00000    -999.25    0.00000    0.00699    0.00000    0.00000    0.00000    0.00000    0.00000
 4878.00000 4878.00000  127.05660   24.07760    0.14800    0.25624    -999.25   99.25554    0.28816    0.29817    2.10820    2.21515    2.21515    2.00000 1496.10100    0.18897    0.03228    0.06475 1460.92409    0.65269    0.01000    0.04914    0.05914    -999.25    0.00000    0.27886    0.00000    0.00000    -999.25    0.00000    0.00930    0.00000    0.00000    0.00000    0.00000    0.00000
 4878.50000 4878.50000  126.20140   26.33700    0.12820    0.23345    -999.25   50.52594    0.25276    0.26643    2.16180    2.27048    2.27048    2.00000  957.84300    0.21169    0.04646    0.09540 1461.07650    0.66335    0.01368    0.07022    0.08390    -999.25    0.00000    0.24101    0.00000    0.00000    -999.25    0.00000    0.01174    0.00000    0.00000    0.00000    0.00000    0.00000
 4879.00000 4879.00000  125.34620   26.81810    0.14740    0.27621    -999.25  114.96600    0.29121    0.30556    2.07410    2.20278    2.20278    2.00000  724.53230    0.18477    0.04578    0.09058 1461.22891    0.62471    0.01435    0.06973    0.08408    -999.25    0.00000    0.27788    0.00000    0.00000    -999.25    0.00000    0.01333    0.00000    0.00000    0.00000    0.00000    0.00000
 4879.50000 4879.50000  133.47070   28.49110    0.20010    0.34474    -999.25  181.85810    0.35133    0.36731    1.96340    2.09596    2.09596    1.00000  654.46100    0.05479    0.03929    0.08108 1461.38132    0.56192    0.01598    0.07077    0.08675    -999.25    0.00000    0.33753    0.00000    0.00000    -999.25    0.00000    0.01380    0.00000    0.00000    0.00000    0.00000    0.00000
 4880.00000 4880.00000  136.03640   25.31420    0.23510    0.37207    -999.25  322.25840    0.38993    0.40223    1.91730    2.03517    2.03517    1.00000  711.48710    0.04675    0.03366    0.06323 1461.53372    0.54627    0.01231    0.05150    0.06380    -999.25    0.00000    0.37680    0.00000    0.00000    -999.25    0.00000    0.01312    0.00000    0.00000    0.00000    0.00000    0.00000
 4880.50000 4880.50000  139.88480   26.11570    0.22930    0.36571    -999.25  270.96500    0.37692    0.39131    1.93530    2.05425    2.05425    1.00000  873.65390    0.04917    0.03153    0.06715 1461.68613    0.54736    0.01439    0.06133    0.07572    -999.25    0.00000    0.36504    0.00000    0.00000    -999.25    0.00000    0.01188    0.00000    0.00000    0.00000    0.00000    0.00000
 4881.00000 4881.00000  142.45050   26.54110    0.20500    0.35168    -999.25  225.71890    0.36669    0.38013    1.94090    2.07354    2.07354    1.00000 1140.99370    0.05184    0.02845    0.06280 1461.83854    0.56154    0.01344    0.05833    0.07177    -999.25    0.00000    0.35626    0.00000    0.00000    -999.25    0.00000    0.01043    0.00000    0.00000    0.00000    0.00000    0.00000
 4881.50000 4881.50000  141.80910   23.44110    0.20030    0.34162    -999.25  228.53760    0.37179    0.38088    1.94420    2.07187    2.07187    1.00000 1570.58310    0.05175    0.02390    0.04720 1461.99095    0.57973    0.00909    0.03939    0.04848    -999.25    0.00000    0.36290    0.00000    0.00000    -999.25    0.00000    0.00889    0.00000    0.00000    0.00000    0.00000    0.00000
 4882.00000 4882.00000  141.16760   21.15420    0.19880    0.33628    -999.25  236.85420    0.37704    0.38305    1.94410    2.06785    2.06785    1.00000 2000.00000    0.05132    0.02055    0.03592 1462.14335    0.59100    0.00601    0.02596    0.03197    -999.25    0.00000    0.36929    0.00000    0.00000    -999.25    0.00000    0.00775    0.00000    0.00000    0.00000    0.00000    0.00000
