# LAS format log file from PETREL
# Project units are specified as depth units
#==================================================================
~Version information
VERS.   2.0:
WRAP.   NO:
#==================================================================
~Well
STRT .m      2391.0522461 :
STOP .m      2949.2934570 :
STEP .m     0.00000000 :
NULL .        -999.250000 :
COMP.           : COMPANY
WELL.  36_7-3   : WELL
FLD.            : FIELD
LOC.            : LOCATION
SRVC.           : SERVICE COMPANY
DATE.  2018-09-11 14:49:03   : Log Export Date {yyyy-MM-dd HH:mm:ss}
PROV.           : PROVINCE
UWI.   36_7-3   : UNIQUE WELL ID
API.            : API NUMBER
#==================================================================
~Curve
DEPT .m                   : DEPTH
Lithology_geolink ._      : Lithology_geolink
CALI .in                  : CALI
DRHO .g/cm3               : DRHO
NPHI .m3/m3               : NPHI
RHOB .g/cm3               : RHOB
PEF .b/e                  : PEF
GR .gAPI                  : GR
DTC .us/ft                : DTC
RT .ohm.m               : RDEP
RMED .ohm.m               : RMED
~Parameter
#==================================================================
~Ascii
# ...
 2860.4440918 5.0000000000 7.5995001793 2.5781812668 0.1989151984 2.5781812668 2.5781812668 65.355102539 84.991676331 5.8198046684 4.9355616570
 2860.5966797 5.0000000000 7.5995001793 2.5804963112 0.1560685933 2.5804963112 2.5804963112 65.593696594 76.017379761 22.301242828 12.277116776
 2860.7490234 4.0000000000 7.5995001793 2.5923810005 0.1293427795 2.5923810005 2.5923810005 67.306098938 73.351257324 31.979606628 28.659723282
 2860.9013672 4.0000000000 7.5995001793 2.6012856960 0.1155221164 2.6012856960 2.6012856960 70.291198730 80.901878357 35.113800049 28.130191803
 2861.0537109 4.0000000000 7.5995001793 2.6048884392 0.1204840019 2.6048884392 2.6048884392 72.338798523 97.546600342 26.683000565 22.444749832
 2861.2062988 4.0000000000 7.5995001793 2.5859305859 0.1412666589 2.5859305859 2.5859305859 72.989997864 115.09889984 24.452999115 10.423565865
 2861.3586426 5.0000000000 7.5995001793 2.5592427254 0.1661600918 2.5592427254 2.5592427254 74.210502625 115.95866394 13.001299858 10.541080475
 2861.5109863 5.0000000000 7.5995001793 2.5028903484 0.1941551268 2.5028903484 2.5028903484 81.439598083 103.49002075 8.7916002274 10.514542580
 2861.6633301 5.0000000000 7.5995001793 2.4725487232 0.2241519243 2.4725487232 2.4725487232 81.756103516 96.770751953 8.9379997253 8.9042844772
 2861.8156738 5.0000000000 7.5995001793 2.4883491993 0.2453321517 2.4883491993 2.4883491993 77.252502441 96.476913452 14.583299637 9.5558996201
 2861.9682617 4.0000000000 7.5995001793 2.5476047993 0.2322211564 2.5476047993 2.5476047993 67.108596802 94.718818665 72.509902954 35.292690277
 2862.1206055 4.0000000000 7.5995001793 2.6039099693 0.2046442330 2.6039099693 2.6039099693 64.172401428 88.878372192 62.152198792 70.928260803
 2862.2729492 4.0000000000 7.5995001793 2.6144831181 0.1984099448 2.6144831181 2.6144831181 67.534301758 81.183334351 47.087898254 40.468086243
 2862.4252930 4.0000000000 7.5995001793 2.6209793091 0.2134516686 2.6209793091 2.6209793091 75.649200439 77.381172180 18.356700897 20.069826126
 2862.5778809 4.0000000000 7.5995001793 2.6288874149 0.2472458333 2.6288874149 2.6288874149 84.994201660 76.876792908 21.812400818 18.308223724
 2862.7302246 4.0000000000 7.5995001793 2.6437761784 0.2660698593 2.6437761784 2.6437761784 91.099296570 82.555885315 10.212599754 18.780437469
 2862.8825684 5.0000000000 7.5995001793 2.6221349239 0.2522222698 2.6221349239 2.6221349239 87.554702759 89.612686157 9.6274003983 6.5261707306
 2863.0349121 5.0000000000 7.5995001793 2.5909998417 0.2246883214 2.5909998417 2.5909998417 78.208396912 83.200622559 19.099599838 7.4777817726
 2863.1875000 5.0000000000 7.5995001793 2.5826134682 0.1997399032 2.5826134682 2.5826134682 68.433898926 72.580017090 66.899902344 46.284812927
 2863.3398438 4.0000000000 7.5995001793 2.6113536358 0.1921121776 2.6113536358 2.6113536358 61.674598694 68.363739014 54.950298309 35.895076752
 2863.4921875 4.0000000000 7.5995001793 2.6572263241 0.1891048104 2.6572263241 2.6572263241 60.237598419 74.025901794 28.042100906 15.695995331
 2863.6445313 4.0000000000 7.5995001793 2.6307427883 0.1849067360 2.6307427883 2.6307427883 58.771198273 88.289115906 38.912700653 33.733993530
 2863.7968750 4.0000000000 7.5995001793 2.6091692448 0.1653627157 2.6091692448 2.6091692448 56.659698486 94.122344971 25.636400223 22.668117523
 2863.9494629 4.0000000000 7.5995001793 2.5730578899 0.1549166590 2.5730578899 2.5730578899 56.518398285 84.910820007 20.174499512 12.729095459
 2864.1018066 4.0000000000 7.5995001793 2.6053481102 0.1556987166 2.6053481102 2.6053481102 59.233501434 71.403663635 35.043498993 23.144655228
 2864.2541504 4.0000000000 7.5995001793 2.5952165127 0.1652846187 2.5952165127 2.5952165127 63.425098419 66.613655090 88.775299072 88.111343384
 2864.4064941 4.0000000000 7.5995001793 2.6044702530 0.1647019237 2.6044702530 2.6044702530 62.101799011 68.755104065 29.992099762 42.296512604
 2864.5590820 4.0000000000 7.5995001793 2.5804386139 0.1616049558 2.5804386139 2.5804386139 59.551601410 71.408752441 35.506198883 28.766281128
 2864.7114258 4.0000000000 7.5995001793 2.6022651196 0.1576064080 2.6022651196 2.6022648811 57.615299225 75.264823914 66.356399536 58.652591705
 2864.8637695 4.0000000000 7.5995001793 2.6151793003 0.1675839871 2.6151793003 2.6151793003 59.570301056 79.518180847 38.504199982 24.187997818
 2865.0161133 4.0000000000 7.5995001793 2.6244702339 0.1846452802 2.6244702339 2.6244702339 74.467102051 82.101730347 17.636899948 18.018129349
 2865.1687012 4.0000000000 7.5995001793 2.6088252068 0.2146519274 2.6088252068 2.6088252068 102.31430054 82.226806641 33.647598267 33.719165802
 2865.3210449 6.0000000000 7.5995001793 2.5911285877 0.2546359003 2.5911285877 2.5911283493 119.17240143 79.791908264 30.487699509 27.549442291
 2865.4733887 6.0000000000 7.5995001793 2.5898020267 0.2853507996 2.5898020267 2.5898020267 128.78120422 75.977119446 28.022899628 33.570919037
 2865.6257324 7.0000000000 7.5995001793 2.5967888832 0.3227400780 2.5967888832 2.5967888832 125.89990234 73.319259644 33.772201538 25.369779587
 2865.7780762 7.0000000000 7.5995001793 2.6110541821 0.3431347311 2.6110541821 2.6110541821 132.26179504 72.814613342 21.908199310 23.472249985
 2865.9306641 7.0000000000 7.5995001793 2.6132965088 0.3535833359 2.6132965088 2.6132965088 133.96359253 74.507286072 16.173700333 25.308044434
 2866.0830078 7.0000000000 7.5995001793 2.5983240604 0.3425177932 2.5983240604 2.5983240604 135.62849426 77.392379761 30.340000153 29.079551697
 2866.2353516 7.0000000000 7.5995001793 2.6058878899 0.3233307600 2.6058878899 2.6058878899 139.77229309 79.590484619 31.493000031 33.231544495
 2866.3876953 7.0000000000 7.5995001793 2.5918450356 0.3129332960 2.5918450356 2.5918450356 145.86509705 79.740524292 9.9560003281 10.155202866
 2866.5402832 7.0000000000 7.5995001793 2.5873072147 0.3221850991 2.5873072147 2.5873072147 148.04269409 79.056098938 29.153299332 25.454622269
 2866.6926270 7.0000000000 7.5995001793 2.5793125629 0.3352790177 2.5793125629 2.5793128014 147.55290222 79.699958801 22.158199310 24.901727676
 2866.8449707 7.0000000000 7.5995001793 2.6095514297 0.3455834985 2.6095514297 2.6095514297 142.63110352 81.503105164 25.322399139 24.798164368
 2866.9973145 7.0000000000 7.5995001793 2.6166772842 0.3448025584 2.6166772842 2.6166772842 140.93949890 83.549438477 23.937999725 26.994548798
 2867.1499023 7.0000000000 7.5995001793 2.5880460739 0.3438016176 2.5880460739 2.5880460739 139.46459961 83.719741821 25.259599686 25.127307892
 2867.3022461 7.0000000000 7.5995001793 2.5652365685 0.3390076756 2.5652365685 2.5652365685 134.11309814 81.736183167 19.174699783 21.507106781
 2867.4545898 7.0000000000 7.5995001793 2.5542175770 0.3353059292 2.5542175770 2.5542175770 132.59269714 79.986808777 23.923999786 25.338741302
 2867.6069336 7.0000000000 7.5995001793 2.5660808086 0.3387944102 2.5660808086 2.5660808086 133.89320374 79.269142151 26.707899094 26.308652878
 2867.7592773 7.0000000000 7.5995001793 2.5647044182 0.3541507125 2.5647044182 2.5647044182 138.31539917 79.541122437 27.313600540 26.714801788
 2867.9118652 7.0000000000 7.5995001793 2.5658981800 0.3518038392 2.5658981800 2.5658981800 141.07049561 80.166999817 23.905500412 27.566934586
 2868.0642090 7.0000000000 7.5995001793 2.5494265556 0.3576905429 2.5494265556 2.5494265556 138.49850464 79.990287781 25.126699448 27.585971832
 2868.2165527 7.0000000000 7.5995001793 2.5426108837 0.3414261341 2.5426108837 2.5426108837 135.25590515 79.329063416 26.876800537 25.219898224
 2868.3688965 7.0000000000 7.5995001793 2.5329310894 0.3486766219 2.5329310894 2.5329310894 131.30400085 79.612083435 26.661800385 28.668117523
 2868.5214844 7.0000000000 7.5995001793 2.5316021442 0.3358206749 2.5316021442 2.5316021442 129.54299927 80.298904419 26.444599152 29.216638565
 2868.6738281 7.0000000000 7.5995001793 2.5280058384 0.3325052857 2.5280058384 2.5280058384 132.45419312 80.150253296 31.329900742 35.255111694
 2868.8261719 7.0000000000 7.5995001793 2.5336909294 0.3100360632 2.5336909294 2.5336909294 137.68879700 79.380233765 28.744100571 18.582777023
