# LAS format log file from PETREL
# Project units are specified as depth units
#==================================================================
~Version information
VERS.   2.0:
WRAP.   NO:
#==================================================================
~Well
STRT .m      2391.0522461 :
STOP .m      2949.2934570 :
STEP .m     0.00000000 :
NULL .        -999.250000 :
COMP.           : COMPANY
WELL.  36_7-3   : WELL
FLD.            : FIELD
LOC.            : LOCATION
SRVC.           : SERVICE COMPANY
DATE.  2018-09-11 14:49:03   : Log Export Date {yyyy-MM-dd HH:mm:ss}
PROV.           : PROVINCE
UWI.   36_7-3   : UNIQUE WELL ID
API.            : API NUMBER
#==================================================================
~Curve
DEPT .m                   : DEPTH
Lithology_geolink ._      : Lithology_geolink
CALI .in                  : CALI
DRHO .g/cm3               : DRHO
NPHI .m3/m3               : NPHI
RHOB .g/cm3               : RHOB
PEF .b/e                  : PEF
GR .gAPI                  : GR
DTC .us/ft                : DTC
RT .ohm.m               : RDEP
RMED .ohm.m               : RMED
~Parameter
#==================================================================
~Ascii
# ...
 2467.8618164 13.000000000 7.5995001793 2.6226177216 0.1875927895 2.6226177216 2.6226177216 63.579601288 79.801635742 2.9704999924 3.3792879581
 2468.0144043 13.000000000 7.5995001793 2.5927000046 0.1899999976 2.5927000046 2.5927000046 64.915000916 76.825759888 3.9690999985 5.5988998413
 2468.1667480 13.000000000 7.5995001793 2.5968999863 0.1849000007 2.5968999863 2.5968999863 61.595699310 76.383705139 5.2290000916 5.5418000221
 2468.3190918 13.000000000 7.5995001793 2.6227586269 0.1688257605 2.6227586269 2.6227586269 56.386199951 77.293533325 5.3713998795 4.4391670227
 2468.4714355 13.000000000 7.5995001793 2.6386744976 0.1612121761 2.6386744976 2.6386744976 54.951599121 78.131660461 5.8333997726 4.4836254120
 2468.6237793 13.000000000 7.5995001793 2.6360042095 0.1594028920 2.6360042095 2.6360042095 53.991699219 78.053131104 4.8336000443 4.5162477493
 2468.7763672 13.000000000 7.5995001793 2.6266000271 0.1604000032 2.6266000271 2.6266000271 54.721500397 77.493003845 6.6563000679 5.1343998909
 2468.9287109 13.000000000 7.5995001793 2.6411767006 0.1569056064 2.6411767006 2.6411767006 55.230598450 77.631782532 5.2553000450 4.3127169609
 2469.0810547 13.000000000 7.5995001793 2.6085524559 0.1563009620 2.6085524559 2.6085524559 58.389999390 78.415740967 5.5996999741 4.7390136719
 2469.2333984 13.000000000 7.5995001793 2.6172859669 0.1569988877 2.6172859669 2.6172859669 60.763801575 79.010047913 6.6156001091 6.6112957001
 2469.3859863 13.000000000 7.5995001793 2.6514000893 0.1606999934 2.6514000893 2.6514000893 61.154701233 79.556999207 5.1670999527 4.7322001457
 2469.5383301 13.000000000 7.5995001793 2.6140000820 0.1662999988 2.6140000820 2.6140000820 59.166400909 80.946998596 4.6470999718 5.4903001785
 2469.6906738 13.000000000 7.5995001793 2.6314721107 0.1744868904 2.6314721107 2.6314721107 59.726100922 82.908859253 4.5302000046 4.6179981232
 2469.8430176 13.000000000 7.5995001793 2.6693391800 0.1830862164 2.6693391800 2.6693391800 64.345703125 84.240859985 4.0594000816 4.8693943024
 2469.9956055 13.000000000 7.5995001793 2.6661999226 0.1864999980 2.6661999226 2.6661999226 70.008796692 84.544006348 3.8466000557 3.1919000149
 2470.1479492 13.000000000 7.5995001793 2.5851998329 0.1911000013 2.5851998329 2.5852000713 75.436599731 83.936996460 3.6777999401 3.5193998814
 2470.3002930 13.000000000 7.5995001793 2.5974802971 0.1865073591 2.5974802971 2.5974802971 74.338500977 82.989517212 5.4078998566 4.4299407005
 2470.4526367 13.000000000 7.5995001793 2.5924081802 0.1803099364 2.5924081802 2.5924081802 69.655799866 82.089431763 4.9973001480 4.7369098663
 2470.6049805 13.000000000 7.5995001793 2.6223518848 0.1761067361 2.6223518848 2.6223518848 64.263900757 81.238372803 4.3835000992 4.2614641190
 2470.7575684 13.000000000 7.5995001793 2.6024000645 0.1803999990 2.6024000645 2.6024000645 62.999401093 80.631004333 4.3633999825 4.7540001869
 2470.9099121 13.000000000 7.5995001793 2.6155788898 0.1811987162 2.6155788898 2.6155788898 65.319503784 80.523170471 5.2165999413 4.7825541496
 2471.0622559 13.000000000 7.5995001793 2.5933358669 0.1823980808 2.5933358669 2.5933358669 66.327400208 81.402587891 4.5736999512 5.3487911224
 2471.2145996 13.000000000 7.5995001793 2.6413230896 0.1779072136 2.6413230896 2.6413230896 62.554100037 83.122253418 5.5549998283 4.4551358223
 2471.3671875 13.000000000 7.5995001793 2.6373000145 0.1696999967 2.6373000145 2.6373000145 61.732898712 84.530998230 3.8085000515 3.6594998837
 2471.5195313 13.000000000 7.5995001793 2.6138999462 0.1720999926 2.6138999462 2.6138999462 64.697700500 85.079002380 3.1270999908 3.8394000530
 2471.6718750 13.000000000 7.5995001793 2.5807530880 0.1730984002 2.5807530880 2.5807530880 66.875000000 85.517295837 3.3484001160 3.8113451004
 2471.8242188 13.000000000 7.5995001793 2.6101527214 0.1828842908 2.6101527214 2.6101527214 65.155403137 86.370635986 4.0020999908 3.5898554325
 2471.9768066 13.000000000 7.5995001793 2.5829000473 0.1826000065 2.5829000473 2.5829000473 62.634399414 87.424003601 3.6605999470 4.4699001312
 2472.1291504 13.000000000 7.5995001793 2.5615000725 0.1932000071 2.5615000725 2.5615000725 64.179901123 87.793998718 3.1986000538 2.8173999786
 2472.2814941 13.000000000 7.5995001793 2.5644953251 0.2121696025 2.5644953251 2.5644953251 72.154197693 86.826545715 3.1289999485 2.5350525379
 2472.4338379 13.000000000 7.5995001793 2.6385810375 0.2137974352 2.6385810375 2.6385810375 75.495597839 84.189231873 3.4779999256 3.0110352039
 2472.5861816 13.000000000 7.5995001793 2.6264197826 0.2102057636 2.6264197826 2.6264197826 74.229499817 81.229743958 3.9547998905 4.3416652679
 2472.7387695 13.000000000 7.5995001793 2.6366999149 0.1897999942 2.6366999149 2.6366999149 67.479301453 80.555999756 5.2692999840 4.3515000343
 2472.8911133 13.000000000 7.5995001793 2.6058492661 0.1809142381 2.6058492661 2.6058492661 62.968200684 82.034629822 3.9563000202 4.6235642433
 2473.0434570 13.000000000 7.5995001793 2.6232719421 0.1698177904 2.6232719421 2.6232719421 63.172000885 84.005844116 4.2607998848 4.6089243889
 2473.1958008 13.000000000 7.5995001793 2.6334836483 0.1731945425 2.6334836483 2.6334836483 63.232299805 84.228645325 4.5692000389 4.3691849709
 2473.3483887 13.000000000 7.5995001793 2.6268999577 0.1747000068 2.6268999577 2.6268999577 61.408901215 82.360000610 4.3397998810 4.5215001106
 2473.5007324 13.000000000 7.5995001793 2.6152000427 0.1823000014 2.6152000427 2.6152000427 61.900600433 80.750999451 4.5061998367 3.9368999004
 2473.6530762 13.000000000 7.5995001793 2.5612862110 0.1760100722 2.5612862110 2.5612862110 64.067901611 79.780555725 3.9681999683 3.7853429317
 2473.8054199 13.000000000 7.5995001793 2.6024336815 0.1669145823 2.6024336815 2.6024336815 66.165802002 78.161590576 3.7535998821 5.7577338219
 2473.9580078 13.000000000 7.5995001793 2.6205000877 0.1580000073 2.6205000877 2.6205000877 67.482696533 75.316009521 3.5336999893 4.0363998413
 2474.1103516 13.000000000 7.5995001793 2.6493000984 0.1571999937 2.6493000984 2.6493000984 65.086997986 72.513000488 4.7789998055 8.8585996628
 2474.2626953 13.000000000 7.5995001793 2.6602823734 0.1543046385 2.6602823734 2.6602823734 64.547897339 71.429740906 5.9270000458 11.979698181
 2474.4150391 13.000000000 7.5995001793 2.6205639839 0.1527025700 2.6205639839 2.6205639839 63.002998352 72.206748962 15.440699577 13.738185883
 2474.5673828 13.000000000 7.5995001793 2.6245932579 0.1481073797 2.6245932579 2.6245932579 67.072998047 73.963188171 8.0853996277 8.5624122620
 2474.7199707 13.000000000 7.5995001793 2.6881999969 0.1611000001 2.6881999969 2.6881999969 71.565002441 75.351997375 8.4029998779 8.0846996307
 2474.8723145 13.000000000 7.5995001793 2.7209475040 0.1711838543 2.7209475040 2.7209475040 74.916900635 75.780311584 7.4794001579 7.0562477112
 2475.0246582 13.000000000 7.5995001793 2.6545069218 0.1854770780 2.6545069218 2.6545069218 73.920700073 75.946731567 6.1981000900 4.9173307419
 2475.1770020 13.000000000 7.5995001793 2.6100709438 0.1814065725 2.6100709438 2.6100709438 75.935096741 76.699790955 4.6693000793 4.9689116478
 2475.3295898 13.000000000 7.5995001793 2.6194999218 0.1802999973 2.6194999218 2.6194999218 76.630096436 78.223999023 14.155900002 8.0724000931
 2475.4819336 13.000000000 7.5995001793 2.6103000641 0.1740999967 2.6103000641 2.6103000641 78.238998413 80.289001465 8.9652996063 5.3597998619
 2475.6342773 13.000000000 7.5995001793 2.6122968197 0.1743995249 2.6122968197 2.6122968197 75.608100891 81.980285645 4.6097998619 4.2309093475
 2475.7866211 13.000000000 7.5995001793 2.6032145023 0.1752985567 2.6032145023 2.6032145023 70.799400330 82.162712097 4.4861001968 4.0174393654
 2475.9392090 13.000000000 7.5995001793 2.6238999367 0.1732999980 2.6238999367 2.6238999367 64.660400391 80.865997314 3.6156001091 4.1392002106
 2476.0915527 13.000000000 7.5995001793 2.6436998844 0.1667000055 2.6436998844 2.6436998844 57.393199921 79.207000732 3.8259999752 4.6697001457
 2476.2438965 13.000000000 7.5995001793 2.6352136135 0.1582136005 2.6352136135 2.6352136135 57.742698669 79.201004028 4.8090000153 3.9788072109
