# LAS format log file from PETREL
# Project units are specified as depth units
#==================================================================
~Version information
VERS.   2.0:
WRAP.   NO:
#==================================================================
~Well
STRT .m      2391.0522461 :
STOP .m      2949.2934570 :
STEP .m     0.00000000 :
NULL .        -999.250000 :
COMP.           : COMPANY
WELL.  36_7-3   : WELL
FLD.            : FIELD
LOC.            : LOCATION
SRVC.           : SERVICE COMPANY
DATE.  2018-09-11 14:49:03   : Log Export Date {yyyy-MM-dd HH:mm:ss}
PROV.           : PROVINCE
UWI.   36_7-3   : UNIQUE WELL ID
API.            : API NUMBER
#==================================================================
~Curve
DEPT .m                   : DEPTH
Lithology_geolink ._      : Lithology_geolink
CALI .in                  : CALI
DRHO .g/cm3               : DRHO
NPHI .m3/m3               : NPHI
RHOB .g/cm3               : RHOB
PEF .b/e                  : PEF
GR .gAPI                  : GR
DTC .us/ft                : DTC
RT .ohm.m               : RDEP
RMED .ohm.m               : RMED
~Parameter
#==================================================================
~Ascii
# ...
 2903.1162109 6.0000000000 7.5995001793 2.6101813316 0.3163999915 2.6101813316 2.6101813316 107.60800171 79.268432617 4.4103999138 4.2172999382
 2903.2685547 5.0000000000 7.5995001793 2.5725207329 0.3054000139 2.5725207329 2.5725207329 111.92649841 77.494697571 4.3063001633 4.6423001289
 2903.4211426 5.0000000000 7.5995001793 2.5500359535 0.2662999928 2.5500359535 2.5500359535 110.26190186 71.616432190 4.7245001793 4.6308999062
 2903.5734863 5.0000000000 7.5995001793 2.5616812706 0.2023999989 2.5616812706 2.5616812706 96.468101501 64.382598877 6.1493000984 5.5184001923
 2903.7258301 5.0000000000 7.5995001793 2.5863604546 0.1207000017 2.5863604546 2.5863604546 77.788902283 64.287139893 28.228599548 24.599899292
 2903.8781738 2.0000000000 7.5995001793 2.5992586613 0.0692000017 2.5992586613 2.5992586613 63.454498291 73.937019348 38.001701355 32.012599945
 2904.0307617 2.0000000000 7.5995001793 2.6207654476 0.0447999984 2.6207654476 2.6207654476 57.361301422 83.711357117 41.570301056 35.473999023
 2904.1831055 2.0000000000 7.5995001793 2.6237952709 0.0340999998 2.6237952709 2.6237952709 54.758499146 87.185447693 39.791000366 35.972499847
 2904.3354492 2.0000000000 7.5995001793 2.6337840557 0.0329000019 2.6337840557 2.6337840557 55.409999847 88.047637939 46.602199554 36.920299530
 2904.4877930 2.0000000000 7.5995001793 2.6300122738 0.0344999991 2.6300122738 2.6300122738 55.600898743 89.816322327 48.962299347 36.611301422
 2904.6403809 2.0000000000 7.5995001793 2.6287021637 0.0381000005 2.6287021637 2.6287021637 58.521701813 92.668426514 40.580200195 36.851699829
 2904.7927246 2.0000000000 7.5995001793 2.6153213978 0.0406000018 2.6153213978 2.6153213978 58.718299866 95.082138062 36.639598846 33.669799805
 2904.9450684 2.0000000000 7.5995001793 2.5830516815 0.0436000004 2.5830516815 2.5830516815 60.257499695 95.862762451 33.901100159 31.020900726
 2905.0974121 2.0000000000 7.5995001793 2.5797052383 0.0465000011 2.5797052383 2.5797052383 60.489200592 95.974815369 33.848400116 28.551000595
 2905.2497559 2.0000000000 7.5995001793 2.6028258801 0.0511999987 2.6028258801 2.6028258801 58.910598755 92.892906189 41.843700409 33.267200470
 2905.4023438 2.0000000000 7.5995001793 2.6291577816 0.0560000017 2.6291577816 2.6291577816 55.951499939 81.921592712 35.950500488 32.030200958
 2905.5546875 2.0000000000 7.5995001793 2.6085331440 0.0671000034 2.6085331440 2.6085331440 51.238601685 71.475738525 11.476499557 9.9491996765
 2905.7070313 2.0000000000 7.5995001793 2.5652694702 0.0855000019 2.5652694702 2.5652694702 49.961299896 71.055648804 5.9892001152 8.0103998184
 2905.8593750 2.0000000000 7.5995001793 2.5277204514 0.1110000014 2.5277204514 2.5277204514 55.793098450 74.367362976 5.0956997871 5.0595998764
 2906.0119629 2.0000000000 7.5995001793 2.5009427071 0.1305000037 2.5009427071 2.5009427071 60.603401184 76.114212036 3.6247000694 3.6991000175
 2906.1643066 2.0000000000 7.5995001793 2.4685518742 0.1425999999 2.4685518742 2.4685518742 62.826599121 76.686080933 3.1073999405 2.7843999863
 2906.3166504 2.0000000000 7.5995001793 2.4523260593 0.1524000019 2.4523260593 2.4523260593 58.677799225 76.232734680 2.8750000000 2.7265000343
 2906.4689941 2.0000000000 7.5995001793 2.4433288574 0.1606000066 2.4433288574 2.4433288574 57.271900177 75.964851379 2.5701000690 2.4507999420
 2906.6215820 2.0000000000 7.5995001793 2.4479923248 0.1600999981 2.4479923248 2.4479923248 58.663799286 76.436241150 2.8907001019 2.6171998978
 2906.7739258 2.0000000000 7.5995001793 2.4474010468 0.1650000066 2.4474010468 2.4474010468 58.526599884 77.441390991 2.5323998928 2.2864000797
 2906.9262695 2.0000000000 7.5995001793 2.4329230785 0.1630000025 2.4329230785 2.4329230785 57.868400574 78.316596985 2.3440999985 2.2997999191
 2907.0786133 2.0000000000 7.5995001793 2.4255118370 0.1631000042 2.4255118370 2.4255118370 56.879600525 78.211166382 2.1933999062 2.0069000721
 2907.2309570 2.0000000000 7.5995001793 2.4127409458 0.1631000042 2.4127409458 2.4127409458 58.452999115 77.405586243 2.3571999073 2.3594999313
 2907.3835449 2.0000000000 7.5995001793 2.4179913998 0.1671999991 2.4179913998 2.4179913998 61.152599335 76.849876404 2.3289999962 2.0787999630
 2907.5358887 4.0000000000 7.5995001793 2.4246892929 0.1694000065 2.4246892929 2.4246892929 63.659801483 76.568450928 2.9358999729 2.1593999863
 2907.6882324 4.0000000000 7.5995001793 2.4397759438 0.1701000035 2.4397759438 2.4397759438 70.744697571 76.019874573 2.8845999241 2.3819000721
 2907.8405762 4.0000000000 7.5995001793 2.4586393833 0.1688999981 2.4586393833 2.4586393833 82.391998291 75.012237549 2.9841001034 3.0306000710
 2907.9931641 4.0000000000 7.5995001793 2.4938435555 0.1790000051 2.4938435555 2.4938435555 100.75460052 73.806930542 23.817399979 21.491500854
 2908.1455078 6.0000000000 7.5995001793 2.5560002327 0.1909999996 2.5560002327 2.5560002327 115.19080353 72.431205750 26.938499451 25.570199966
 2908.2978516 6.0000000000 7.5995001793 2.6166028976 0.2134999931 2.6166028976 2.6166028976 123.36930084 70.869499207 28.058300018 27.266399384
 2908.4501953 7.0000000000 7.5995001793 2.6434142590 0.2486999929 2.6434142590 2.6434142590 124.67169952 70.693557739 29.295200348 29.977699280
 2908.6027832 7.0000000000 7.5995001793 2.6363115311 0.2919999957 2.6363115311 2.6363115311 122.54640198 72.463165283 28.315500259 26.763099670
 2908.7551270 7.0000000000 7.5995001793 2.6165316105 0.3228999972 2.6165316105 2.6165316105 119.99410248 73.622146606 29.330600739 31.041799545
 2908.9074707 7.0000000000 7.5995001793 2.6163003445 0.3158000112 2.6163003445 2.6163003445 118.29959869 73.007995605 26.015699387 24.787599564
 2909.0598145 7.0000000000 7.5995001793 2.6110086441 0.3131000102 2.6110086441 2.6110086441 118.66560364 71.940711975 31.152200699 29.543300629
 2909.2124023 7.0000000000 7.5995001793 2.6111998558 0.3095000088 2.6111998558 2.6111998558 120.94850159 71.503692627 21.567399979 25.405500412
 2909.3647461 7.0000000000 7.5995001793 2.6103014946 0.3131999969 2.6103014946 2.6103014946 122.93910217 71.940299988 26.936100006 24.437000275
 2909.5170898 7.0000000000 7.5995001793 2.6053080559 0.3113000095 2.6053080559 2.6053080559 120.73739624 72.615913391 27.665700912 28.254199982
 2909.6694336 7.0000000000 7.5995001793 2.5959150791 0.3113999963 2.5959150791 2.5959150791 117.79640198 72.982414246 31.516500473 30.464199066
 2909.8217773 7.0000000000 7.5995001793 2.5933084488 0.3127000034 2.5933084488 2.5933084488 115.88359833 73.044799805 30.602300644 30.252899170
 2909.9743652 7.0000000000 7.5995001793 2.5982918739 0.3050000072 2.5982918739 2.5982918739 121.33930206 73.037017822 30.429700851 30.755800247
 2910.1267090 7.0000000000 7.5995001793 2.6042904854 0.3046000004 2.6042904854 2.6042904854 123.27799988 73.367462158 21.641500473 19.674200058
 2910.2790527 7.0000000000 7.5995001793 2.6054980755 0.2872999907 2.6054980755 2.6054980755 123.57740021 73.522750854 27.261299133 28.009300232
 2910.4313965 7.0000000000 7.5995001793 2.6026093960 0.2953999937 2.6026093960 2.6026093960 118.41349792 72.703628540 24.556400299 26.895799637
 2910.5839844 6.0000000000 7.5995001793 2.6086902618 0.3050999939 2.6086902618 2.6086902618 117.94000244 71.795455933 26.802999496 27.310800552
 2910.7363281 6.0000000000 7.5995001793 2.6092989445 0.3145000041 2.6092989445 2.6092989445 115.53269958 71.502464294 30.735599518 29.003099442
 2910.8886719 6.0000000000 7.5995001793 2.6145913601 0.3093999922 2.6145913601 2.6145913601 116.11100006 71.256393433 29.202899933 32.122898102
 2911.0410156 6.0000000000 7.5995001793 2.6147992611 0.2984000146 2.6147992611 2.6147992611 114.75199890 71.053649902 28.913600922 31.264600754
 2911.1936035 6.0000000000 7.5995001793 2.6068129539 0.3021000028 2.6068129539 2.6068129539 115.08450317 71.007080078 26.703500748 28.572700500
 2911.3459473 6.0000000000 7.5995001793 2.5975151062 0.3073999882 2.5975151062 2.5975151062 114.18669891 70.907157898 31.354000092 29.966100693
 2911.4982910 6.0000000000 7.5995001793 2.5959026814 0.3045000136 2.5959026814 2.5959026814 116.26640320 71.728683472 28.112800598 29.512899399
