# LAS format log file from PETREL
# Project units are specified as depth units
#==================================================================
~Version information
VERS.   2.0:
WRAP.   NO:
#==================================================================
~Well
STRT .m      2391.0522461 :
STOP .m      2949.2934570 :
STEP .m     0.00000000 :
NULL .        -999.250000 :
COMP.           : COMPANY
WELL.  36_7-3   : WELL
FLD.            : FIELD
LOC.            : LOCATION
SRVC.           : SERVICE COMPANY
DATE.  2018-09-11 14:49:03   : Log Export Date {yyyy-MM-dd HH:mm:ss}
PROV.           : PROVINCE
UWI.   36_7-3   : UNIQUE WELL ID
API.            : API NUMBER
#==================================================================
~Curve
DEPT .m                   : DEPTH
Lithology_geolink ._      : Lithology_geolink
CALI .in                  : CALI
DRHO .g/cm3               : DRHO
NPHI .m3/m3               : NPHI
RHOB .g/cm3               : RHOB
PEF .b/e                  : PEF
GR .gAPI                  : GR
DTC .us/ft                : DTC
RT .ohm.m               : RDEP
RMED .ohm.m               : RMED
~Parameter
#==================================================================
~Ascii
# ...
 2937.2539063 6.0000000000 7.5995001793  -999.250000  -999.250000  -999.250000  -999.250000 117.13040161  -999.250000 24.862800598 21.004899979
 2937.4062500 6.0000000000 7.5995001793  -999.250000  -999.250000  -999.250000  -999.250000 115.37370300  -999.250000 27.394800186 19.933399200
 2937.5588379 6.0000000000 7.5995001793  -999.250000  -999.250000  -999.250000  -999.250000 114.93060303  -999.250000 23.863599777 25.636699677
 2937.7111816 6.0000000000 7.5995001793  -999.250000  -999.250000  -999.250000  -999.250000 111.87390137  -999.250000 22.728900909 24.267499924
 2937.8635254 6.0000000000 7.5995001793  -999.250000  -999.250000  -999.250000  -999.250000 110.75990295  -999.250000 25.669300079 22.299299240
 2938.0158691 6.0000000000 7.5995001793  -999.250000  -999.250000  -999.250000  -999.250000 110.44519806  -999.250000 26.336299896 20.451999664
 2938.1684570 6.0000000000 7.5995001793  -999.250000  -999.250000  -999.250000  -999.250000 112.68329620  -999.250000 26.643600464 27.180299759
 2938.3208008 6.0000000000 7.5995001793  -999.250000  -999.250000  -999.250000  -999.250000 113.20089722  -999.250000 25.580200195 27.267200470
 2938.4731445 6.0000000000 7.5995001793  -999.250000  -999.250000  -999.250000  -999.250000 111.87519836  -999.250000 24.731500626 27.320499420
 2938.6254883 6.0000000000 7.5995001793  -999.250000  -999.250000  -999.250000  -999.250000 110.27279663  -999.250000 24.317399979 25.115200043
 2938.7778320 6.0000000000 7.5995001793  -999.250000  -999.250000  -999.250000  -999.250000 109.68109894  -999.250000 25.235799789 25.624700546
 2938.9304199 6.0000000000 7.5995001793  -999.250000  -999.250000  -999.250000  -999.250000 109.50450134  -999.250000 26.795700073 27.496999741
 2939.0827637 6.0000000000 7.5995001793  -999.250000  -999.250000  -999.250000  -999.250000 110.89679718  -999.250000 24.575099945 25.290700912
 2939.2351074 6.0000000000 7.5995001793  -999.250000  -999.250000  -999.250000  -999.250000 111.07360077  -999.250000 25.178199768 27.624900818
 2939.3874512 6.0000000000 7.5995001793  -999.250000  -999.250000  -999.250000  -999.250000 114.96269989  -999.250000 31.293600082 31.323900223
 2939.5400391 6.0000000000 7.5995001793  -999.250000  -999.250000  -999.250000  -999.250000 115.52490234  -999.250000 28.197700500 28.059299469
 2939.6923828 6.0000000000 7.5995001793  -999.250000  -999.250000  -999.250000  -999.250000 118.74330139  -999.250000 32.167400360 30.232999802
 2939.8447266 6.0000000000 7.5995001793  -999.250000  -999.250000  -999.250000  -999.250000 118.77290344  -999.250000 25.443899155 31.598499298
 2939.9970703 6.0000000000 7.5995001793  -999.250000  -999.250000  -999.250000  -999.250000 120.77899933  -999.250000 24.549600601 26.547599792
 2940.1496582 6.0000000000 7.5995001793  -999.250000  -999.250000  -999.250000  -999.250000 119.65740204  -999.250000 26.596599579 26.206600189
 2940.3020020 6.0000000000 7.5995001793  -999.250000  -999.250000  -999.250000  -999.250000 119.02149963  -999.250000 27.240900040 25.909599304
 2940.4543457 6.0000000000 7.5995001793  -999.250000  -999.250000  -999.250000  -999.250000 116.28510284  -999.250000 27.391300201 27.887199402
 2940.6066895 6.0000000000 7.5995001793  -999.250000  -999.250000  -999.250000  -999.250000 113.53579712  -999.250000 27.907300949 27.839700699
 2940.7590332 6.0000000000 7.5995001793  -999.250000  -999.250000  -999.250000  -999.250000 113.46749878  -999.250000 24.860700607 26.933200836
 2940.9116211 6.0000000000 7.5995001793  -999.250000  -999.250000  -999.250000  -999.250000 112.60330200  -999.250000 24.731500626 25.713899612
 2941.0639648 6.0000000000 7.5995001793  -999.250000  -999.250000  -999.250000  -999.250000 117.64080048  -999.250000 22.447000504 27.627300262
 2941.2163086 6.0000000000 7.5995001793  -999.250000  -999.250000  -999.250000  -999.250000 118.05210114  -999.250000 27.434099197 26.691699982
 2941.3686523 7.0000000000 7.5995001793  -999.250000  -999.250000  -999.250000  -999.250000 120.94499969  -999.250000 25.381599426 26.734100342
 2941.5212402 7.0000000000 7.5995001793  -999.250000  -999.250000  -999.250000  -999.250000 118.20850372  -999.250000 17.770999908 25.333299637
 2941.6735840 7.0000000000 7.5995001793  -999.250000  -999.250000  -999.250000  -999.250000 118.60019684  -999.250000 21.280899048 23.834400177
 2941.8259277 7.0000000000 7.5995001793  -999.250000  -999.250000  -999.250000  -999.250000 118.84770203  -999.250000 24.378299713 24.357299805
 2941.9782715 7.0000000000 7.5995001793  -999.250000  -999.250000  -999.250000  -999.250000 119.84519958  -999.250000 20.270099640 17.852300644
 2942.1308594 7.0000000000 7.5995001793  -999.250000  -999.250000  -999.250000  -999.250000 123.01789856  -999.250000 25.120899200 26.225799561
 2942.2832031 7.0000000000 7.5995001793  -999.250000  -999.250000  -999.250000  -999.250000 121.26090240  -999.250000 26.113000870 26.245300293
 2942.4355469 6.0000000000 7.5995001793  -999.250000  -999.250000  -999.250000  -999.250000 121.12010193  -999.250000 24.823699951 26.428800583
 2942.5878906 6.0000000000 7.5995001793  -999.250000  -999.250000  -999.250000  -999.250000 118.09629822  -999.250000 26.744100571 26.948200226
 2942.7402344 6.0000000000 7.5995001793  -999.250000  -999.250000  -999.250000  -999.250000 118.42449951  -999.250000 25.459400177 27.029399872
 2942.8928223 6.0000000000 7.5995001793  -999.250000  -999.250000  -999.250000  -999.250000 118.26860046  -999.250000 24.994600296 26.100999832
 2943.0451660 6.0000000000 7.5995001793  -999.250000  -999.250000  -999.250000  -999.250000 116.03759766  -999.250000 25.056999207 25.754899979
 2943.1975098 6.0000000000 7.5995001793  -999.250000  -999.250000  -999.250000  -999.250000 114.37280273  -999.250000 27.262599945 25.316900253
 2943.3498535 6.0000000000 7.5995001793  -999.250000  -999.250000  -999.250000  -999.250000 113.79989624  -999.250000 24.841299057 24.879100800
 2943.5024414 6.0000000000 7.5995001793  -999.250000  -999.250000  -999.250000  -999.250000 113.40579987  -999.250000 26.839099884 25.356300354
 2943.6547852 6.0000000000 7.5995001793  -999.250000  -999.250000  -999.250000  -999.250000 117.30519867  -999.250000 25.658000946 26.518199921
 2943.8071289 6.0000000000 7.5995001793  -999.250000  -999.250000  -999.250000  -999.250000 115.24160004  -999.250000 28.403299332 26.260900497
 2943.9594727 6.0000000000 7.5995001793  -999.250000  -999.250000  -999.250000  -999.250000 108.99949646  -999.250000 20.408800125 22.185300827
 2944.1120605 5.0000000000 7.5995001793  -999.250000  -999.250000  -999.250000  -999.250000 98.972198486  -999.250000 31.989900589 28.704200745
 2944.2644043 5.0000000000 7.5995001793  -999.250000  -999.250000  -999.250000  -999.250000 93.647697449  -999.250000 5.6073999405 7.9860000610
 2944.4167480 5.0000000000 7.5995001793  -999.250000  -999.250000  -999.250000  -999.250000 98.063400269  -999.250000 12.630499840 14.549599648
 2944.5690918 5.0000000000 7.5995001793  -999.250000  -999.250000  -999.250000  -999.250000 104.80100250  -999.250000 18.507600784 17.067300797
 2944.7214355 6.0000000000 7.5995001793  -999.250000  -999.250000  -999.250000  -999.250000 110.24009705  -999.250000 25.722099304 25.115999222
 2944.8740234 6.0000000000 7.5995001793  -999.250000  -999.250000  -999.250000  -999.250000 112.81880188  -999.250000 25.771699905 24.198099136
 2945.0263672 6.0000000000 7.5995001793  -999.250000  -999.250000  -999.250000  -999.250000 112.96569824  -999.250000 23.380599976 24.587999344
 2945.1787109 6.0000000000 7.5995001793  -999.250000  -999.250000  -999.250000  -999.250000 113.98629761  -999.250000 25.242099762 24.461700439
 2945.3310547 6.0000000000 7.5995001793  -999.250000  -999.250000  -999.250000  -999.250000 114.61669922  -999.250000 25.443599701 24.004999161
 2945.4836426 6.0000000000 7.5995001793  -999.250000  -999.250000  -999.250000  -999.250000 114.23580170  -999.250000 20.155799866 21.790899277
 2945.6359863 6.0000000000 7.5995001793  -999.250000  -999.250000  -999.250000  -999.250000 117.81719971  -999.250000 22.876399994 23.878700256
