# LAS format log file from PETREL
# Project units are specified as depth units
#==================================================================
~Version information
VERS.   2.0:
WRAP.   NO:
#==================================================================
~Well
STRT .m      2391.0522461 :
STOP .m      2949.2934570 :
STEP .m     0.00000000 :
NULL .        -999.250000 :
COMP.           : COMPANY
WELL.  36_7-3   : WELL
FLD.            : FIELD
LOC.            : LOCATION
SRVC.           : SERVICE COMPANY
DATE.  2018-09-11 14:49:03   : Log Export Date {yyyy-MM-dd HH:mm:ss}
PROV.           : PROVINCE
UWI.   36_7-3   : UNIQUE WELL ID
API.            : API NUMBER
#==================================================================
~Curve
DEPT .m                   : DEPTH
Lithology_geolink ._      : Lithology_geolink
CALI .in                  : CALI
DRHO .g/cm3               : DRHO
NPHI .m3/m3               : NPHI
RHOB .g/cm3               : RHOB
PEF .b/e                  : PEF
GR .gAPI                  : GR
DTC .us/ft                : DTC
RT .ohm.m               : RDEP
RMED .ohm.m               : RMED
~Parameter
#==================================================================
~Ascii
# ...
 2792.1691895 2.0000000000 7.5995001793 2.5927999020 0.1714999974 2.5927999020 2.5927999020 62.420398712 65.858543396 13.456800461 10.092700005
 2792.3215332 2.0000000000 7.5995001793 2.6103999615 0.1870000064 2.6103999615 2.6103999615 65.636100769 69.502159119 9.1878995895 5.0496001244
 2792.4738770 2.0000000000 7.5995001793 2.6347000599 0.2091999948 2.6347000599 2.6347000599 65.222900391 71.674522400 9.8893995285 6.6360001564
 2792.6264648 2.0000000000 7.5995001793 2.6816999912 0.2186000049 2.6816999912 2.6816999912 65.817001343 71.859710693 6.2835001945 16.817499161
 2792.7788086 2.0000000000 7.5995001793 2.7402000427 0.2189999968 2.7402000427 2.7402000427 69.588699341 71.818069458 6.2551999092 7.7325000763
 2792.9311523 2.0000000000 7.5995001793 2.6965999603 0.2190999985 2.6965999603 2.6965999603 78.405097961 71.777069092 5.5362000465 6.3895998001
 2793.0834961 5.0000000000 7.5995001793 2.6593999863 0.2206999958 2.6593999863 2.6593999863 89.065299988 72.335105896 5.7782998085 6.4436001778
 2793.2358398 5.0000000000 7.5995001793 2.6277999878 0.1935999990 2.6277999878 2.6277999878 96.602500916 75.204788208 4.7532000542 4.7269001007
 2793.3884277 5.0000000000 7.5995001793 2.5938000679 0.1884000003 2.5938000679 2.5938000679 100.73359680 78.201210022 2.9795000553 2.8789999485
 2793.5407715 6.0000000000 7.5995001793 2.5466001034 0.1775999963 2.5466001034 2.5466001034 107.35520172 77.998336792 1.7676000595 2.1310999393
 2793.6931152 6.0000000000 7.5995001793 2.4967000484 0.1933999956 2.4967000484 2.4967000484 106.72039795 75.631805420 3.2618999481 3.1709001064
 2793.8454590 6.0000000000 7.5995001793 2.5041000843 0.1931000054 2.5041000843 2.5041000843 105.22200012 73.267578125 2.5083999634 2.7729001045
 2793.9980469 6.0000000000 7.5995001793 2.5315001011 0.1970999986 2.5315001011 2.5315001011 93.711700439 73.330886841 2.5494000912 2.7551999092
 2794.1503906 6.0000000000 7.5995001793 2.5666999817 0.2034000009 2.5666999817 2.5666999817 91.807098389 76.085571289 2.8301999569 3.5118999481
 2794.3027344 6.0000000000 7.5995001793 2.5750999451 0.2073000073 2.5750999451 2.5750999451 97.253097534 80.291252136 3.5571999550 2.6760001183
 2794.4550781 6.0000000000 7.5995001793 2.5071001053 0.2040999979 2.5071001053 2.5071001053 107.05750275 87.754066467 3.8819000721 3.5360000134
 2794.6076660 5.0000000000 7.5995001793 2.4918000698 0.1886000037 2.4918000698 2.4918000698 105.51519775 89.835693359 3.1730000973 4.2406997681
 2794.7600098 5.0000000000 7.5995001793 2.5032000542 0.1708000004 2.5032000542 2.5032000542 89.258399963 80.135574341 2.9298000336 3.0857000351
 2794.9123535 4.0000000000 7.5995001793 2.5920999050 0.1591999978 2.5920999050 2.5920999050 73.043502808 74.516998291 3.2274999619 2.5731000900
 2795.0646973 4.0000000000 7.5995001793 2.6159999371 0.1553999931 2.6159999371 2.6159999371 64.683998108 79.049705505 2.7232999802 2.4233000278
 2795.2170410 4.0000000000 7.5995001793 2.6129000187 0.1794999987 2.6129000187 2.6129000187 63.100498199 83.661224365 3.7657999992 5.4119000435
 2795.3696289 4.0000000000 7.5995001793 2.6040000916 0.1959999949 2.6040000916 2.6040000916 62.336498260 84.950958252 17.555400848 18.231700897
 2795.5219727 4.0000000000 7.5995001793 2.6045999527 0.2219000012 2.6045999527 2.6045999527 60.722900391 84.729354858 9.5461997986 15.084899902
 2795.6743164 4.0000000000 7.5995001793 2.6386001110 0.2257000059 2.6386001110 2.6386001110 65.647003174 86.273521423 5.3565001488 10.067600250
 2795.8266602 4.0000000000 7.5995001793 2.6561000347 0.2657000124 2.6561000347 2.6561000347 89.498298645 89.828590393 3.7293000221 6.3453001976
 2795.9792480 4.0000000000 7.5995001793 2.6849000454 0.2958000004 2.6849000454 2.6849000454 120.14179993 91.435432434 2.4486999512 4.6044001579
 2796.1315918 7.0000000000 7.5995001793 2.6635000706 0.2984000146 2.6635000706 2.6635000706 146.08099365 90.867919922 1.9516999722 1.9098000526
 2796.2839355 7.0000000000 7.5995001793 2.5764999390 0.2953000069 2.5764999390 2.5764999390 151.34140015 89.923507690 1.7498999834 1.9681999683
 2796.4362793 7.0000000000 7.5995001793 2.5306000710 0.2809999883 2.5306000710 2.5306000710 153.38409424 87.715087891 1.9859000444 2.2681000233
 2796.5888672 7.0000000000 7.5995001793 2.4967999458 0.2569999993 2.4967999458 2.4967999458 155.04499817 83.955024719 2.5606000423 2.1524999142
 2796.7412109 7.0000000000 7.5995001793 2.5462000370 0.2278999984 2.5462000370 2.5462000370 154.54559326 80.333808899 2.3705999851 3.2532999516
 2796.8935547 7.0000000000 7.5995001793 2.5469999313 0.1982000023 2.5469999313 2.5469999313 142.12260437 78.127532959 2.3980998993 3.7971000671
 2797.0458984 6.0000000000 7.5995001793 2.5611000061 0.1843000054 2.5611000061 2.5611000061 120.31819916 78.277755737 3.4159998894 3.9142000675
 2797.1982422 6.0000000000 7.5995001793 2.5239999294 0.1972000003 2.5239999294 2.5239999294 94.160102844 80.599548340 3.3708999157 3.6610999107
 2797.3508301 6.0000000000 7.5995001793 2.5127000809 0.2020999938 2.5127000809 2.5127000809 77.060203552 83.236778259 2.8287999630 3.4728999138
 2797.5031738 4.0000000000 7.5995001793 2.4904000759 0.2064999938 2.4904000759 2.4904000759 68.889503479 84.722610474 1.6382000446 1.7099000216
 2797.6555176 4.0000000000 7.5995001793 2.4930000305 0.2073999941 2.4930000305 2.4930000305 71.716102600 85.117362976 1.0552999973 1.2591999769
 2797.8078613 4.0000000000 7.5995001793 2.5136001110 0.2082999945 2.5136001110 2.5136001110 70.920196533 84.831916809 1.2867000103 1.0025999546
 2797.9604492 4.0000000000 7.5995001793 2.4683001041 0.2030999959 2.4683001041 2.4683001041 72.562698364 84.095184326 2.0044999123 2.0028998852
 2798.1127930 4.0000000000 7.5995001793 2.4284999371 0.1993999928 2.4284999371 2.4284999371 74.219802856 85.765304565 3.8320000172 3.3484001160
 2798.2651367 4.0000000000 7.5995001793 2.4042000771 0.1919000000 2.4042000771 2.4042000771 83.440696716 93.323867798 3.4109001160 2.9488999844
 2798.4174805 4.0000000000 7.5995001793 2.4756000042 0.1944999993 2.4756000042 2.4756000042 83.279800415 101.98424530 2.7623000145 2.7832999229
 2798.5700684 4.0000000000 7.5995001793 2.5332000256 0.2038999945 2.5332000256 2.5332000256 76.617897034 104.28136444 2.4605000019 1.2841000557
 2798.7224121 4.0000000000 7.5995001793 2.5945000648 0.2194000036 2.5945000648 2.5945000648 66.966697693 99.936981201 1.2940000296 1.3961000443
 2798.8747559 4.0000000000 7.5995001793 2.6206998825 0.2260999978 2.6206998825 2.6206998825 64.710899353 93.751914978 2.7543001175 6.5896000862
 2799.0270996 4.0000000000 7.5995001793 2.6487998962 0.2236000001 2.6487998962 2.6487998962 65.849296570 86.140197754 9.6010999680 9.3770999908
 2799.1794434 5.0000000000 7.5995001793 2.6161000729 0.2179999948 2.6161000729 2.6161000729 74.873596191 76.854766846 12.166299820 10.784999847
 2799.3320313 5.0000000000 7.5995001793 2.5913999081 0.2143999934 2.5913999081 2.5913999081 85.603500366 73.784881592 8.3996000290 11.581399918
 2799.4843750 5.0000000000 7.5995001793 2.5883998871 0.2208999991 2.5883998871 2.5883998871 99.088203430 76.386817932 8.7291002274 12.440400124
 2799.6367188 6.0000000000 7.5995001793 2.5385000706 0.2239000052 2.5385000706 2.5385000706 106.25540161 78.772178650 10.682900429 10.010800362
 2799.7890625 6.0000000000 7.5995001793 2.4670999050 0.2281000018 2.4670999050 2.4670999050 109.02670288 81.956794739 9.7805995941 6.9198999405
 2799.9416504 5.0000000000 7.5995001793 2.4275999069 0.2319000065 2.4275999069 2.4275999069 105.13590240 85.696014404 3.3055999279 2.4275000095
 2800.0939941 5.0000000000 7.5995001793 2.4314999580 0.2344000041 2.4314999580 2.4314999580 92.844100952 87.054824829 2.2685999870 1.8323999643
 2800.2463379 4.0000000000 7.5995001793 2.4542996883 0.2314999998 2.4542996883 2.4542999268 83.457603455 84.551025391 3.8018000126 2.3336999416
 2800.3986816 4.0000000000 7.5995001793 2.4672000408 0.2290000021 2.4672000408 2.4672000408 79.325103760 79.872009277 3.0037999153 3.1503999233
 2800.5512695 4.0000000000 7.5995001793 2.5195000172 0.2251999974 2.5195000172 2.5195000172 77.159500122 80.369178772 1.6670999527 2.8872001171
