# LAS format log file from PETREL
# Project units are specified as depth units
#==================================================================
~Version information
VERS.   2.0:
WRAP.   NO:
#==================================================================
~Well
STRT .m      2391.0522461 :
STOP .m      2949.2934570 :
STEP .m     0.00000000 :
NULL .        -999.250000 :
COMP.           : COMPANY
WELL.  36_7-3   : WELL
FLD.            : FIELD
LOC.            : LOCATION
SRVC.           : SERVICE COMPANY
DATE.  2018-09-11 14:49:03   : Log Export Date {yyyy-MM-dd HH:mm:ss}
PROV.           : PROVINCE
UWI.   36_7-3   : UNIQUE WELL ID
API.            : API NUMBER
#==================================================================
~Curve
DEPT .m                   : DEPTH
Lithology_geolink ._      : Lithology_geolink
CALI .in                  : CALI
DRHO .g/cm3               : DRHO
NPHI .m3/m3               : NPHI
RHOB .g/cm3               : RHOB
PEF .b/e                  : PEF
GR .gAPI                  : GR
DTC .us/ft                : DTC
RT .ohm.m               : RDEP
RMED .ohm.m               : RMED
~Parameter
#==================================================================
~Ascii
# ...
 2501.9995117 13.000000000 7.5995001793 2.6310999393 0.1877000034 2.6310999393 2.6310999393 78.340797424 83.637710571 4.8649001122 4.5507001877
 2502.1518555 13.000000000 7.5995001793 2.6268000603 0.2056999952 2.6268000603 2.6268000603 77.405700684 83.271179199 3.9263000488 4.8564000130
 2502.3044434 13.000000000 7.5995001793 2.6029999256 0.2094999999 2.6029999256 2.6029999256 81.375396729 81.360069275 3.8243999481 4.9064998627
 2502.4567871 13.000000000 7.5995001793 2.5903000832 0.2062000036 2.5903000832 2.5903000832 83.020896912 78.725227356 4.1361999512 4.4590997696
 2502.6091309 13.000000000 7.5995001793 2.5778999329 0.2029999942 2.5778999329 2.5778999329 84.246101379 77.116584778 6.5374999046 6.3905000687
 2502.7614746 13.000000000 7.5995001793 2.5871000290 0.2018000036 2.5871000290 2.5871000290 85.184402466 76.735214233 7.7246999741 7.6841001511
 2502.9140625 13.000000000 7.5995001793 2.5715000629 0.2002000064 2.5715000629 2.5715000629 84.645896912 76.503372192 6.8159999847 6.3190999031
 2503.0664063 13.000000000 7.5995001793 2.5908000469 0.2001000047 2.5908000469 2.5908000469 85.225898743 75.893974304 6.1048002243 7.1255002022
 2503.2187500 13.000000000 7.5995001793 2.6705999374 0.1990000010 2.6705999374 2.6705999374 83.898803711 74.197723389 6.6851000786 7.0130000114
 2503.3710938 13.000000000 7.5995001793 2.8173000813 0.2031999975 2.8173000813 2.8173000813 82.526000977 70.995132446 10.065799713 7.3551998138
 2503.5236816 13.000000000 7.5995001793 2.8664999008 0.2026000023 2.8664999008 2.8664999008 79.023803711 68.603820801 15.143600464 7.9630999565
 2503.6760254 13.000000000 7.5995001793 2.7620999813 0.1895000041 2.7620999813 2.7620999813 70.922500610 69.793083191 30.409099579 11.327400208
 2503.8283691 13.000000000 7.5995001793 2.6603000164 0.1809999943 2.6603000164 2.6603000164 67.445602417 72.849090576 20.124900818 20.767900467
 2503.9807129 13.000000000 7.5995001793 2.6017000675 0.1797000021 2.6017000675 2.6017000675 65.399803162 74.560264587 14.369700432 16.226499557
 2504.1330566 13.000000000 7.5995001793 2.6050000191 0.1869000047 2.6050000191 2.6050000191 75.310501099 76.214698792 9.6146001816 11.729399681
 2504.2856445 13.000000000 7.5995001793 2.5926001072 0.1832000017 2.5926001072 2.5926001072 82.759201050 78.860755920 7.2052001953 6.1293001175
 2504.4379883 13.000000000 7.5995001793 2.6296999454 0.1835999936 2.6296999454 2.6296999454 90.986602783 79.794502258 6.9951000214 5.9162998199
 2504.5903320 13.000000000 7.5995001793 2.6730000973 0.1905000061 2.6730000973 2.6730000973 91.765197754 81.171798706 7.0061001778 7.0922999382
 2504.7426758 13.000000000 7.5995001793 2.7144000530 0.2149000019 2.7144000530 2.7144000530 92.808601379 85.165191650 7.2691998482 6.1511998177
 2504.8952637 13.000000000 7.5995001793 2.7137000561 0.2378000021 2.7137000561 2.7137000561 90.015701294 88.547592163 4.8759999275 4.2836999893
 2505.0476074 13.000000000 7.5995001793 2.6905000210 0.2646000087 2.6905000210 2.6905000210 87.222801208 90.727516174 3.4670999050 3.0576999187
 2505.1999512 13.000000000 7.5995001793 2.6872999668 0.2743000090 2.6872999668 2.6872999668 86.466300964 92.703834534 3.0199999809 2.9381999969
 2505.3522949 13.000000000 7.5995001793 2.6800999641 0.2822000086 2.6800999641 2.6800999641 88.767402649 93.394798279 3.3536000252 2.8756000996
 2505.5048828 13.000000000 7.5995001793 2.6812000275 0.2899000049 2.6812000275 2.6812000275 92.297897339 92.586303711 3.7147998810 2.9168999195
 2505.6572266 13.000000000 7.5995001793 2.6865999699 0.2903999984 2.6865999699 2.6865999699 92.105697632 91.557647705 3.5994000435 3.0425999165
 2505.8095703 13.000000000 7.5995001793 2.7105998993 0.2888999879 2.7105998993 2.7105998993 91.913398743 90.618499756 3.5088999271 3.9388000965
 2505.9619141 13.000000000 7.5995001793 2.7128000259 0.2870999873 2.7128000259 2.7128000259 91.018096924 89.893157959 3.7488999367 4.5072999001
 2506.1142578 13.000000000 7.5995001793 2.6933999062 0.2992999852 2.6933999062 2.6933999062 91.544601440 88.803497314 3.9105000496 3.7974998951
 2506.2668457 13.000000000 7.5995001793 2.6482999325 0.3188999891 2.6482999325 2.6482999325 90.665100098 86.517654419 3.8845000267 3.7328000069
 2506.4191895 13.000000000 7.5995001793 2.6626000404 0.3479999900 2.6626000404 2.6626000404 85.594902039 85.244033813 3.8624999523 3.5306999683
 2506.5715332 13.000000000 7.5995001793 2.6691000462 0.3483000100 2.6691000462 2.6691000462 85.607498169 85.963836670 3.7000999451 3.7126998901
 2506.7238770 13.000000000 7.5995001793 2.6818997860 0.3397000134 2.6818997860 2.6819000244 86.014099121 86.819259644 3.5706000328 3.8178000450
 2506.8764648 13.000000000 7.5995001793 2.6798000336 0.3176999986 2.6798000336 2.6798000336 90.085098267 87.604743958 3.9988999367 3.9028999805
 2507.0288086 13.000000000 7.5995001793 2.6568999290 0.3066999912 2.6568999290 2.6568999290 87.021102905 88.455635071 4.5446000099 4.1915001869
 2507.1811523 13.000000000 7.5995001793 2.6665999889 0.2992999852 2.6665999889 2.6665999889 85.255798340 88.912269592 4.6238999367 4.4755001068
 2507.3334961 13.000000000 7.5995001793 2.6349999905 0.2962999940 2.6349999905 2.6349999905 83.490600586 89.584838867 4.4661002159 3.9393000603
 2507.4860840 13.000000000 7.5995001793 2.6419999599 0.2964999974 2.6419999599 2.6419999599 83.831001282 90.213989258 4.6201000214 3.6308999062
 2507.6384277 13.000000000 7.5995001793 2.6368999481 0.3048000038 2.6368999481 2.6368999481 81.438400269 90.092201233 4.7046999931 3.5955998898
 2507.7907715 13.000000000 7.5995001793 2.6335999966 0.3156999946 2.6335999966 2.6335999966 80.937202454 89.894996643 4.8305997849 4.0837001801
 2507.9431152 13.000000000 7.5995001793 2.6145999432 0.3368000090 2.6145999432 2.6145999432 82.273803711 90.066001892 5.9566001892 4.2596001625
 2508.0954590 13.000000000 7.5995001793 2.5906000137 0.3350000083 2.5906000137 2.5906000137 84.039001465 90.077011108 5.6612000465 3.9426000118
 2508.2480469 13.000000000 7.5995001793 2.5861999989 0.3391999900 2.5861999989 2.5861999989 85.706596375 90.126991272 6.4895000458 4.2304000854
 2508.4003906 13.000000000 7.5995001793 2.5975999832 0.3203999996 2.5975999832 2.5975999832 83.991798401 90.513000488 5.0493998528 4.4654998779
 2508.5527344 13.000000000 7.5995001793 2.6206998825 0.3125000000 2.6206998825 2.6206998825 82.636299133 90.654998779 4.3358001709 4.4924998283
 2508.7050781 13.000000000 7.5995001793 2.6329998970 0.2978000045 2.6329998970 2.6329998970 81.693801880 90.901000977 4.4064002037 3.8271000385
 2508.8576660 13.000000000 7.5995001793 2.6338000298 0.2922999859 2.6338000298 2.6338000298 82.242301941 91.158996582 3.6345999241 3.7169001102
 2509.0100098 13.000000000 7.5995001793 2.6229000092 0.2883999944 2.6229000092 2.6229000092 82.973602295 90.744003296 3.3635001183 3.9147999287
 2509.1623535 13.000000000 7.5995001793 2.6061999798 0.2870999873 2.6061999798 2.6061999798 92.249099731 89.850997925 3.2407999039 4.0019998550
 2509.3146973 13.000000000 7.5995001793 2.6403999329 0.2869000137 2.6403999329 2.6403999329 99.231300354 88.564994812 3.6645998955 3.2625000477
 2509.4672852 13.000000000 7.5995001793 2.6686000824 0.2906999886 2.6686000824 2.6686000824 100.15809631 87.285003662 3.9772000313 6.1490998268
 2509.6196289 13.000000000 7.5995001793 2.6756000519 0.2944000065 2.6756000519 2.6756000519 88.739097595 86.346000671 5.4148998260 6.2357997894
 2509.7719727 13.000000000 7.5995001793 2.6738998890 0.3098999858 2.6738998890 2.6738998890 83.900299072 85.262001038 3.9516999722 4.8194999695
 2509.9243164 13.000000000 7.5995001793 2.6342000961 0.3294999897 2.6342000961 2.6342000961 87.630996704 83.454002380 3.7525999546 3.6670999527
 2510.0766602 13.000000000 7.5995001793 2.6103999615 0.3510000110 2.6103999615 2.6103999615 92.501296997 81.609001160 4.1168999672 4.5331001282
 2510.2292480 13.000000000 7.5995001793 2.5829000473 0.3589000106 2.5829000473 2.5829000473 90.597297668 80.541999817 5.0363998413 5.1057000160
 2510.3815918 13.000000000 7.5995001793 2.6127998829 0.3149999976 2.6127998829 2.6127998829 87.654701233 79.540000916 7.7038998604 5.7850999832
