# LAS format log file from PETREL
# Project units are specified as depth units
#==================================================================
~Version information
VERS.   2.0:
WRAP.   NO:
#==================================================================
~Well
STRT .m      2391.0522461 :
STOP .m      2949.2934570 :
STEP .m     0.00000000 :
NULL .        -999.250000 :
COMP.           : COMPANY
WELL.  36_7-3   : WELL
FLD.            : FIELD
LOC.            : LOCATION
SRVC.           : SERVICE COMPANY
DATE.  2018-09-11 14:49:03   : Log Export Date {yyyy-MM-dd HH:mm:ss}
PROV.           : PROVINCE
UWI.   36_7-3   : UNIQUE WELL ID
API.            : API NUMBER
#==================================================================
~Curve
DEPT .m                   : DEPTH
Lithology_geolink ._      : Lithology_geolink
CALI .in                  : CALI
DRHO .g/cm3               : DRHO
NPHI .m3/m3               : NPHI
RHOB .g/cm3               : RHOB
PEF .b/e                  : PEF
GR .gAPI                  : GR
DTC .us/ft                : DTC
RT .ohm.m               : RDEP
RMED .ohm.m               : RMED
~Parameter
#==================================================================
~Ascii
# ...
 2715.3593750 7.0000000000 7.5995001793 2.5456733704 0.2864025533 2.5456733704 2.5456731319 135.02389526 90.825622559 3.1851999760 2.2965781689
 2715.5117188 7.0000000000 7.5995001793 2.5727131367 0.2879948616 2.5727131367 2.5727131367 132.95239258 89.713569641 2.4154999256 2.3944849968
 2715.6643066 7.0000000000 7.5995001793 2.5845811367 0.2870016098 2.5845811367 2.5845811367 129.44119263 88.185447693 2.5274000168 2.4968361855
 2715.8166504 7.0000000000 7.5995001793 2.5996758938 0.2851030529 2.5996758938 2.5996758938 126.34919739 88.450569153 2.6803998947 2.8247737885
 2715.9689941 7.0000000000 7.5995001793 2.5865211487 0.2722206712 2.5865211487 2.5865211487 130.51519775 91.230537415 2.5107998848 2.8065299988
 2716.1213379 7.0000000000 7.5995001793 2.6232411861 0.2618166506 2.6232411861 2.6232411861 129.91810608 92.262351990 2.9739999771 2.4476759434
 2716.2736816 7.0000000000 7.5995001793 2.6603810787 0.2612019181 2.6603810787 2.6603810787 124.83869934 90.019210815 5.3140001297 5.7356429100
 2716.4262695 7.0000000000 7.5995001793 2.7452638149 0.2729810774 2.7452638149 2.7452638149 108.70059967 89.285163879 14.066200256 11.294794083
 2716.5786133 16.000000000 7.5995001793 2.7815420628 0.2833833396 2.7815420628 2.7815420628 92.001502991 90.799568176 14.104900360 13.017648697
 2716.7309570 16.000000000 7.5995001793 2.7593357563 0.2828009427 2.7593357563 2.7593357563 85.166702271 90.762069702 12.960599899 12.282584190
 2716.8833008 16.000000000 7.5995001793 2.7027814388 0.2740281522 2.7027814388 2.7027814388 87.845901489 89.747261047 13.313799858 13.928911209
 2717.0358887 6.0000000000 7.5995001793 2.6484868526 0.2661126554 2.6484868526 2.6484868526 97.247596741 88.778549194 5.2845001221 6.0570440292
 2717.1882324 6.0000000000 7.5995001793 2.6209440231 0.2591111958 2.6209440231 2.6209440231 101.12059784 87.424171448 6.8218998909 6.6135864258
 2717.3405762 6.0000000000 7.5995001793 2.5903491974 0.2478180975 2.5903491974 2.5903491974 107.80220032 86.194969177 4.2389998436 6.9090275764
 2717.4929199 6.0000000000 7.5995001793 2.5792355537 0.2475009561 2.5792355537 2.5792355537 116.20749664 85.456367493 3.5608000755 2.6845631599
 2717.6455078 6.0000000000 7.5995001793 2.5811967850 0.2586820722 2.5811967850 2.5811967850 129.72650146 85.219375610 2.4461998940 2.1275722980
 2717.7978516 6.0000000000 7.5995001793 2.5905849934 0.2913475931 2.5905849934 2.5905849934 139.22450256 88.309043884 2.0394001007 2.3929724693
 2717.9501953 7.0000000000 7.5995001793 2.5795178413 0.3155612350 2.5795178413 2.5795178413 145.41740417 94.852500916 2.3847000599 2.2677016258
 2718.1025391 7.0000000000 7.5995001793 2.5572357178 0.3200927973 2.5572357178 2.5572357178 145.12950134 97.003570557 2.4028000832 2.8840103149
 2718.2548828 7.0000000000 7.5995001793 2.5680654049 0.3207977712 2.5680654049 2.5680651665 148.78239441 91.600357056 2.2195999622 2.0174849033
 2718.4074707 7.0000000000 7.5995001793 2.5616104603 0.3155084848 2.5616104603 2.5616104603 148.78010559 83.946258545 2.0501999855 2.3855049610
 2718.5598145 7.0000000000 7.5995001793 2.5770752430 0.3083115220 2.5770752430 2.5770752430 148.68420410 80.860939026 2.3348999023 2.0627191067
 2718.7121582 7.0000000000 7.5995001793 2.5672159195 0.2872338295 2.5672159195 2.5672159195 134.44439697 80.951850891 2.2864000797 7.6168842316
 2718.8645020 7.0000000000 7.5995001793 2.5836472511 0.2690582275 2.5836472511 2.5836472511 120.76599884 79.170722961 13.793499947 6.5578284264
 2719.0170898 6.0000000000 7.5995001793 2.5905890465 0.2538243532 2.5905890465 2.5905890465 110.98429871 78.576942444 8.6337995529 11.726598740
 2719.1694336 6.0000000000 7.5995001793 2.5820138454 0.2487081587 2.5820138454 2.5820138454 109.48079681 79.987739563 8.7133998871 10.277539253
 2719.3217773 6.0000000000 7.5995001793 2.5772075653 0.2456049621 2.5772075653 2.5772075653 108.97209930 79.641555786 9.2061996460 10.272504807
 2719.4741211 6.0000000000 7.5995001793 2.5694251060 0.2512817681 2.5694251060 2.5694251060 108.83239746 82.232673645 9.2313003540 10.553796768
 2719.6267090 6.0000000000 7.5995001793 2.5881700516 0.2482049614 2.5881700516 2.5881700516 106.61710358 94.106956482 13.277799606 13.336734772
 2719.7790527 6.0000000000 7.5995001793 2.6138586998 0.2448054552 2.6138586998 2.6138586998 105.44740295 102.61238098 13.590000153 13.654996872
 2719.9313965 6.0000000000 7.5995001793 2.6136004925 0.2318208367 2.6136004925 2.6136004925 101.47260284 97.499229431 10.706999779 17.055643082
 2720.0837402 6.0000000000 7.5995001793 2.6093068123 0.2304022461 2.6093068123 2.6093068123 99.666397095 90.027984619 7.7245998383 8.3334093094
 2720.2360840 6.0000000000 7.5995001793 2.6185700893 0.2254160047 2.6185700893 2.6185700893 91.278198242 86.772415161 11.486000061 15.710572243
 2720.3886719 6.0000000000 7.5995001793 2.6664233208 0.2259990275 2.6664233208 2.6664233208 81.841300964 86.717071533 33.221099854 19.360280991
 2720.5410156 16.000000000 7.5995001793 2.7500658035 0.2118227482 2.7500658035 2.7500658035 70.647499084 88.743751526 59.551799774 43.516033173
 2720.6933594 16.000000000 7.5995001793 2.7910344601 0.2077065706 2.7910344601 2.7910344601 67.421501160 89.056503296 19.711000443 26.021642685
 2720.8457031 16.000000000 7.5995001793 2.7276039124 0.2109894305 2.7276039124 2.7276039124 74.411102295 84.341133118 23.072299957 19.868064880
 2720.9982910 16.000000000 7.5995001793 2.6690936089 0.2190870196 2.6690936089 2.6690936089 96.260200500 76.622360229 6.0011000633 5.3446807861
 2721.1506348 16.000000000 7.5995001793 2.6120913029 0.2251902223 2.6120913029 2.6120913029 111.97740173 71.958465576 4.4931998253 5.8734140396
 2721.3029785 6.0000000000 7.5995001793 2.6594238281 0.2202080190 2.6594238281 2.6594238281 118.04889679 71.527679443 11.299900055 11.512749672
 2721.4553223 6.0000000000 7.5995001793 2.6420559883 0.2097336054 2.6420559883 2.6420559883 103.83080292 74.324020386 13.567099571 18.868814468
 2721.6079102 6.0000000000 7.5995001793 2.6379067898 0.1901314110 2.6379067898 2.6379067898 97.984100342 80.207580566 10.214900017 8.3146781921
 2721.7602539 6.0000000000 7.5995001793 2.6339063644 0.1959905326 2.6339063644 2.6339063644 103.38580322 86.596755981 5.7699999809 5.2693610191
 2721.9125977 6.0000000000 7.5995001793 2.6066436768 0.2216588110 2.6066436768 2.6066436768 118.91040039 92.542472839 2.6575000286 3.1987159252
 2722.0649414 6.0000000000 7.5995001793 2.5777461529 0.2774105668 2.5777461529 2.5777461529 127.28189850 98.459510803 3.4240000248 3.1636509895
 2722.2172852 6.0000000000 7.5995001793 2.5610535145 0.2954424024 2.5610535145 2.5610535145 122.32830048 101.99169159 10.383700371 8.7262420654
 2722.3698730 6.0000000000 7.5995001793 2.5398340225 0.2939025760 2.5398340225 2.5398340225 123.58709717 103.63039398 2.2639000416 3.7173686028
 2722.5222168 7.0000000000 7.5995001793 2.5398998260 0.3061802983 2.5398998260 2.5398998260 134.34989929 105.43010712 2.3406000137 2.6165540218
 2722.6745605 7.0000000000 7.5995001793 2.5455908775 0.3230729103 2.5455908775 2.5455908775 147.85749817 106.56120300 2.4734001160 2.4942934513
 2722.8269043 7.0000000000 7.5995001793 2.5508830547 0.3493158519 2.5508830547 2.5508830547 152.35429382 106.05463409 2.2218999863 2.5043671131
 2722.9794922 7.0000000000 7.5995001793 2.5262396336 0.3602825403 2.5262396336 2.5262396336 150.00889587 104.40065765 2.4600999355 2.5628063679
 2723.1318359 7.0000000000 7.5995001793 2.5133206844 0.3654916584 2.5133206844 2.5133206844 149.09680176 103.23087311 2.5185999870 2.5703880787
 2723.2841797 7.0000000000 7.5995001793 2.5156962872 0.3788785040 2.5156962872 2.5156962872 150.90440369 103.20304108 2.6421000957 2.8563411236
 2723.4365234 7.0000000000 7.5995001793 2.5113141537 0.3842827082 2.5113141537 2.5113141537 149.51550293 103.15814209 2.4681999683 2.8202176094
 2723.5891113 7.0000000000 7.5995001793 2.5269746780 0.3817041814 2.5269746780 2.5269746780 148.23550415 102.22250366 2.0775001049 2.2133738995
 2723.7414551 7.0000000000 7.5995001793 2.5337889194 0.3743118644 2.5337889194 2.5337889194 144.95680237 101.49916077 2.5903000832 2.4085850716
