# LAS format log file from PETREL
# Project units are specified as depth units
#==================================================================
~Version information
VERS.   2.0:
WRAP.   NO:
#==================================================================
~Well
STRT .m      2391.0522461 :
STOP .m      2949.2934570 :
STEP .m     0.00000000 :
NULL .        -999.250000 :
COMP.           : COMPANY
WELL.  36_7-3   : WELL
FLD.            : FIELD
LOC.            : LOCATION
SRVC.           : SERVICE COMPANY
DATE.  2018-09-11 14:49:03   : Log Export Date {yyyy-MM-dd HH:mm:ss}
PROV.           : PROVINCE
UWI.   36_7-3   : UNIQUE WELL ID
API.            : API NUMBER
#==================================================================
~Curve
DEPT .m                   : DEPTH
Lithology_geolink ._      : Lithology_geolink
CALI .in                  : CALI
DRHO .g/cm3               : DRHO
NPHI .m3/m3               : NPHI
RHOB .g/cm3               : RHOB
PEF .b/e                  : PEF
GR .gAPI                  : GR
DTC .us/ft                : DTC
RT .ohm.m               : RDEP
RMED .ohm.m               : RMED
~Parameter
#==================================================================
~Ascii
# ...
 2681.2216797 6.0000000000 7.5995001793 2.5554676056 0.2796038389 2.5554676056 2.5554676056 113.93340302 99.948265076 1.5811178684 1.4600043297
 2681.3740234 6.0000000000 7.5995001793 2.5486221313 0.2757124901 2.5486221313 2.5486221313 113.52680206 100.69860077 1.6771928072 1.4617935419
 2681.5266113 6.0000000000 7.5995001793 2.5526933670 0.2802926302 2.5526933670 2.5526933670 114.73840332 101.51668549 1.5048770905 1.4586051702
 2681.6789551 6.0000000000 7.5995001793 2.5260426998 0.2873886228 2.5260426998 2.5260426998 113.49089813 102.27579498 1.3132071495 1.4401296377
 2681.8312988 6.0000000000 7.5995001793 2.5214073658 0.2924918234 2.5214073658 2.5214073658 113.97630310 102.75323486 1.4210264683 1.2025812864
 2681.9836426 6.0000000000 7.5995001793 2.5115315914 0.3044616282 2.5115315914 2.5115315914 119.68209839 102.81282043 1.2431714535 1.1552506685
 2682.1362305 7.0000000000 7.5995001793 2.5280733109 0.3185774088 2.5280733109 2.5280733109 121.83339691 102.60233307 1.3532223701 1.4120875597
 2682.2885742 7.0000000000 7.5995001793 2.5290982723 0.3234921694 2.5290982723 2.5290982723 122.88120270 102.55507660 1.4493459463 1.3850440979
 2682.4409180 7.0000000000 7.5995001793 2.5113286972 0.3168107271 2.5113286972 2.5113286972 122.18019867 102.82456970 1.4533938169 1.2307475805
 2682.5932617 7.0000000000 7.5995001793 2.5039119720 0.3196953535 2.5039119720 2.5039119720 122.76010132 103.07260132 1.3020429611 1.1183799505
 2682.7456055 7.0000000000 7.5995001793 2.5076878071 0.3296679854 2.5076878071 2.5076878071 125.70680237 103.11785126 1.2319242954 1.2315361500
 2682.8981934 7.0000000000 7.5995001793 2.5149884224 0.3401831686 2.5149884224 2.5149884224 125.88390350 102.59683990 1.4137078524 1.3058812618
 2683.0505371 7.0000000000 7.5995001793 2.4997246265 0.3358070552 2.4997246265 2.4997246265 129.24589539 100.67208099 1.5176336765 1.4472732544
 2683.2028809 7.0000000000 7.5995001793 2.4949076176 0.3276131451 2.4949076176 2.4949076176 129.08430481 98.003280640 1.6362099648 1.5122960806
 2683.3552246 7.0000000000 7.5995001793 2.5183248520 0.3312881589 2.5183248520 2.5183248520 129.69729614 96.714126587 1.7872159481 1.8332699537
 2683.5078125 7.0000000000 7.5995001793 2.5233919621 0.3368910253 2.5233919621 2.5233919621 129.01159668 97.374931335 2.0619599819 1.6622760296
 2683.6601563 7.0000000000 7.5995001793 2.5336835384 0.3325070739 2.5336835384 2.5336835384 130.58630371 99.739204407 1.8243820667 1.6242605448
 2683.8125000 7.0000000000 7.5995001793 2.5228173733 0.3241134584 2.5228173733 2.5228173733 129.60049438 103.20943451 1.8479615450 1.5504183769
 2683.9648438 7.0000000000 7.5995001793 2.5135297775 0.3160259426 2.5135297775 2.5135297775 128.98950195 105.61030579 1.6555178165 1.4750416279
 2684.1174316 7.0000000000 7.5995001793 2.4902374744 0.3138035238 2.4902374744 2.4902374744 126.15570068 106.07325745 1.4170817137 1.0291153193
 2684.2697754 7.0000000000 7.5995001793 2.5110666752 0.3162960112 2.5110666752 2.5110666752 123.06199646 105.44800568 1.0702561140 1.0233082771
 2684.4221191 6.0000000000 7.5995001793 2.5602211952 0.3144030273 2.5602211952 2.5602211952 122.00080109 104.73514557 1.1569598913 1.1581835747
 2684.5744629 6.0000000000 7.5995001793 2.5862581730 0.3025190830 2.5862581730 2.5862581730 117.95210266 104.66910553 1.4629091024 1.2633315325
 2684.7270508 6.0000000000 7.5995001793 2.5841035843 0.2946126461 2.5841035843 2.5841035843 114.77100372 105.43376923 1.2093071938 1.1784363985
 2684.8793945 6.0000000000 7.5995001793 2.5338804722 0.2892086506 2.5338804722 2.5338804722 110.75489807 107.19716644 1.1530895233 0.9080337882
 2685.0317383 6.0000000000 7.5995001793 2.5054454803 0.3105657101 2.5054454803 2.5054454803 116.42610168 109.41543579 1.0814149380 0.8361147642
 2685.1840820 7.0000000000 7.5995001793 2.4894256592 0.3229801357 2.4894256592 2.4894256592 121.24459839 110.96052551 0.9839562178 0.9222615361
 2685.3364258 7.0000000000 7.5995001793 2.4779367447 0.3565921485 2.4779367447 2.4779367447 125.66359711 111.57104492 1.0377268791 0.9292779565
 2685.4890137 7.0000000000 7.5995001793 2.4828917980 0.3621911705 2.4828917980 2.4828917980 126.46549988 111.85854340 1.0446891785 1.0276421309
 2685.6413574 7.0000000000 7.5995001793 2.4810030460 0.3697878122 2.4810030460 2.4810030460 126.75009918 111.70524597 1.0989129543 1.0591497421
 2685.7937012 7.0000000000 7.5995001793 2.5031645298 0.3520285189 2.5031645298 2.5031645298 128.68659973 110.66466522 1.1393352747 0.9818242192
 2685.9460449 7.0000000000 7.5995001793 2.4915373325 0.3441252708 2.4915373325 2.4915373325 126.88970184 109.37812805 1.2687846422 0.9465129375
 2686.0986328 6.0000000000 7.5995001793 2.4869074821 0.3377102613 2.4869074821 2.4869074821 127.78839874 107.61881256 1.3183212280 1.1334997416
 2686.2509766 6.0000000000 7.5995001793 2.4767165184 0.3284148872 2.4767165184 2.4767165184 122.32649994 105.24181366 1.7214530706 1.8558410406
 2686.4033203 6.0000000000 7.5995001793 2.5003621578 0.3206124902 2.5003621578 2.5003621578 117.42990112 103.92011261 1.2533524036 2.5863294601
 2686.5556641 6.0000000000 7.5995001793 2.4919271469 0.3129246533 2.4919271469 2.4919271469 114.00769806 104.33267212 1.3304501772 1.3371140957
 2686.7082520 6.0000000000 7.5995001793 2.4977905750 0.3238823712 2.4977905750 2.4977905750 117.24800110 105.65687561 1.3733315468 1.0320831537
 2686.8605957 6.0000000000 7.5995001793 2.4968016148 0.3299902380 2.4968016148 2.4968016148 121.83249664 106.74725342 0.9973036647 0.9155862331
 2687.0129395 7.0000000000 7.5995001793 2.4982976913 0.3352915049 2.4982976913 2.4982976913 124.21820068 106.60223389 1.0894510746 1.3029778004
 2687.1652832 7.0000000000 7.5995001793 2.5074851513 0.3237186074 2.5074851513 2.5074851513 123.06169891 105.15233612 1.2169955969 1.4061353207
 2687.3176270 7.0000000000 7.5995001793 2.5173685551 0.3263913691 2.5173685551 2.5173683167 123.90720367 103.37669373 1.1567939520 1.5098675489
 2687.4702148 7.0000000000 7.5995001793 2.5235900879 0.3264000118 2.5235900879 2.5235900879 122.74700165 102.16194153 1.3071583509 1.3376768827
 2687.6225586 7.0000000000 7.5995001793 2.5199060440 0.3279974461 2.5199060440 2.5199060440 123.37090302 101.19853973 1.2190418243 1.1916340590
 2687.7749023 7.0000000000 7.5995001793 2.5142090321 0.3108275533 2.5142090321 2.5142090321 123.95200348 100.16465759 1.0635493994 1.2942348719
 2687.9272461 7.0000000000 7.5995001793 2.5176887512 0.3092051148 2.5176887512 2.5176887512 122.64920044 99.873931885 1.2031511068 1.3271946907
 2688.0798340 7.0000000000 7.5995001793 2.5265855789 0.3137926459 2.5265855789 2.5265855789 126.16000366 100.75158691 1.3894017935 1.2305552959
 2688.2321777 7.0000000000 7.5995001793 2.5281972885 0.3291753232 2.5281972885 2.5281972885 125.62359619 102.66593170 1.2121849060 1.4382662773
 2688.3845215 7.0000000000 7.5995001793 2.5193142891 0.3385849595 2.5193142891 2.5193142891 128.37559509 105.46650696 1.2890760899 1.1638411283
 2688.5368652 7.0000000000 7.5995001793 2.5101292133 0.3329182267 2.5101292133 2.5101292133 124.07350159 107.81347656 1.1032967567 1.1940017939
 2688.6894531 7.0000000000 7.5995001793 2.5019130707 0.3315022290 2.5019130707 2.5019130707 124.54119873 108.56080627 1.3396197557 1.1419836283
 2688.8417969 7.0000000000 7.5995001793 2.4969081879 0.3190200329 2.4969081879 2.4969081879 124.24130249 108.20258331 1.0611476898 1.3338918686
 2688.9941406 7.0000000000 7.5995001793 2.5062849522 0.3292834759 2.5062849522 2.5062849522 127.36019897 107.55403900 1.4412890673 1.3349987268
 2689.1464844 7.0000000000 7.5995001793 2.5184805393 0.3353902102 2.5184805393 2.5184805393 127.22129822 107.12867737 1.2002878189 1.6460007429
 2689.2988281 7.0000000000 7.5995001793 2.5301625729 0.3483583927 2.5301625729 2.5301625729 127.13510132 107.66527557 1.2787469625 1.5342603922
 2689.4514160 7.0000000000 7.5995001793 2.5159227848 0.3468025625 2.5159227848 2.5159227848 125.32119751 108.84111786 1.2594313622 1.5295070410
 2689.6037598 7.0000000000 7.5995001793 2.5029206276 0.3396115303 2.5029206276 2.5029206276 125.04740143 109.08660889 1.1563653946 1.5290008783
