# LAS format log file from PETREL
# Project units are specified as depth units
#==================================================================
~Version information
VERS.   2.0:
WRAP.   NO:
#==================================================================
~Well
STRT .m      2391.0522461 :
STOP .m      2949.2934570 :
STEP .m     0.00000000 :
NULL .        -999.250000 :
COMP.           : COMPANY
WELL.  36_7-3   : WELL
FLD.            : FIELD
LOC.            : LOCATION
SRVC.           : SERVICE COMPANY
DATE.  2018-09-11 14:49:03   : Log Export Date {yyyy-MM-dd HH:mm:ss}
PROV.           : PROVINCE
UWI.   36_7-3   : UNIQUE WELL ID
API.            : API NUMBER
#==================================================================
~Curve
DEPT .m                   : DEPTH
Lithology_geolink ._      : Lithology_geolink
CALI .in                  : CALI
DRHO .g/cm3               : DRHO
NPHI .m3/m3               : NPHI
RHOB .g/cm3               : RHOB
PEF .b/e                  : PEF
GR .gAPI                  : GR
DTC .us/ft                : DTC
RT .ohm.m               : RDEP
RMED .ohm.m               : RMED
~Parameter
#==================================================================
~Ascii
 2391.0522461 13.000000000 7.5995001793 2.6020014286 0.1635217965 2.6020014286 2.6020014286 60.156600952 74.976341248 5.1284999847 3.7992897034
 2391.2045898 13.000000000 7.5995001793 2.6141805649 0.1546142548 2.6141805649 2.6141805649 55.742698669 75.582023621 3.6426000595 3.5315303802
 2391.3571777 13.000000000 7.5995001793 2.6447999477 0.1466999948 2.6447999477 2.6447999477 52.768600464 76.907997131 2.8278999329 2.6544001102
 2391.5095215 13.000000000 7.5995001793 2.6222999096 0.1441999972 2.6222999096 2.6222999096 55.469299316 77.865989685 3.0394999981 2.7395999432
 2391.6618652 13.000000000 7.5995001793 2.6110181808 0.1433014423 2.6110181808 2.6110181808 56.582500458 78.358215332 2.8064999580 3.3301537037
 2391.8142090 13.000000000 7.5995001793 2.6002173424 0.1486913413 2.6002173424 2.6002173424 59.319999695 78.884162903 2.8271000385 2.9716770649
 2391.9667969 13.000000000 7.5995001793 2.6201000214 0.1518000066 2.6201000214 2.6201000214 58.720600128 79.589996338 2.6756999493 3.7725999355
 2392.1191406 13.000000000 7.5995001793 2.6331000328 0.1544999927 2.6331000328 2.6331000328 59.530998230 80.138999939 2.2481999397 2.5859999657
 2392.2714844 13.000000000 7.5995001793 2.6138310432 0.1547995210 2.6138310432 2.6138310432 62.307498932 80.012207031 2.4172000885 2.4806687832
 2392.4238281 13.000000000 7.5995001793 2.6341674328 0.1607903838 2.6341674328 2.6341674328 63.399299622 78.937721252 2.8840999603 2.7967925072
 2392.5761719 13.000000000 7.5995001793 2.6301066875 0.1611993611 2.6301066875 2.6301066875 64.910797119 77.134895325 2.8501999378 3.3980357647
 2392.7287598 13.000000000 7.5995001793 2.6424999237 0.1597999930 2.6424999237 2.6424999237 59.935001373 75.551002502 4.8292999268 3.0822000504
 2392.8811035 13.000000000 7.5995001793 2.6396045685 0.1519126296 2.6396045685 2.6396045685 56.573200226 75.453170776 3.7751998901 4.3997883797
 2393.0334473 13.000000000 7.5995001793 2.6323115826 0.1465086639 2.6323115826 2.6323115826 54.424800873 77.060424805 5.7631001472 5.3324065208
 2393.1857910 13.000000000 7.5995001793 2.6147282124 0.1464001685 2.6147282124 2.6147282124 55.603298187 79.284439087 3.0992000103 3.3958108425
 2393.3383789 13.000000000 7.5995001793 2.6377999783 0.1513999999 2.6377999783 2.6377999783 58.513500214 81.047996521 2.9056999683 2.9096999168
 2393.4907227 13.000000000 7.5995001793 2.5824000835 0.1616999954 2.5824000835 2.5824000835 59.646598816 82.245010376 2.2650001049 2.6161999702
 2393.6430664 13.000000000 7.5995001793 2.6140491962 0.1688884795 2.6140491962 2.6140491962 59.418701172 82.915924072 2.5000998974 3.0933353901
 2393.7954102 13.000000000 7.5995001793 2.6016199589 0.1784846187 2.6016199589 2.6016199589 60.573398590 82.818161011 2.9969999790 2.5318026543
 2393.9479980 13.000000000 7.5995001793 2.5938999653 0.1875000000 2.5938999653 2.5938999653 62.252998352 82.240997314 2.2091000080 2.5922999382
 2394.1003418 13.000000000 7.5995001793 2.5954000950 0.1909999996 2.5954000950 2.5954000950 64.828399658 81.572998047 2.4470000267 3.0436000824
 2394.2526855 13.000000000 7.5995001793 2.6029877663 0.1885039955 2.6029877663 2.6029877663 63.707698822 80.772285461 2.5522000790 2.7502701283
 2394.4050293 13.000000000 7.5995001793 2.5971095562 0.1821102500 2.5971095562 2.5971095562 62.934600830 80.130027771 2.6168999672 2.7998197079
 2394.5573730 13.000000000 7.5995001793 2.6162693501 0.1775073707 2.6162693501 2.6162693501 63.182899475 80.160949707 2.8185000420 2.6897766590
 2394.7099609 13.000000000 7.5995001793 2.6203999519 0.1729000062 2.6203999519 2.6203999519 64.127296448 80.769996643 3.1308999062 3.1798999310
 2394.8623047 13.000000000 7.5995001793 2.6652281284 0.1683073640 2.6652281284 2.6652281284 63.205200195 81.334098816 2.2781999111 2.9010467529
 2395.0146484 13.000000000 7.5995001793 2.6375446320 0.1647057682 2.6375446320 2.6375446320 62.454799652 80.896697998 2.8492999077 2.6855452061
 2395.1669922 13.000000000 7.5995001793 2.6272163391 0.1614052951 2.6272163391 2.6272163391 60.304798126 79.440338135 2.4700000286 2.9416882992
 2395.3195801 13.000000000 7.5995001793 2.5889999866 0.1595000029 2.5889999866 2.5889999866 56.414199829 78.367004395 3.1928000450 2.8917000294
 2395.4719238 13.000000000 7.5995001793 2.5857999325 0.1581999958 2.5857999325 2.5857999325 56.295200348 78.467002869 3.9581999779 4.7607998848
 2395.6242676 13.000000000 7.5995001793 2.5988790989 0.1532080024 2.5988790989 2.5988790989 56.062599182 79.236763000 2.8843998909 3.0736038685
 2395.7766113 13.000000000 7.5995001793 2.6011965275 0.1550969630 2.6011965275 2.6011965275 59.162700653 79.697257996 2.1865000725 2.3640346527
 2395.9291992 13.000000000 7.5995001793 2.5841999054 0.1537999958 2.5841999054 2.5841999054 58.563701630 79.452003479 2.6136999130 3.4700999260
 2396.0815430 13.000000000 7.5995001793 2.5690999031 0.1544999927 2.5690999031 2.5690999031 60.112598419 78.535003662 3.1050999165 3.2237999439
 2396.2338867 13.000000000 7.5995001793 2.6260087490 0.1532020867 2.6260087490 2.6260087490 60.622299194 77.053375244 2.6589000225 3.0551700592
 2396.3862305 13.000000000 7.5995001793 2.5834684372 0.1491065770 2.5834684372 2.5834684372 57.402801514 75.684196472 3.9786999226 2.7441987991
 2396.5388184 13.000000000 7.5995001793 2.6080000401 0.1483000070 2.6080000401 2.6080000401 54.179698944 75.011001587 4.6964001656 3.2028999329
 2396.6911621 13.000000000 7.5995001793 2.6424999237 0.1430999935 2.6424999237 2.6424999237 49.092700958 74.936996460 3.9377999306 4.1703000069
 2396.8435059 13.000000000 7.5995001793 2.7074959278 0.1410033554 2.7074959278 2.7074959278 49.093601227 75.017868042 3.4553000927 3.4964797497
 2396.9958496 13.000000000 7.5995001793 2.7203795910 0.1391030401 2.7203795910 2.7203795910 50.414001465 75.009017944 4.7515001297 4.3071966171
 2397.1481934 13.000000000 7.5995001793 2.7145094872 0.1400983930 2.7145094872 2.7145094872 52.488201141 75.077896118 7.0107002258 4.3152890205
 2397.3007813 13.000000000 7.5995001793 2.6807999611 0.1376000047 2.6807999611 2.6807999611 53.676601410 75.516998291 2.7799999714 3.2025001049
 2397.4531250 13.000000000 7.5995001793 2.6556403637 0.1398963183 2.6556403637 2.6556403637 54.707401276 76.474472046 4.0345997810 4.9454069138
 2397.6054688 13.000000000 7.5995001793 2.6351327896 0.1392011195 2.6351327896 2.6351327896 55.283599854 78.110374451 3.2200000286 3.3726289272
 2397.7578125 13.000000000 7.5995001793 2.6470806599 0.1450905353 2.6470806599 2.6470806599 56.738498688 80.234596252 4.4114999771 3.5794637203
 2397.9104004 13.000000000 7.5995001793 2.6240000725 0.1446000040 2.6240000725 2.6240000725 57.120399475 82.063003540 2.4993000031 2.3587000370
 2398.0627441 13.000000000 7.5995001793 2.6291000843 0.1518999934 2.6291000843 2.6291000843 59.970901489 82.865989685 3.4021000862 3.0227999687
 2398.2150879 13.000000000 7.5995001793 2.5964519978 0.1605860889 2.5964519978 2.5964522362 61.769401550 82.592437744 2.1800000668 2.4096825123
 2398.3674316 13.000000000 7.5995001793 2.5976979733 0.1761749983 2.5976979733 2.5976979733 65.236396790 81.731384277 2.1106998920 2.5608558655
 2398.5200195 13.000000000 7.5995001793 2.5910000801 0.1869000047 2.5910000801 2.5910000801 67.584297180 80.406997681 2.5241999626 2.7502000332
 2398.6723633 13.000000000 7.5995001793 2.6017000675 0.1853999943 2.6017000675 2.6017000675 64.904800415 78.283996582 6.1150999069 2.7674999237
 2398.8247070 13.000000000 7.5995001793 2.6441321373 0.1747171283 2.6441321373 2.6441321373 59.921100616 76.051574707 4.9261999130 5.7429318428
 2398.9770508 13.000000000 7.5995001793 2.6286249161 0.1596242040 2.6286249161 2.6286249161 56.724098206 75.017662048 4.5061001778 4.2417168617
 2399.1293945 13.000000000 7.5995001793 2.7062752247 0.1452230811 2.7062752247 2.7062752247 55.388099670 74.912170410 3.4344999790 3.7922177315
 2399.2819824 13.000000000 7.5995001793 2.6587998867 0.1367000043 2.6587998867 2.6587998867 55.414798737 74.921997070 4.0880999565 4.1047000885
 2399.4343262 13.000000000 7.5995001793 2.6302456856 0.1353022307 2.6302456856 2.6302456856 50.776901245 75.162612915 3.4900000095 4.0678591728
