# LAS format log file from PETREL
# Project units are specified as depth units
#==================================================================
~Version information
VERS.   2.0:
WRAP.   NO:
#==================================================================
~Well
STRT .m      2391.0522461 :
STOP .m      2949.2934570 :
STEP .m     0.00000000 :
NULL .        -999.250000 :
COMP.           : COMPANY
WELL.  36_7-3   : WELL
FLD.            : FIELD
LOC.            : LOCATION
SRVC.           : SERVICE COMPANY
DATE.  2018-09-11 14:49:03   : Log Export Date {yyyy-MM-dd HH:mm:ss}
PROV.           : PROVINCE
UWI.   36_7-3   : UNIQUE WELL ID
API.            : API NUMBER
#==================================================================
~Curve
DEPT .m                   : DEPTH
Lithology_geolink ._      : Lithology_geolink
CALI .in                  : CALI
DRHO .g/cm3               : DRHO
NPHI .m3/m3               : NPHI
RHOB .g/cm3               : RHOB
PEF .b/e                  : PEF
GR .gAPI                  : GR
DTC .us/ft                : DTC
RT .ohm.m               : RDEP
RMED .ohm.m               : RMED
~Parameter
#==================================================================
~Ascii
# ...
 2612.9467773 4.0000000000 7.5995001793 2.3630676270 0.2784999907 2.3630676270 2.3630676270 69.981697083 100.46843719 3.3993000984 3.3961999416
 2613.0991211 4.0000000000 7.5995001793 2.3715863228 0.2845999897 2.3715863228 2.3715863228 69.605003357 100.29228210 3.4086000919 3.3176999092
 2613.2514648 4.0000000000 7.5995001793 2.3631136417 0.2829000056 2.3631136417 2.3631136417 68.690002441 100.24307251 3.4298999310 3.3592000008
 2613.4038086 4.0000000000 7.5995001793 2.3506400585 0.2930000126 2.3506400585 2.3506400585 69.758796692 100.25296783 3.4161999226 3.3710999489
 2613.5563965 4.0000000000 7.5995001793 2.3460073471 0.2885999978 2.3460073471 2.3460073471 70.827697754 100.26497650 3.4135999680 3.3222000599
 2613.7087402 4.0000000000 7.5995001793 2.3592786789 0.3023000062 2.3592786789 2.3592786789 71.159599304 100.21708679 3.4777998924 3.3657999039
 2613.8610840 4.0000000000 7.5995001793 2.3702824116 0.3073000014 2.3702824116 2.3702824116 69.884498596 100.11515808 3.4985001087 3.4470999241
 2614.0134277 4.0000000000 7.5995001793 2.3651082516 0.3077999949 2.3651082516 2.3651082516 68.230102539 100.10401154 3.4839999676 3.4154999256
 2614.1657715 4.0000000000 7.5995001793 2.3461608887 0.2935999930 2.3461608887 2.3461608887 68.579399109 100.00132751 3.4493000507 3.5007998943
 2614.3183594 4.0000000000 7.5995001793 2.3440034389 0.2901000082 2.3440034389 2.3440034389 68.928703308 99.583671570 3.5973999500 3.6096000671
 2614.4707031 4.0000000000 7.5995001793 2.3364121914 0.2904999852 2.3364121914 2.3364121914 69.626296997 99.563034058 3.7736001015 3.6530001163
 2614.6230469 4.0000000000 7.5995001793 2.3691475391 0.2867000103 2.3691475391 2.3691475391 69.595199585 100.11311340 3.9440000057 3.6521000862
 2614.7753906 4.0000000000 7.5995001793 2.3729877472 0.2766000032 2.3729877472 2.3729877472 69.564201355 100.42200470 4.0939998627 3.6198000908
 2614.9279785 4.0000000000 7.5995001793 2.3691062927 0.2791000009 2.3691062927 2.3691062927 69.826797485 100.42399597 4.2491998672 3.5030999184
 2615.0803223 4.0000000000 7.5995001793 2.3590161800 0.2892000079 2.3590161800 2.3590161800 70.089302063 100.28222656 3.9412000179 3.3935000896
 2615.2326660 4.0000000000 7.5995001793 2.3526103497 0.2899000049 2.3526103497 2.3526103497 70.351898193 100.07034302 3.6607999802 3.2922000885
 2615.3850098 4.0000000000 7.5995001793 2.3636643887 0.2791999876 2.3636643887 2.3636643887 68.225997925 100.02116394 3.4170000553 3.2084000111
 2615.5375977 4.0000000000 7.5995001793 2.3728852272 0.2836000025 2.3728852272 2.3728852272 66.099998474 99.825309753 3.3619000912 3.1287000179
 2615.6899414 4.0000000000 7.5995001793 2.3739984035 0.2913999856 2.3739984035 2.3739984035 63.973999023 99.089179993 3.3145999908 3.0634000301
 2615.8422852 4.0000000000 7.5995001793 2.3717036247 0.2987000048 2.3717036247 2.3717036247 66.382202148 98.240348816 3.2688999176 3.0692000389
 2615.9946289 4.0000000000 7.5995001793 2.3649110794 0.2887000144 2.3649110794 2.3649110794 68.790397644 98.127182007 3.3273000717 3.0748000145
 2616.1469727 4.0000000000 7.5995001793 2.3750672340 0.2757000029 2.3750672340 2.3750672340 71.198699951 98.688201904 3.3912000656 3.1057999134
 2616.2995605 4.0000000000 7.5995001793 2.3775959015 0.2689999938 2.3775959015 2.3775959015 71.978996277 99.039428711 3.4568998814 3.3224999905
 2616.4519043 4.0000000000 7.5995001793 2.3745050430 0.2644000053 2.3745050430 2.3745050430 72.759498596 98.887245178 3.5274000168 3.3403000832
 2616.6042480 4.0000000000 7.5995001793 2.3645160198 0.2698000073 2.3645160198 2.3645160198 73.539901733 98.673347473 3.4985001087 3.2774999142
 2616.7565918 4.0000000000 7.5995001793 2.3622074127 0.2725000083 2.3622074127 2.3622074127 72.825798035 98.719848633 3.3926000595 3.1540999413
 2616.9091797 4.0000000000 7.5995001793 2.3563096523 0.2804999948 2.3563096523 2.3563096523 72.523200989 98.964607239 3.2406001091 3.0088000298
 2617.0615234 4.0000000000 7.5995001793 2.3536043167 0.2786999941 2.3536043167 2.3536043167 72.220596313 99.256538391 3.0548999310 2.8638000488
 2617.2138672 4.0000000000 7.5995001793 2.3471105099 0.2786999941 2.3471105099 2.3471105099 72.028099060 99.477645874 2.8728001118 2.9379999638
 2617.3662109 4.0000000000 7.5995001793 2.3560712337 0.2739999890 2.3560712337 2.3560712337 71.424201965 99.617546082 2.9474999905 3.0260000229
 2617.5187988 4.0000000000 7.5995001793 2.3481128216 0.2752999961 2.3481128216 2.3481128216 70.820198059 99.697868347 3.1010000706 3.1115999222
 2617.6711426 4.0000000000 7.5995001793 2.3550887108 0.2727999985 2.3550887108 2.3550887108 71.316497803 99.643089294 3.2551999092 3.1519999504
 2617.8234863 4.0000000000 7.5995001793 2.3518052101 0.2763000131 2.3518052101 2.3518052101 71.812698364 99.526191711 3.2678000927 3.1756000519
 2617.9758301 4.0000000000 7.5995001793 2.3484055996 0.2764999866 2.3484055996 2.3484055996 72.308998108 99.510025024 3.1781001091 3.1793999672
 2618.1281738 4.0000000000 7.5995001793 2.3470044136 0.2766999900 2.3470044136 2.3470044136 69.534500122 99.574790955 3.0962998867 3.0608000755
 2618.2807617 4.0000000000 7.5995001793 2.3487970829 0.2698000073 2.3487970829 2.3487970829 66.760002136 99.514099121 2.9895999432 2.9175999165
 2618.4331055 4.0000000000 7.5995001793 2.3568871021 0.2705999911 2.3568871021 2.3568871021 63.985500336 98.930938721 2.8745000362 2.7901999950
 2618.5854492 4.0000000000 7.5995001793 2.3590965271 0.2784999907 2.3590965271 2.3590965271 63.205101013 97.830764771 2.7590000629 2.7739000320
 2618.7377930 4.0000000000 7.5995001793 2.3508265018 0.2904999852 2.3508265018 2.3508265018 63.485000610 96.638824463 2.7058000565 2.7362999916
 2618.8903809 4.0000000000 7.5995001793 2.3560914993 0.2700999975 2.3560914993 2.3560914993 63.764801025 95.824302673 2.6963999271 2.6977999210
 2619.0427246 4.0000000000 7.5995001793 2.3620903492 0.2682000101 2.3620903492 2.3620903492 65.365798950 95.609344482 2.6998000145 2.6995999813
 2619.1950684 4.0000000000 7.5995001793 2.3649954796 0.2561999857 2.3649954796 2.3649954796 65.318397522 95.701850891 2.7111001015 2.7165000439
 2619.3474121 4.0000000000 7.5995001793 2.3683891296 0.2655999959 2.3683891296 2.3683891296 65.271003723 96.009017944 2.7295000553 2.7365999222
 2619.5000000 4.0000000000 7.5995001793 2.3523259163 0.2757000029 2.3523259163 2.3523256779 64.878402710 96.408363342 2.7493999004 2.7618999481
 2619.6523438 4.0000000000 7.5995001793 2.3498041630 0.3019999862 2.3498041630 2.3498041630 65.074096680 96.684555054 2.7730998993 2.7853000164
 2619.8046875 4.0000000000 7.5995001793 2.3370203972 0.3273999989 2.3370203972 2.3370203972 65.269699097 97.138275146 2.7969000340 2.7948000431
 2619.9570313 4.0000000000 7.5995001793 2.3149354458 0.3298999965 2.3149354458 2.3149354458 61.638301849 97.777976990 2.7618999481 2.8020000458
 2620.1096191 4.0000000000 7.5995001793 2.3156988621 0.3248000145 2.3156988621 2.3156988621 58.006900787 97.753036499 2.7179000378 2.8032000065
 2620.2619629 2.0000000000 7.5995001793 2.2478089333 0.3140999973 2.2478089333 2.2478089333 55.350799561 97.011192322 2.6275999546 2.8043000698
 2620.4143066 2.0000000000 7.5995001793 2.2558867931 0.2955999970 2.2558867931 2.2558867931 56.326000214 96.434921265 2.5418000221 2.6740999222
 2620.5666504 2.0000000000 7.5995001793 2.2506086826 0.2896000147 2.2506086826 2.2506086826 58.533100128 96.199371338 2.5262000561 2.5439999104
 2620.7189941 2.0000000000 7.5995001793 2.2937614918 0.2946999967 2.2937614918 2.2937614918 59.764900208 96.059448242 2.5445001125 2.4800999165
 2620.8715820 2.0000000000 7.5995001793 2.2878098488 0.3064000010 2.2878098488 2.2878098488 60.835899353 96.101928711 2.6059999466 2.4003000259
 2621.0239258 2.0000000000 7.5995001793 2.2842056751 0.3088000119 2.2842056751 2.2842056751 60.674999237 95.758552551 2.7046000957 2.3394999504
 2621.1762695 2.0000000000 7.5995001793 2.2720196247 0.2985999882 2.2720196247 2.2720196247 60.100799561 94.541954041 2.7892000675 2.3103001118
 2621.3286133 2.0000000000 7.5995001793 2.2724983692 0.2768000066 2.2724983692 2.2724983692 59.687599182 93.650856018 2.7149999142 2.2859001160
