# LAS format log file from PETREL
# Project units are specified as depth units
#==================================================================
~Version information
VERS.   2.0:
WRAP.   NO:
#==================================================================
~Well
STRT .m      2391.0522461 :
STOP .m      2949.2934570 :
STEP .m     0.00000000 :
NULL .        -999.250000 :
COMP.           : COMPANY
WELL.  36_7-3   : WELL
FLD.            : FIELD
LOC.            : LOCATION
SRVC.           : SERVICE COMPANY
DATE.  2018-09-11 14:49:03   : Log Export Date {yyyy-MM-dd HH:mm:ss}
PROV.           : PROVINCE
UWI.   36_7-3   : UNIQUE WELL ID
API.            : API NUMBER
#==================================================================
~Curve
DEPT .m                   : DEPTH
Lithology_geolink ._      : Lithology_geolink
CALI .in                  : CALI
DRHO .g/cm3               : DRHO
NPHI .m3/m3               : NPHI
RHOB .g/cm3               : RHOB
PEF .b/e                  : PEF
GR .gAPI                  : GR
DTC .us/ft                : DTC
RT .ohm.m               : RDEP
RMED .ohm.m               : RMED
~Parameter
#==================================================================
~Ascii
# ...
 2425.1896973 13.000000000 7.5995001793 2.5982017517 0.1399097741 2.5982017517 2.5982017517 56.930088043 74.376953125 4.8452963829 3.1505348682
 2425.3422852 13.000000000 7.5995001793 2.6304483414 0.1361999959 2.6304483414 2.6304483414 52.894401550 74.547729492 4.2546000481 4.0633997917
 2425.4946289 13.000000000 7.5995001793 2.6358914375 0.1338038445 2.6358914375 2.6358914375 48.970088959 74.338333130 3.4426012039 4.1906957626
 2425.6469727 13.000000000 7.5995001793 2.6568663120 0.1384924799 2.6568663120 2.6568663120 49.504928589 74.218193054 3.0518250465 3.9726502895
 2425.7993164 13.000000000 7.5995001793 2.6342728138 0.1361038387 2.6342728138 2.6342728138 49.954280853 74.120315552 5.5653643608 5.0469746590
 2425.9519043 13.000000000 7.5995001793 2.6235172749 0.1330000013 2.6235172749 2.6235172749 51.087799072 74.063095093 4.4899997711 4.6361999512
 2426.1042480 13.000000000 7.5995001793 2.6511557102 0.1306000054 2.6511557102 2.6511557102 51.400501251 74.130889893 5.4730000496 4.7132000923
 2426.2565918 13.000000000 7.5995001793 2.6426138878 0.1293020844 2.6426138878 2.6426138878 50.327720642 74.221855164 5.4623169899 4.7630205154
 2426.4089355 13.000000000 7.5995001793 2.6222653389 0.1308974326 2.6222653389 2.6222653389 48.260314941 74.298759460 4.7727065086 5.9010734558
 2426.5615234 13.000000000 7.5995001793 2.6182065010 0.1327999979 2.6182065010 2.6182065010 48.647899628 74.193168640 4.0900998116 6.0615000725
 2426.7138672 13.000000000 7.5995001793 2.6453564167 0.1343999952 2.6453564167 2.6453564167 52.887001038 73.911453247 3.9040999413 4.5925002098
 2426.8662109 13.000000000 7.5995001793 2.6447012424 0.1374950409 2.6447012424 2.6447012424 54.934417725 74.007850647 4.0959925652 5.0058374405
 2427.0185547 13.000000000 7.5995001793 2.6125514507 0.1368011236 2.6125514507 2.6125514507 56.287834167 74.639984131 5.0029444695 4.4037675858
 2427.1708984 13.000000000 7.5995001793 2.6376194954 0.1396953464 2.6376194954 2.6376194954 54.186477661 75.271972656 4.6227126122 3.8399035931
 2427.3234863 13.000000000 7.5995001793 2.6432909966 0.1429000050 2.6432909966 2.6432909966 55.296798706 75.545562744 5.5378999710 5.4103999138
 2427.4758301 13.000000000 7.5995001793 2.6552805901 0.1494894326 2.6552805901 2.6552805901 54.212501526 75.499076843 4.3601875305 3.8038744926
 2427.6281738 13.000000000 7.5995001793 2.6411225796 0.1504983902 2.6411225796 2.6411225796 55.991798401 75.334266663 4.4515504837 4.2381987572
 2427.7805176 13.000000000 7.5995001793 2.6355178356 0.1527963132 2.6355178356 2.6355178356 58.294799805 75.302101135 4.0363664627 4.7336058617
 2427.9331055 13.000000000 7.5995001793 2.6455838680 0.1500000060 2.6455838680 2.6455838680 62.533000946 75.441780090 4.5936999321 4.5762000084
 2428.0854492 13.000000000 7.5995001793 2.6786470413 0.1525000036 2.6786470413 2.6786470413 63.698600769 75.569793701 4.2792000771 4.5324997902
 2428.2377930 13.000000000 7.5995001793 2.6577336788 0.1531988829 2.6577336788 2.6577336788 65.616600037 75.701789856 4.3767437935 5.6505084038
 2428.3901367 13.000000000 7.5995001793 2.6298892498 0.1538988799 2.6298892498 2.6298892498 64.661201477 75.979110718 5.5035915375 5.5444731712
 2428.5427246 13.000000000 7.5995001793 2.6137256622 0.1567000002 2.6137256622 2.6137256622 66.566497803 76.267539978 4.8320999146 4.8794999123
 2428.6950684 13.000000000 7.5995001793 2.6255810261 0.1606000066 2.6255810261 2.6255810261 66.656997681 76.352859497 4.1698999405 4.0043997765
 2428.8474121 13.000000000 7.5995001793 2.6386790276 0.1554083079 2.6386790276 2.6386790276 65.624099731 76.411911011 3.6646096706 3.6854112148
 2428.9997559 13.000000000 7.5995001793 2.6315114498 0.1496092975 2.6315114498 2.6315114498 63.115100861 76.797378540 4.3187484741 4.0036883354
 2429.1520996 13.000000000 7.5995001793 2.6210336685 0.1439091414 2.6210336685 2.6210336685 56.568500519 77.729011536 4.1331996918 4.7338290215
 2429.3046875 13.000000000 7.5995001793 2.6451611519 0.1494999975 2.6451611519 2.6451611519 52.135700226 78.730400085 5.3021001816 5.2676000595
 2429.4570313 13.000000000 7.5995001793 2.6389100552 0.1598833501 2.6389100552 2.6389100552 47.702800751 79.033515930 5.1867852211 5.1101522446
 2429.6093750 13.000000000 7.5995001793 2.6419949532 0.1648919880 2.6419949532 2.6419949532 50.967098236 79.097900391 4.5154771805 4.0907359123
 2429.7617188 13.000000000 7.5995001793 2.6151859760 0.1691931188 2.6151859760 2.6151859760 55.750598907 80.258277893 3.7087931633 3.6340305805
 2429.9143066 13.000000000 7.5995001793 2.6152997017 0.1727000028 2.6152997017 2.6152997017 61.700500488 82.659156799 3.7121000290 4.0549998283
 2430.0666504 13.000000000 7.5995001793 2.6115062237 0.1840000004 2.6115062237 2.6115062237 62.414398193 86.021614075 3.4370000362 3.5062000751
 2430.2189941 13.000000000 7.5995001793 2.5944273472 0.1964800060 2.5944273472 2.5944273472 61.784099579 89.458488464 3.4267165661 3.3584368229
 2430.3713379 13.000000000 7.5995001793 2.6001813412 0.2023905367 2.6001813412 2.6001813412 59.735099792 90.406974792 3.8925523758 3.2108364105
 2430.5239258 13.000000000 7.5995001793 2.5602641106 0.2141000032 2.5602641106 2.5602641106 63.484199524 88.161605835 3.6984999180 4.6368999481
 2430.6762695 13.000000000 7.5995001793 2.5718810558 0.2164999992 2.5718810558 2.5718810558 73.422401428 83.864891052 2.0871000290 1.6793999672
 2430.8286133 13.000000000 7.5995001793 2.5651109219 0.1981294453 2.5651109219 2.5651109219 81.605697632 79.604827881 2.5659325123 1.7687568665
 2430.9809570 13.000000000 7.5995001793 2.5775799751 0.1736392677 2.5775799751 2.5775799751 80.030601501 77.522338867 5.1097183228 3.8351833820
 2431.1333008 13.000000000 7.5995001793 2.5890631676 0.1613197178 2.5890631676 2.5890631676 71.935096741 77.349540710 3.3874709606 3.3991053104
 2431.2858887 13.000000000 7.5995001793 2.6085686684 0.1612000018 2.6085686684 2.6085686684 64.065498352 78.289497375 3.7177999020 5.9738998413
 2431.4382324 13.000000000 7.5995001793 2.6154890060 0.1669907123 2.6154890060 2.6154890060 63.108398438 79.627853394 5.4003033638 4.2965879440
 2431.5905762 13.000000000 7.5995001793 2.6087110043 0.1704943925 2.6087110043 2.6087110043 60.273101807 79.739822388 5.3860273361 4.8692765236
 2431.7429199 13.000000000 7.5995001793 2.6343176365 0.1693019271 2.6343176365 2.6343176365 61.188800812 78.603652954 3.9461112022 4.3685054779
 2431.8955078 13.000000000 7.5995001793 2.6479783058 0.1683000028 2.6479783058 2.6479783058 59.814601898 77.627563477 3.6226999760 4.0823001862
 2432.0478516 13.000000000 7.5995001793 2.6368179321 0.1640000045 2.6368179321 2.6368179321 60.884799957 77.095855713 4.7803001404 4.2560000420
 2432.2001953 13.000000000 7.5995001793 2.6261172295 0.1623027325 2.6261172295 2.6261172295 58.202301025 76.848396301 5.2374677658 4.6701364517
 2432.3525391 13.000000000 7.5995001793 2.6243057251 0.1582065672 2.6243057251 2.6243057251 57.495998383 76.505096436 4.8229665756 4.8290457726
 2432.5051270 13.000000000 7.5995001793 2.6542518139 0.1533000022 2.6542518139 2.6542518139 56.816001892 75.980842590 4.8863000870 6.0079002380
 2432.6574707 13.000000000 7.5995001793 2.6683773994 0.1542000026 2.6683773994 2.6683773994 59.820301056 76.076850891 7.2413997650 6.7298998833
 2432.8098145 13.000000000 7.5995001793 2.6661036015 0.1535011232 2.6661036015 2.6661036015 57.298500061 76.782859802 6.8695960045 5.3851547241
 2432.9621582 13.000000000 7.5995001793 2.6576135159 0.1569944024 2.6576135159 2.6576135159 57.090198517 77.943138123 5.3604211807 5.6528668404
 2433.1145020 13.000000000 7.5995001793 2.6370658875 0.1632898897 2.6370658875 2.6370658875 59.088600159 79.854866028 5.1707005501 4.3767490387
 2433.2670898 13.000000000 7.5995001793 2.6282141209 0.1705999970 2.6282141209 2.6282141209 64.790298462 81.630172729 5.2319002151 4.1921000481
 2433.4194336 13.000000000 7.5995001793 2.6045379639 0.1785871983 2.6045379639 2.6045379639 69.350502014 82.314910889 4.8842568398 4.0391449928
 2433.5717773 13.000000000 7.5995001793 2.6220719814 0.1871862113 2.6220719814 2.6220719814 69.790199280 82.299034119 3.6273167133 4.0440917015
