# LAS format log file from PETREL
# Project units are specified as depth units
#==================================================================
~Version information
VERS.   2.0:
WRAP.   NO:
#==================================================================
~Well
STRT .m      2391.0522461 :
STOP .m      2949.2934570 :
STEP .m     0.00000000 :
NULL .        -999.250000 :
COMP.           : COMPANY
WELL.  36_7-3   : WELL
FLD.            : FIELD
LOC.            : LOCATION
SRVC.           : SERVICE COMPANY
DATE.  2018-09-11 14:49:03   : Log Export Date {yyyy-MM-dd HH:mm:ss}
PROV.           : PROVINCE
UWI.   36_7-3   : UNIQUE WELL ID
API.            : API NUMBER
#==================================================================
~Curve
DEPT .m                   : DEPTH
Lithology_geolink ._      : Lithology_geolink
CALI .in                  : CALI
DRHO .g/cm3               : DRHO
NPHI .m3/m3               : NPHI
RHOB .g/cm3               : RHOB
PEF .b/e                  : PEF
GR .gAPI                  : GR
DTC .us/ft                : DTC
RT .ohm.m               : RDEP
RMED .ohm.m               : RMED
~Parameter
#==================================================================
~Ascii
# ...
 2826.3063965 4.0000000000 7.5995001793 2.5222709179 0.1708204746 2.5222709179 2.5222709179 77.757896423 92.536201477 15.010000229 11.061297417
 2826.4589844 4.0000000000 7.5995001793 2.5343806744 0.1715987176 2.5343806744 2.5343806744 100.66709900 91.134231567 5.8813619614 8.3929824829
 2826.6113281 7.0000000000 7.5995001793 2.5623552799 0.1827820390 2.5623552799 2.5623552799 123.53669739 88.966476440 5.7405028343 7.9631829262
 2826.7636719 7.0000000000 7.5995001793 2.5831665993 0.2270290107 2.5831665993 2.5831665993 133.01559448 85.141136169 6.5077681541 7.3904185295
 2826.9160156 7.0000000000 7.5995001793 2.6052291393 0.2784352005 2.6052291393 2.6052291393 132.97340393 81.096961975 6.6946039200 6.7307147980
 2827.0686035 7.0000000000 7.5995001793 2.6022050381 0.3159400821 2.6022050381 2.6022050381 130.33320618 78.214607239 7.4222331047 9.3129510880
 2827.2209473 7.0000000000 7.5995001793 2.6048955917 0.2988275588 2.6048955917 2.6048955917 128.85279846 77.766708374 8.0544872284 6.5112037659
 2827.3732910 6.0000000000 7.5995001793 2.6065974236 0.2908128202 2.6065974236 2.6065974236 121.97660065 78.878204346 6.0586051941 6.9019651413
 2827.5256348 6.0000000000 7.5995001793 2.5976288319 0.2780409455 2.5976288319 2.5976288319 114.93900299 79.232872009 12.861550331 9.7801628113
 2827.6782227 6.0000000000 7.5995001793 2.5944051743 0.2725088298 2.5944051743 2.5944051743 110.93560028 76.418518066 8.8980970383 10.004854202
 2827.8305664 6.0000000000 7.5995001793 2.5908057690 0.2561262846 2.5908057690 2.5908057690 115.13700104 70.849937439 9.8931922913 10.921429634
 2827.9829102 6.0000000000 7.5995001793 2.6006839275 0.2372303009 2.6006839275 2.6006839275 122.45300293 65.881958008 7.5175156593 7.5647902489
 2828.1352539 6.0000000000 7.5995001793 2.5993020535 0.1999597698 2.5993020535 2.5993020535 114.87349701 63.455879211 10.216462135 9.8610057831
 2828.2875977 6.0000000000 7.5995001793 2.6206314564 0.1668062508 2.6206314564 2.6206314564 93.043701172 63.791912079 327.06573486 243.08241272
 2828.4401855 16.000000000 7.5995001793 2.6483557224 0.1554180980 2.6483557224 2.6483557224 70.156501770 65.573135376 47.479404449 112.14707184
 2828.5925293 16.000000000 7.5995001793 2.6862392426 0.1748687476 2.6862392426 2.6862392426 65.174697876 66.597358704 17.680309296 52.873302460
 2828.7448730 16.000000000 7.5995001793 2.6777138710 0.2055507898 2.6777138710 2.6777138710 73.382003784 66.877548218 13.324715614 39.242729187
 2828.8972168 16.000000000 7.5995001793 2.6326446533 0.1598468870 2.6326446533 2.6326446533 91.082603455 67.889747620 12.241057396 28.879898071
 2829.0498047 16.000000000 7.5995001793 2.5883708000 0.1082825288 2.5883708000 2.5883708000 108.19850159 69.732048035 16.128154755 15.503717422
 2829.2021484 7.0000000000 7.5995001793 2.5431725979 0.0930243582 2.5431725979 2.5431725979 125.03269958 74.218803406 11.861358643 16.521333694
 2829.3544922 7.0000000000 7.5995001793 2.5137472153 0.1032834947 2.5137472153 2.5137472153 133.87399292 79.993743896 8.9983844757 10.117881775
 2829.5068359 7.0000000000 7.5995001793 2.5058252811 0.1167568043 2.5058252811 2.5058252811 135.62489319 83.623374939 6.4400982857 6.1729311943
 2829.6594238 7.0000000000 7.5995001793 2.5013072491 0.1398629844 2.5013072491 2.5013072491 126.74620056 85.013793945 6.5381293297 5.9461436272
 2829.8117676 7.0000000000 7.5995001793 2.5507206917 0.1643607318 2.5507206917 2.5507206917 112.54530334 83.125045776 11.231266975 9.9104356766
 2829.9641113 7.0000000000 7.5995001793 2.5879404545 0.1987448633 2.5879404545 2.5879404545 96.034500122 78.290748596 24.616727829 23.391073227
 2830.1164551 7.0000000000 7.5995001793 2.6306316853 0.2024940699 2.6306316853 2.6306316853 81.446899414 72.748878479 21.523698807 19.228416443
 2830.2690430 16.000000000 7.5995001793 2.6389865875 0.1809345484 2.6389865875 2.6389865875 69.352302551 70.603424072 33.112121582 27.933637619
 2830.4213867 16.000000000 7.5995001793 2.6391997337 0.1685198843 2.6391997337 2.6391997337 60.108299255 70.925483704 384.34396362 432.64309692
 2830.5737305 16.000000000 7.5995001793 2.6492838860 0.1611118615 2.6492838860 2.6492838860 57.802898407 70.120300293 672.13183594 215.20715332
 2830.7260742 16.000000000 7.5995001793 2.6466042995 0.1599019170 2.6466042995 2.6466042995 63.515598297 69.275352478 212.01399231 41.336624146
 2830.8784180 16.000000000 7.5995001793 2.6543750763 0.1559128016 2.6543750763 2.6543750763 75.918601990 74.283920288 11.559740067 12.233236313
 2831.0310059 16.000000000 7.5995001793 2.6523032188 0.1543025672 2.6523032188 2.6523032188 86.297798157 84.062332153 9.1536331177 8.6949310303
 2831.1833496 5.0000000000 7.5995001793 2.6461100578 0.1527025700 2.6461100578 2.6461100578 88.247703552 85.227157593 15.657356262 9.4980020523
 2831.3356934 5.0000000000 7.5995001793 2.6465992928 0.1512023956 2.6465992928 2.6465992928 82.478599548 79.122795105 6.4592809677 9.3564291000
 2831.4880371 5.0000000000 7.5995001793 2.6645421982 0.1497047991 2.6645421982 2.6645421982 78.291702271 79.600433350 11.741992950 14.640536308
 2831.6406250 4.0000000000 7.5995001793 2.6750831604 0.1586855799 2.6750831604 2.6750831604 77.209396362 85.453605652 20.162811279 17.783681870
 2831.7929688 4.0000000000 7.5995001793 2.6814897060 0.1769706756 2.6814897060 2.6814897060 76.603401184 87.418861389 32.651477814 24.774686813
 2831.9453125 4.0000000000 7.5995001793 2.6671230793 0.1858857423 2.6671230793 2.6671230793 73.623703003 86.674194336 18.034992218 17.959756851
 2832.0976563 4.0000000000 7.5995001793 2.6468648911 0.1842054427 2.6468648911 2.6468648911 71.230697632 87.460472107 18.920581818 16.991970062
 2832.2502441 4.0000000000 7.5995001793 2.6548871994 0.1815043241 2.6548871994 2.6548871994 69.867996216 89.453804016 15.513473511 28.010009766
 2832.4025879 4.0000000000 7.5995001793 2.6695764065 0.1846948713 2.6695764065 2.6695764065 70.918899536 89.835388184 48.314342499 51.310829163
 2832.5549316 4.0000000000 7.5995001793 2.7015488148 0.1888932586 2.7015488148 2.7015488148 70.280502319 87.658493042 75.513931274 75.215896606
 2832.7072754 4.0000000000 7.5995001793 2.6934130192 0.1801140904 2.6934130192 2.6934130192 70.971801758 87.651008606 58.453254700 20.249191284
 2832.8596191 4.0000000000 7.5995001793 2.6774513721 0.1814955175 2.6774513721 2.6774513721 70.093902588 91.330192566 17.317968369 25.113599777
 2833.0122070 4.0000000000 7.5995001793 2.6247844696 0.1830974370 2.6247844696 2.6247844696 69.669998169 92.340400696 50.405677795 53.052280426
 2833.1645508 4.0000000000 7.5995001793 2.5827672482 0.1949809194 2.5827672482 2.5827672482 68.251701355 88.324447632 28.950622559 32.617271423
 2833.3168945 4.0000000000 7.5995001793 2.5688221455 0.1986940652 2.5688221455 2.5688221455 65.733497620 82.260726929 43.602725983 49.023014069
 2833.4692383 4.0000000000 7.5995001793 2.5703949928 0.1963076741 2.5703949928 2.5703949928 61.269500732 74.351356506 70.062629700 50.465057373
 2833.6218262 16.000000000 7.5995001793 2.5727961063 0.1852177978 2.5727961063 2.5727961063 59.803001404 68.100997925 36.575786591 29.291692734
 2833.7741699 16.000000000 7.5995001793 2.5584230423 0.1747168303 2.5584230423 2.5584230423 61.443801880 66.707221985 27.183090210 25.734754562
 2833.9265137 16.000000000 7.5995001793 2.5473179817 0.1762974411 2.5473179817 2.5473179817 64.242897034 71.693992615 17.446403503 17.427824020
 2834.0788574 16.000000000 7.5995001793 2.5161001682 0.1663319916 2.5161001682 2.5161001682 67.820396423 81.907241821 28.102342606 10.195075989
 2834.2314453 4.0000000000 7.5995001793 2.5198938847 0.1543192416 2.5198938847 2.5198938847 71.162399292 89.430976868 5.9733748436 5.7142548561
 2834.3837891 4.0000000000 7.5995001793 2.5352752209 0.1340325326 2.5352752209 2.5352752209 73.955299377 92.638870239 10.795104027 14.153442383
 2834.5361328 4.0000000000 7.5995001793 2.5627558231 0.1329017580 2.5627558231 2.5627558231 71.147003174 90.194923401 33.561470032 19.663677216
 2834.6884766 4.0000000000 7.5995001793 2.5775763988 0.1446810961 2.5775763988 2.5775763988 73.020202637 84.179649353 19.541561127 15.760379791
