# LAS format log file from PETREL
# Project units are specified as depth units
#==================================================================
~Version information
VERS.   2.0:
WRAP.   NO:
#==================================================================
~Well
STRT .m      2391.0522461 :
STOP .m      2949.2934570 :
STEP .m     0.00000000 :
NULL .        -999.250000 :
COMP.           : COMPANY
WELL.  36_7-3   : WELL
FLD.            : FIELD
LOC.            : LOCATION
SRVC.           : SERVICE COMPANY
DATE.  2018-09-11 14:49:03   : Log Export Date {yyyy-MM-dd HH:mm:ss}
PROV.           : PROVINCE
UWI.   36_7-3   : UNIQUE WELL ID
API.            : API NUMBER
#==================================================================
~Curve
DEPT .m                   : DEPTH
Lithology_geolink ._      : Lithology_geolink
CALI .in                  : CALI
DRHO .g/cm3               : DRHO
NPHI .m3/m3               : NPHI
RHOB .g/cm3               : RHOB
PEF .b/e                  : PEF
GR .gAPI                  : GR
DTC .us/ft                : DTC
RT .ohm.m               : RDEP
RMED .ohm.m               : RMED
~Parameter
#==================================================================
~Ascii
# ...
 2570.2746582 2.0000000000 7.5995001793 2.2654972076 0.2822867036 2.2654972076 2.2654972076 66.119300842 100.87346649 2.2072000504 2.0731492043
 2570.4270020 2.0000000000 7.5995001793 2.2890620232 0.2925834954 2.2890620232 2.2890620232 80.405296326 99.727836609 1.6512000561 1.4592851400
 2570.5793457 2.0000000000 7.5995001793 2.3231453896 0.3032828569 2.3231453896 2.3231453896 98.794998169 97.566467285 2.0322999954 1.6159468889
 2570.7316895 2.0000000000 7.5995001793 2.3957669735 0.3026022315 2.3957669735 2.3957669735 120.16940308 96.256195068 2.1349000931 1.8975965977
 2570.8842773 7.0000000000 7.5995001793 2.4717783928 0.3075919747 2.4717783928 2.4717783928 129.04319763 96.378791809 2.1891999245 2.2938654423
 2571.0366211 7.0000000000 7.5995001793 2.5195233822 0.3181830049 2.5195233822 2.5195233822 127.35849762 97.322479248 2.2316999435 2.6229729652
 2571.1889648 7.0000000000 7.5995001793 2.5252909660 0.3250889480 2.5252909660 2.5252909660 121.68900299 97.929023743 2.3020000458 2.8056077957
 2571.3413086 7.0000000000 7.5995001793 2.5106470585 0.3290872276 2.5106470585 2.5106470585 116.01090240 98.254951477 2.4203999043 3.0111410618
 2571.4938965 7.0000000000 7.5995001793 2.5017142296 0.3239083588 2.5017142296 2.5017142296 115.38449860 98.903961182 2.5483999252 3.0507376194
 2571.6462402 6.0000000000 7.5995001793 2.4644598961 0.3212043345 2.4644598961 2.4644598961 111.75710297 99.552963257 2.4874000549 3.0223457813
 2571.7985840 6.0000000000 7.5995001793 2.4680941105 0.3174060881 2.4680941105 2.4680941105 108.12979889 99.768653870 2.3032999039 2.9951436520
 2571.9509277 6.0000000000 7.5995001793 2.4692962170 0.3046409488 2.4692962170 2.4692962170 100.61990356 99.719154358 2.1482999325 2.9822411537
 2572.1035156 6.0000000000 7.5995001793 2.5101344585 0.2968124747 2.5101344585 2.5101344585 96.737503052 100.12135315 2.7955000401 3.0336174965
 2572.2558594 6.0000000000 7.5995001793 2.4870371819 0.2937049866 2.4870371819 2.4870371819 92.855003357 101.03353882 3.1542999744 3.1092786789
 2572.4082031 6.0000000000 7.5995001793 2.4051313400 0.3021863699 2.4051313400 2.4051313400 94.781700134 101.87764740 3.0002999306 2.9281909466
 2572.5605469 6.0000000000 7.5995001793 2.3240299225 0.3066927791 2.3240299225 2.3240299225 93.476303101 102.26937103 2.7530000210 2.5662806034
 2572.7128906 5.0000000000 7.5995001793 2.2785456181 0.2968316674 2.2785456181 2.2785456181 92.170898438 102.45938873 2.3991999626 2.2681550980
 2572.8654785 5.0000000000 7.5995001793 2.2783999443 0.2882137597 2.2783999443 2.2783999443 88.938903809 102.75153351 2.1168000698 2.1331152916
 2573.0178223 5.0000000000 7.5995001793 2.2828929424 0.2750211656 2.2828929424 2.2828929424 79.904502869 102.81390381 1.9384000301 2.1235151291
 2573.1701660 2.0000000000 7.5995001793 2.2946810722 0.2722044885 2.2946810722 2.2946810722 70.870002747 102.34476471 1.8791999817 2.1192069054
 2573.3225098 2.0000000000 7.5995001793 2.2889184952 0.2688108683 2.2889184952 2.2889184952 61.835601807 101.73396301 1.8280999660 1.9987865686
 2573.4750977 2.0000000000 7.5995001793 2.2764201164 0.2701977789 2.2764201164 2.2764201164 62.370601654 101.57025909 1.7857999802 1.9116392136
 2573.6274414 2.0000000000 7.5995001793 2.2556335926 0.2721967697 2.2556335926 2.2556333542 62.905498505 101.90645599 1.7746000290 1.9592233896
 2573.7797852 2.0000000000 7.5995001793 2.2817580700 0.2740969658 2.2817580700 2.2817580700 60.035301208 102.19753265 1.7228000164 2.0208013058
 2573.9321289 2.0000000000 7.5995001793 2.3152923584 0.2760936022 2.3152923584 2.3152923584 56.630001068 102.14816284 1.6579999924 2.0358521938
 2574.0847168 2.0000000000 7.5995001793 2.3165981770 0.2746024132 2.3165981770 2.3165981770 58.393100739 101.91737366 1.6174000502 1.9513357878
 2574.2370605 4.0000000000 7.5995001793 2.2831535339 0.2725033760 2.2831535339 2.2831535339 63.561401367 101.56156921 1.6900999546 1.8768194914
 2574.3894043 4.0000000000 7.5995001793 2.2613351345 0.2578235567 2.2613351345 2.2613351345 68.729598999 101.32038879 1.7662999630 1.8333694935
 2574.5417480 4.0000000000 7.5995001793 2.2655930519 0.2566019297 2.2655930519 2.2655930519 65.268997192 101.31301117 1.8463000059 1.9777681828
 2574.6940918 2.0000000000 7.5995001793 2.2680919170 0.2646740675 2.2680919170 2.2680919170 61.808399200 101.36582947 1.8558000326 2.0786767006
 2574.8466797 2.0000000000 7.5995001793 2.2720935345 0.2871639431 2.2720935345 2.2720935345 58.347801208 101.08045959 1.8666000366 2.0482492447
 2574.9990234 2.0000000000 7.5995001793 2.2661094666 0.2816089690 2.2661094666 2.2661094666 58.255599976 100.47796631 1.9101999998 2.0175490379
 2575.1513672 2.0000000000 7.5995001793 2.2572143078 0.2667238712 2.2572143078 2.2572143078 58.163299561 100.26035309 1.9563000202 2.0054192543
 2575.3037109 2.0000000000 7.5995001793 2.2569010258 0.2530438304 2.2569010258 2.2569010258 57.311298370 100.36865234 2.0113000870 2.0019111633
 2575.4562988 2.0000000000 7.5995001793 2.2616922855 0.2539983988 2.2616922855 2.2616922855 56.551601410 100.41891479 2.0757999420 2.0125827789
 2575.6086426 2.0000000000 7.5995001793 2.2621994019 0.2562963068 2.2621994019 2.2621994019 57.876098633 100.42298889 2.0566999912 2.0232827663
 2575.7609863 2.0000000000 7.5995001793 2.2454268932 0.2569988668 2.2454268932 2.2454268932 59.960399628 100.37607574 2.0336999893 2.0339827538
 2575.9133301 2.0000000000 7.5995001793 2.2304480076 0.2563022375 2.2304480076 2.2304480076 60.056400299 100.22747040 2.0113999844 2.0447654724
 2576.0659180 2.0000000000 7.5995001793 2.2321970463 0.2618910372 2.2321970463 2.2321970463 58.068000793 99.945449829 1.9898999929 2.0167450905
 2576.2182617 2.0000000000 7.5995001793 2.2471759319 0.2670916617 2.2471759319 2.2471759319 56.079601288 99.808219910 1.9766000509 2.0070154667
 2576.3706055 2.0000000000 7.5995001793 2.2527909279 0.2725911736 2.2527909279 2.2527909279 56.079601288 99.934791565 2.0211999416 2.0908653736
 2576.5229492 2.0000000000 7.5995001793 2.2443134785 0.2618173063 2.2443134785 2.2443134785 56.079601288 100.16163635 2.1082000732 2.2371654510
 2576.6752930 2.0000000000 7.5995001793 2.2387177944 0.2545233667 2.2387177944 2.2387177944 55.196601868 100.51885223 2.1554000378 2.1830742359
 2576.8278809 2.0000000000 7.5995001793 2.2415955067 0.2545998394 2.2415955067 2.2415955067 54.502399445 100.72467041 2.1835000515 1.7442041636
 2576.9802246 2.0000000000 7.5995001793 2.2449944019 0.2613891065 2.2449944019 2.2449944019 53.808300018 100.54929352 1.8449000120 1.8312591314
 2577.1325684 2.0000000000 7.5995001793 2.2481946945 0.2679894269 2.2481946945 2.2481946945 56.216899872 100.51006317 1.9528000355 1.8850139380
 2577.2849121 2.0000000000 7.5995001793 2.2489974499 0.2705916762 2.2489974499 2.2489974499 56.076999664 100.82398987 1.9804999828 1.9390269518
 2577.4375000 2.0000000000 7.5995001793 2.2499983311 0.2767900825 2.2499983311 2.2499983311 57.575099945 101.33917236 2.0067000389 1.9936126471
 2577.5898438 2.0000000000 7.5995001793 2.2429113388 0.2830899060 2.2429113388 2.2429113388 57.242698669 101.75733185 2.0316998959 2.0337355137
 2577.7421875 2.0000000000 7.5995001793 2.2365102768 0.2854961455 2.2365102768 2.2365102768 59.269798279 101.60524750 1.9457000494 2.1798655987
 2577.8945313 2.0000000000 7.5995001793 2.2369983196 0.2882910371 2.2369983196 2.2369983196 59.659000397 101.14247894 2.0571000576 2.3851416111
 2578.0471191 2.0000000000 7.5995001793 2.2435894012 0.2935914993 2.2435894012 2.2435894012 59.774700165 100.76261902 2.0044999123 1.9843444824
 2578.1994629 2.0000000000 7.5995001793 2.2561800480 0.2990911901 2.2561800480 2.2561798096 57.652599335 100.38261414 1.9737999439 1.9406690598
 2578.3518066 2.0000000000 7.5995001793 2.2553014755 0.3015960157 2.2553014755 2.2553014755 55.530498505 100.19928741 1.9354000092 1.9195338488
 2578.5041504 2.0000000000 7.5995001793 2.2550005913 0.2944115400 2.2550005913 2.2550005913 53.985099792 100.39268494 1.8963999748 1.9117125273
 2578.6564941 2.0000000000 7.5995001793 2.2513120174 0.2873227000 2.2513120174 2.2513120174 52.784900665 100.66612244 1.9399000406 1.9553598166
