# LAS format log file from PETREL
# Project units are specified as depth units
#==================================================================
~Version information
VERS.   2.0:
WRAP.   NO:
#==================================================================
~Well
STRT .m      2391.0522461 :
STOP .m      2949.2934570 :
STEP .m     0.00000000 :
NULL .        -999.250000 :
COMP.           : COMPANY
WELL.  36_7-3   : WELL
FLD.            : FIELD
LOC.            : LOCATION
SRVC.           : SERVICE COMPANY
DATE.  2018-09-11 14:49:03   : Log Export Date {yyyy-MM-dd HH:mm:ss}
PROV.           : PROVINCE
UWI.   36_7-3   : UNIQUE WELL ID
API.            : API NUMBER
#==================================================================
~Curve
DEPT .m                   : DEPTH
Lithology_geolink ._      : Lithology_geolink
CALI .in                  : CALI
DRHO .g/cm3               : DRHO
NPHI .m3/m3               : NPHI
RHOB .g/cm3               : RHOB
PEF .b/e                  : PEF
GR .gAPI                  : GR
DTC .us/ft                : DTC
RT .ohm.m               : RDEP
RMED .ohm.m               : RMED
~Parameter
#==================================================================
~Ascii
# ...
 2647.0844727 7.0000000000 7.5995001793 2.5494000912 0.3305999935 2.5494000912 2.5494000912 137.24349976 101.07599640 2.7704999447 2.3900001049
 2647.2368164 7.0000000000 7.5995001793 2.5418999195 0.3357999921 2.5418999195 2.5418999195 136.32699585 101.70500183 2.0989999771 2.1266999245
 2647.3891602 7.0000000000 7.5995001793 2.5262000561 0.3488999903 2.5262000561 2.5262000561 134.65229797 101.87971497 1.9758000374 2.0975999832
 2647.5415039 7.0000000000 7.5995001793 2.5309998989 0.3434999883 2.5309998989 2.5309998989 131.69999695 101.60742950 2.0218000412 2.3076000214
 2647.6938477 7.0000000000 7.5995001793 2.5469999313 0.3188999891 2.5469999313 2.5469999313 132.00230408 101.15544891 2.5446000099 2.8684999943
 2647.8464355 7.0000000000 7.5995001793 2.5502998829 0.2962999940 2.5502998829 2.5502998829 131.45210266 100.58391571 2.5195999146 2.9449000359
 2647.9987793 7.0000000000 7.5995001793 2.5669999123 0.2852999866 2.5669999123 2.5669999123 128.71150208 100.71977997 2.5162000656 2.8782999516
 2648.1511230 6.0000000000 7.5995001793 2.5571000576 0.3027999997 2.5571000576 2.5571000576 121.10859680 101.68744659 4.4198999405 4.4482002258
 2648.3034668 6.0000000000 7.5995001793 2.5485999584 0.3093000054 2.5485999584 2.5485999584 111.44789886 102.01994324 6.2638998032 3.5057001114
 2648.4560547 6.0000000000 7.5995001793 2.5264999866 0.2903999984 2.5264999866 2.5264999866 114.54360199 102.85266113 2.6500000954 2.2708001137
 2648.6083984 6.0000000000 7.5995001793 2.5416998863 0.2639999986 2.5416998863 2.5416998863 121.56120300 105.44483948 1.9765000343 2.3113999367
 2648.7607422 6.0000000000 7.5995001793 2.5645000935 0.2630999982 2.5645000935 2.5645000935 131.10690308 106.91764069 2.1777000427 2.3668000698
 2648.9130859 5.0000000000 7.5995001793 2.5445001125 0.2813999951 2.5445001125 2.5445001125 116.89990234 106.12055969 4.2058000565 2.8608999252
 2649.0656738 5.0000000000 7.5995001793 2.5006999969 0.2874000072 2.5006999969 2.5006999969 98.681602478 105.31828308 3.6767001152 3.5552000999
 2649.2180176 5.0000000000 7.5995001793 2.4793000221 0.2852999866 2.4793000221 2.4793000221 92.115501404 105.04543304 3.9412999153 5.1518998146
 2649.3703613 5.0000000000 7.5995001793 2.4856998920 0.2786999941 2.4856998920 2.4856998920 101.63069916 104.72550201 2.6937000751 2.4790999889
 2649.5227051 6.0000000000 7.5995001793 2.5016000271 0.2637000084 2.5016000271 2.5016000271 114.71009827 104.40451050 3.0908999443 3.1271998882
 2649.6750488 6.0000000000 7.5995001793 2.5260000229 0.2569999993 2.5260000229 2.5260000229 114.08899689 105.93408966 2.9335999489 2.9391999245
 2649.8276367 6.0000000000 7.5995001793 2.5383999348 0.2475000024 2.5383999348 2.5383999348 108.66880035 107.72613525 3.3796999454 3.3554999828
 2649.9799805 6.0000000000 7.5995001793 2.5668001175 0.2151000053 2.5668001175 2.5668001175 99.981697083 104.35042572 5.8464999199 8.0003004074
 2650.1323242 5.0000000000 7.5995001793 2.5764999390 0.1845999956 2.5764999390 2.5764999390 92.806701660 100.49018860 10.847700119 11.034399986
 2650.2846680 5.0000000000 7.5995001793 2.5848999023 0.1651999950 2.5848999023 2.5848999023 90.997299194 102.99194336 6.1862998009 6.6468000412
 2650.4372559 5.0000000000 7.5995001793 2.5804998875 0.1721999943 2.5804998875 2.5804998875 96.654197693 107.89015198 4.4755997658 5.1690998077
 2650.5895996 5.0000000000 7.5995001793 2.6159000397 0.1893000007 2.6159000397 2.6159000397 93.835502625 109.36463928 4.6373000145 5.0679001808
 2650.7419434 5.0000000000 7.5995001793 2.6777999401 0.2058999985 2.6777999401 2.6777999401 83.300003052 109.06848145 11.300100327 8.3929996490
 2650.8942871 16.000000000 7.5995001793 2.7620000839 0.2115000039 2.7620000839 2.7620000839 72.366401672 107.81801605 14.314999580 11.847200394
 2651.0468750 16.000000000 7.5995001793 2.7492001057 0.2031999975 2.7492001057 2.7492001057 70.319297791 103.15048218 8.6389999390 7.3899998665
 2651.1992188 16.000000000 7.5995001793 2.6770000458 0.2110999972 2.6770000458 2.6770000458 75.823699951 98.806961060 3.7655999660 4.8621997833
 2651.3515625 16.000000000 7.5995001793 2.6070001125 0.2094999999 2.6070001125 2.6070001125 87.344902039 95.530250549 3.7079999447 4.8857002258
 2651.5039063 6.0000000000 7.5995001793 2.5655000210 0.2097000033 2.5655000210 2.5655000210 100.74839783 93.660987854 3.1577000618 4.0053000450
 2651.6562500 6.0000000000 7.5995001793 2.5764999390 0.2012999952 2.5764999390 2.5764999390 114.29460144 95.225967407 2.9284000397 4.2393999100
 2651.8088379 6.0000000000 7.5995001793 2.5648000240 0.2055999935 2.5648000240 2.5648000240 111.83820343 96.156509399 7.1950001717 5.1410999298
 2651.9611816 6.0000000000 7.5995001793 2.5541999340 0.2236000001 2.5541999340 2.5541999340 107.05359650 92.948150635 8.1739997864 4.0756998062
 2652.1135254 6.0000000000 7.5995001793 2.5443000793 0.2283000052 2.5443000793 2.5443000793 100.01969910 87.930046082 2.6963000298 2.5815999508
 2652.2658691 6.0000000000 7.5995001793 2.5427000523 0.2307000011 2.5427000523 2.5427000523 107.62249756 86.209503174 2.7063000202 2.7853999138
 2652.4184570 7.0000000000 7.5995001793 2.5362000465 0.2379000038 2.5362000465 2.5362000465 115.26069641 86.737144470 2.7100000381 2.6677999496
 2652.5708008 7.0000000000 7.5995001793 2.5443999767 0.2721999884 2.5443999767 2.5443999767 124.31829834 85.887367249 3.0041999817 2.5975999832
 2652.7231445 7.0000000000 7.5995001793 2.5513000488 0.3052000105 2.5513000488 2.5513000488 124.09490204 83.074516296 2.9790000916 2.5687000751
 2652.8754883 7.0000000000 7.5995001793 2.5622999668 0.3122000098 2.5622999668 2.5622999668 124.20520020 79.759628296 3.2669000626 3.2888000011
 2653.0280762 7.0000000000 7.5995001793 2.5404999256 0.3073999882 2.5404999256 2.5404999256 125.09929657 77.778167725 3.4012000561 3.1298000813
 2653.1804199 7.0000000000 7.5995001793 2.5304999352 0.2966000140 2.5304999352 2.5304999352 123.14129639 82.431526184 3.4045000076 3.2198998928
 2653.3327637 6.0000000000 7.5995001793 2.5192000866 0.2791999876 2.5192000866 2.5192000866 119.09310150 92.447921753 3.6888000965 3.3413999081
 2653.4851074 6.0000000000 7.5995001793 2.5076000690 0.2610999942 2.5076000690 2.5076000690 110.01609802 97.147476196 4.2024998665 3.4382998943
 2653.6374512 6.0000000000 7.5995001793 2.4858999252 0.2392999977 2.4858999252 2.4858999252 103.21119690 100.41553497 4.3003001213 3.6052000523
 2653.7900391 6.0000000000 7.5995001793 2.4786999226 0.2320999950 2.4786999226 2.4786999226 98.573196411 107.80216217 4.1531000137 3.8480999470
 2653.9423828 6.0000000000 7.5995001793 2.4837000370 0.2300000042 2.4837000370 2.4837000370 98.882797241 112.98969269 3.6363999844 3.9458999634
 2654.0947266 6.0000000000 7.5995001793 2.5088999271 0.2536999881 2.5088999271 2.5088999271 101.00479889 114.12519073 3.2098000050 2.7242999077
 2654.2470703 6.0000000000 7.5995001793 2.5051999092 0.2653999925 2.5051999092 2.5051999092 110.54470062 114.04327393 1.9622999430 2.2902998924
 2654.3996582 7.0000000000 7.5995001793 2.5095999241 0.2874999940 2.5095999241 2.5095999241 117.96260071 113.82634735 2.2342998981 2.3220999241
 2654.5520020 7.0000000000 7.5995001793 2.5169999599 0.3041000068 2.5169999599 2.5169999599 126.69409943 111.00353241 2.3961000443 2.3768999577
 2654.7043457 7.0000000000 7.5995001793 2.5346999168 0.3167000115 2.5346999168 2.5346999168 127.81809998 104.25083160 2.8478000164 2.4319999218
 2654.8566895 7.0000000000 7.5995001793 2.5423998833 0.3129000068 2.5423998833 2.5423998833 127.71549988 98.200386047 3.6127998829 2.6389999390
 2655.0092773 6.0000000000 7.5995001793 2.4665999413 0.2991000116 2.4665999413 2.4665999413 120.99710083 96.106330872 3.8803999424 2.8989000320
 2655.1616211 6.0000000000 7.5995001793 2.3740000725 0.2903999984 2.3740000725 2.3740000725 114.46829987 95.684669495 3.2047998905 2.9681000710
 2655.3139648 6.0000000000 7.5995001793 2.3013999462 0.2944000065 2.3013999462 2.3013999462 109.16609955 94.408042908 2.7344000340 2.9354999065
 2655.4663086 6.0000000000 7.5995001793 2.2762000561 0.2967999876 2.2762000561 2.2762000561 109.74379730 94.159393311 2.3175001144 2.5989999771
