# LAS format log file from PETREL
# Project units are specified as depth units
#==================================================================
~Version information
VERS.   2.0:
WRAP.   NO:
#==================================================================
~Well
STRT .m      2391.0522461 :
STOP .m      2949.2934570 :
STEP .m     0.00000000 :
NULL .        -999.250000 :
COMP.           : COMPANY
WELL.  36_7-3   : WELL
FLD.            : FIELD
LOC.            : LOCATION
SRVC.           : SERVICE COMPANY
DATE.  2018-09-11 14:49:03   : Log Export Date {yyyy-MM-dd HH:mm:ss}
PROV.           : PROVINCE
UWI.   36_7-3   : UNIQUE WELL ID
API.            : API NUMBER
#==================================================================
~Curve
DEPT .m                   : DEPTH
Lithology_geolink ._      : Lithology_geolink
CALI .in                  : CALI
DRHO .g/cm3               : DRHO
NPHI .m3/m3               : NPHI
RHOB .g/cm3               : RHOB
PEF .b/e                  : PEF
GR .gAPI                  : GR
DTC .us/ft                : DTC
RT .ohm.m               : RDEP
RMED .ohm.m               : RMED
~Parameter
#==================================================================
~Ascii
# ...
 2536.1369629 13.000000000 7.5995001793 2.4344997406 0.2772525847 2.4344997406 2.4344997406 97.720298767 88.351158142 7.9053874016 7.2233543396
 2536.2893066 13.000000000 7.5995001793 2.5075829029 0.2492448688 2.5075829029 2.5075829029 100.04450226 85.471618652 7.8365139961 7.8467025757
 2536.4416504 13.000000000 7.5995001793 2.5945212841 0.2434185594 2.5945212841 2.5945212841 98.752098083 84.416366577 7.5679616928 6.5442843437
 2536.5942383 13.000000000 7.5995001793 2.5986938477 0.2605724335 2.5986938477 2.5986938477 100.42579651 85.886634827 6.0623149872 5.6218738556
 2536.7465820 13.000000000 7.5995001793 2.5905132294 0.2757756412 2.5905132294 2.5905132294 103.39199829 88.541740417 4.9669542313 5.4051456451
 2536.8989258 13.000000000 7.5995001793 2.5599491596 0.2897775471 2.5599491596 2.5599491596 111.37930298 90.351097107 5.1975269318 5.9391422272
 2537.0512695 13.000000000 7.5995001793 2.5372364521 0.2783184052 2.5372364521 2.5372364521 116.40039825 90.890136719 5.0763950348 4.9679603577
 2537.2036133 13.000000000 7.5995001793 2.5584318638 0.2773031890 2.5584318638 2.5584318638 118.02549744 91.427276611 5.1250429153 3.6730520725
 2537.3562012 13.000000000 7.5995001793 2.4992952347 0.2626235485 2.4992952347 2.4992952347 119.95249939 91.215339661 6.0782704353 3.8982319832
 2537.5085449 13.000000000 7.5995001793 2.4578661919 0.2350442261 2.4578661919 2.4578661919 121.87940216 89.241165161 7.1673541069 5.0948796272
 2537.6608887 13.000000000 7.5995001793 2.4010910988 0.2137341350 2.4010910988 2.4010910988 117.09700012 87.264167786 8.8541955948 9.9109725952
 2537.8132324 13.000000000 7.5995001793 2.4408719540 0.2040310353 2.4408719540 2.4408719540 96.475601196 87.682647705 9.9284601212 10.374935150
 2537.9658203 13.000000000 7.5995001793 2.4325134754 0.2098905444 2.4325134754 2.4325134754 75.854103088 90.654228210 7.2856478691 9.2207546234
 2538.1181641 13.000000000 7.5995001793 2.4240136147 0.2092011124 2.4240136147 2.4240136147 64.913696289 93.301757813 6.6641907692 8.3515920639
 2538.2705078 13.000000000 7.5995001793 2.4010369778 0.2061049640 2.4010369778 2.4010369778 66.553802490 94.962341309 6.3782572746 7.8039770126
 2538.4228516 13.000000000 7.5995001793 2.4241259098 0.1934406310 2.4241259098 2.4241259098 64.430900574 96.186080933 7.4311189651 7.7743921280
 2538.5754395 13.000000000 7.5995001793 2.4383773804 0.1832163483 2.4383773804 2.4383773804 62.732398987 96.301818848 7.5653896332 7.7237811089
 2538.7277832 13.000000000 7.5995001793 2.4543743134 0.1753126681 2.4543743134 2.4543743134 57.926498413 95.327560425 7.3752055168 7.3541932106
 2538.8801270 13.000000000 7.5995001793 2.4551987648 0.1868814081 2.4551987648 2.4551987648 59.558300018 93.209396362 7.5207657814 7.0095520020
 2539.0324707 13.000000000 7.5995001793 2.4693772793 0.1893959939 2.4693772793 2.4693772793 61.190101624 90.276702881 7.6812429428 6.6823244095
 2539.1848145 13.000000000 7.5995001793 2.4861464500 0.1970753521 2.4861464500 2.4861464500 68.863502502 87.185913086 7.3800673485 6.3848533630
 2539.3374023 13.000000000 7.5995001793 2.5073661804 0.1989969611 2.5073661804 2.5073661804 73.862197876 84.944580078 7.0581154823 6.1941046715
 2539.4897461 13.000000000 7.5995001793 2.5026075840 0.2156732380 2.5026075840 2.5026075840 77.687301636 84.507698059 6.8710994720 6.1410841942
 2539.6420898 13.000000000 7.5995001793 2.4910185337 0.2289786935 2.4910185337 2.4910185337 76.513801575 85.104042053 6.8010120392 6.3289980888
 2539.7944336 13.000000000 7.5995001793 2.4700672626 0.2350804806 2.4700672626 2.4700672626 75.438903809 85.802757263 7.2621192932 6.5188913345
 2539.9470215 13.000000000 7.5995001793 2.4294650555 0.2419889420 2.4294650555 2.4294650555 75.537597656 86.516853333 7.7845635414 6.7165837288
 2540.0993652 13.000000000 7.5995001793 2.3901629448 0.2595718205 2.3901629448 2.3901629448 81.402496338 87.228858948 8.0580625534 6.9259643555
 2540.2517090 13.000000000 7.5995001793 2.3431754112 0.2776710093 2.3431754112 2.3431754112 87.168800354 88.829429626 8.3438425064 7.1483440399
 2540.4040527 13.000000000 7.5995001793 2.3248586655 0.2758060694 2.3248586655 2.3248586655 87.286598206 91.759597778 8.6559991837 7.5572881699
 2540.5566406 13.000000000 7.5995001793 2.3131189346 0.2670140862 2.3131189346 2.3131189346 81.638099670 94.700294495 9.2576360703 8.2061605453
 2540.7089844 13.000000000 7.5995001793 2.3259792328 0.2626070678 2.3259792328 2.3259792328 75.989700317 96.680824280 10.515682220 9.2430381775
 2540.8613281 13.000000000 7.5995001793 2.3245024681 0.2684905529 2.3245024681 2.3245024681 75.989700317 97.891059875 11.218674660 10.930893898
 2541.0136719 13.000000000 7.5995001793 2.3161132336 0.2744903862 2.3161132336 2.3161132336 72.458297729 98.818511963 10.381645203 8.3342723846
 2541.1662598 13.000000000 7.5995001793 2.3023221493 0.2691086531 2.3023221493 2.3023221493 68.926902771 99.579780579 8.7959384918 6.6251320839
 2541.3186035 13.000000000 7.5995001793 2.3004031181 0.2630097866 2.3004031181 2.3004031181 66.416999817 100.03627014 7.6095004082 7.0231566429
 2541.4709473 13.000000000 7.5995001793 2.2980039120 0.2532157004 2.2980039120 2.2980039120 75.095298767 100.17777252 8.4463529587 7.3660507202
 2541.6232910 13.000000000 7.5995001793 2.2962028980 0.2552966177 2.2962028980 2.2962028980 78.534698486 99.781631470 8.7984371185 7.8138818741
 2541.7756348 13.000000000 7.5995001793 2.3022804260 0.2613804936 2.3022804260 2.3022804260 78.888999939 98.730369568 8.7545433044 8.0530338287
 2541.9282227 13.000000000 7.5995001793 2.3162775040 0.2613001466 2.3162775040 2.3162775040 74.229698181 97.869369507 8.3409633636 7.4361915588
 2542.0805664 13.000000000 7.5995001793 2.3111083508 0.2584046423 2.3111083508 2.3111083508 74.809303284 97.880973816 8.3403997421 10.495687485
 2542.2329102 13.000000000 7.5995001793 2.2973222733 0.2507123351 2.2973222733 2.2973222733 75.482398987 98.515975952 11.095377922 11.289433479
 2542.3852539 13.000000000 7.5995001793 2.2714829445 0.2570795119 2.2714829445 2.2714829445 73.608596802 99.460968018 12.199968338 11.237072945
 2542.5378418 13.000000000 7.5995001793 2.2983567715 0.2635895610 2.2983567715 2.2983567715 73.861602783 100.55326080 10.586496353 11.352614403
 2542.6901855 13.000000000 7.5995001793 2.3427288532 0.2827692330 2.3427288532 2.3427288532 75.410202026 101.03922272 9.7308692932 11.287903786
 2542.8425293 13.000000000 7.5995001793 2.3954155445 0.2898886204 2.3954155445 2.3954155445 80.966903687 98.640853882 9.2781248093 10.686264992
 2542.9948730 13.000000000 7.5995001793 2.4077606201 0.2896009684 2.4077606201 2.4077606201 87.445800781 93.898216248 8.6689529419 10.085226059
 2543.1474609 13.000000000 7.5995001793 2.3886308670 0.2845081687 2.3886308670 2.3886308670 94.599197388 90.536369324 8.0812406540 9.2084045410
 2543.2998047 13.000000000 7.5995001793 2.3877015114 0.2793083489 2.3877015114 2.3877015114 95.975402832 89.721298218 7.7212762833 7.8827257156
 2543.4521484 13.000000000 7.5995001793 2.3681313992 0.2817960083 2.3681313992 2.3681313992 94.302497864 90.443840027 8.0391883850 7.4754505157
 2543.6044922 13.000000000 7.5995001793 2.3970534801 0.2775068879 2.3970534801 2.3970534801 92.629600525 91.692001343 8.1794757843 8.5598583221
 2543.7568359 13.000000000 7.5995001793 2.4415571690 0.2696252763 2.4415571690 2.4415571690 92.346603394 93.209129333 7.3382010460 6.9293398857
 2543.9094238 13.000000000 7.5995001793 2.5220711231 0.2648077011 2.5220711231 2.5220711231 92.063598633 92.189651489 6.4312515259 6.2777376175
 2544.0617676 13.000000000 7.5995001793 2.5292885303 0.2574118674 2.5292885303 2.5292885303 93.748802185 87.088188171 6.9952921867 6.3736443520
 2544.2141113 13.000000000 7.5995001793 2.5055382252 0.2528073490 2.5055382252 2.5055382252 101.48329926 83.444839478 7.0235562325 5.6015396118
 2544.3664551 13.000000000 7.5995001793 2.4711103439 0.2419348806 2.4711103439 2.4711103439 109.21779633 84.783683777 7.4182329178 6.9881443977
 2544.5190430 13.000000000 7.5995001793 2.4751932621 0.2435972691 2.4751932621 2.4751932621 111.29930115 87.809150696 8.3754653931 7.6478481293
