# LAS format log file from PETREL
# Project units are specified as depth units
#==================================================================
~Version information
VERS.   2.0:
WRAP.   NO:
#==================================================================
~Well
STRT .m      2391.0522461 :
STOP .m      2949.2934570 :
STEP .m     0.00000000 :
NULL .        -999.250000 :
COMP.           : COMPANY
WELL.  36_7-3   : WELL
FLD.            : FIELD
LOC.            : LOCATION
SRVC.           : SERVICE COMPANY
DATE.  2018-09-11 14:49:03   : Log Export Date {yyyy-MM-dd HH:mm:ss}
PROV.           : PROVINCE
UWI.   36_7-3   : UNIQUE WELL ID
API.            : API NUMBER
#==================================================================
~Curve
DEPT .m                   : DEPTH
Lithology_geolink ._      : Lithology_geolink
CALI .in                  : CALI
DRHO .g/cm3               : DRHO
NPHI .m3/m3               : NPHI
RHOB .g/cm3               : RHOB
PEF .b/e                  : PEF
GR .gAPI                  : GR
DTC .us/ft                : DTC
RT .ohm.m               : RDEP
RMED .ohm.m               : RMED
~Parameter
#==================================================================
~Ascii
# ...
 2758.0314941 5.0000000000 7.5995001793 2.6325840950 0.1360999942 2.6325840950 2.6325840950 90.041900635 73.222312927 141.57519531 44.602500916
 2758.1838379 5.0000000000 7.5995001793 2.6114339828 0.1528999954 2.6114339828 2.6114339828 99.193298340 75.523307800 7.6159000397 6.6314001083
 2758.3361816 6.0000000000 7.5995001793 2.5942549706 0.1660999954 2.5942549706 2.5942549706 106.00029755 79.405548096 11.132800102 24.960899353
 2758.4887695 6.0000000000 7.5995001793 2.5819196701 0.1674000025 2.5819196701 2.5819196701 118.57869720 82.082717896 8.0332002640 10.227000237
 2758.6411133 6.0000000000 7.5995001793 2.5759096146 0.1774999946 2.5759096146 2.5759096146 120.01629639 83.074409485 7.5520000458 6.9468002319
 2758.7934570 7.0000000000 7.5995001793 2.5760998726 0.1880999953 2.5760998726 2.5760998726 127.05449677 83.463378906 7.9393000603 7.2244000435
 2758.9458008 7.0000000000 7.5995001793 2.5925474167 0.1660999954 2.5925474167 2.5925474167 131.38960266 83.666358948 4.6679000854 7.8372001648
 2759.0983887 7.0000000000 7.5995001793 2.6148643494 0.1940000057 2.6148643494 2.6148643494 135.75360107 83.167800903 5.1851000786 4.4123997688
 2759.2507324 7.0000000000 7.5995001793 2.6355669498 0.2092999965 2.6355669498 2.6355669498 136.80250549 82.110694885 4.5901999474 5.9380998611
 2759.4030762 7.0000000000 7.5995001793 2.6270139217 0.2906000018 2.6270139217 2.6270139217 133.16999817 80.941879272 6.2430000305 4.9138998985
 2759.5554199 7.0000000000 7.5995001793 2.6199114323 0.2730000019 2.6199114323 2.6199114323 125.41780090 80.819190979 19.435300827 19.252300262
 2759.7077637 7.0000000000 7.5995001793 2.6051473618 0.2770999968 2.6051473618 2.6051473618 125.39289856 82.471694946 5.5910000801 17.321500778
 2759.8603516 7.0000000000 7.5995001793 2.6124880314 0.2533000112 2.6124880314 2.6124880314 127.69059753 84.816246033 5.3920001984 5.8382000923
 2760.0126953 7.0000000000 7.5995001793 2.6156947613 0.2442999929 2.6156947613 2.6156947613 135.42889404 86.117919922 4.6163997650 5.2944998741
 2760.1650391 7.0000000000 7.5995001793 2.6136033535 0.2492000014 2.6136033535 2.6136033535 132.12750244 84.365814209 5.2266001701 7.8569998741
 2760.3173828 7.0000000000 7.5995001793 2.6026353836 0.2585999966 2.6026353836 2.6026353836 126.28589630 80.837318420 11.161700249 7.0275001526
 2760.4699707 7.0000000000 7.5995001793 2.5963099003 0.2380000055 2.5963099003 2.5963099003 123.62020111 78.672454834 6.6717000008 6.7734999657
 2760.6223145 6.0000000000 7.5995001793 2.5916075706 0.2100999951 2.5916075706 2.5916075706 123.24289703 77.967132568 6.4474000931 6.2442002296
 2760.7746582 6.0000000000 7.5995001793 2.5975904465 0.2014999986 2.5975904465 2.5975904465 118.42800140 77.265121460 7.2873997688 7.0564999580
 2760.9270020 6.0000000000 7.5995001793 2.6090633869 0.2016000003 2.6090633869 2.6090633869 110.15010071 76.290130615 10.454999924 16.950700760
 2761.0795898 6.0000000000 7.5995001793 2.6028099060 0.2054000050 2.6028099060 2.6028099060 109.43240356 75.773826599 11.502599716 15.171099663
 2761.2319336 6.0000000000 7.5995001793 2.5911190510 0.2026000023 2.5911190510 2.5911188126 118.10340118 76.473876953 7.4948000908 12.651800156
 2761.3842773 6.0000000000 7.5995001793 2.5883045197 0.2044000030 2.5883045197 2.5883045197 126.04530334 77.689048767 7.9133000374 9.0746002197
 2761.5366211 6.0000000000 7.5995001793 2.5856041908 0.1597999930 2.5856041908 2.5856041908 124.57129669 77.561203003 9.0698003769 6.5450000763
 2761.6889648 6.0000000000 7.5995001793 2.5895872116 0.1632000059 2.5895872116 2.5895872116 114.29570007 76.715713501 24.836700439 32.676601410
 2761.8415527 6.0000000000 7.5995001793 2.5833101273 0.1554999948 2.5833101273 2.5833101273 110.92250061 76.598182678 8.2753000259 10.512800217
 2761.9938965 6.0000000000 7.5995001793 2.5997736454 0.2010000050 2.5997736454 2.5997736454 113.29380035 77.041290283 8.8610000610 6.9475002289
 2762.1462402 7.0000000000 7.5995001793 2.6324474812 0.2030999959 2.6324474812 2.6324474812 120.89240265 78.106292725 12.128700256 5.9520998001
 2762.2985840 7.0000000000 7.5995001793 2.6548283100 0.2210000008 2.6548283100 2.6548283100 128.35389709 79.333068848 38.725498199 20.660200119
 2762.4511719 7.0000000000 7.5995001793 2.6509063244 0.2231999934 2.6509063244 2.6509063244 129.99420166 79.957000732 5.4453001022 6.1195001602
 2762.6035156 7.0000000000 7.5995001793 2.6240432262 0.2291000038 2.6240432262 2.6240432262 131.93389893 80.114746094 8.3718004227 8.9642000198
 2762.7558594 7.0000000000 7.5995001793 2.6089241505 0.2328000069 2.6089241505 2.6089241505 125.70649719 80.282730103 8.0158996582 7.0166997910
 2762.9082031 7.0000000000 7.5995001793 2.6055109501 0.2356999964 2.6055109501 2.6055109501 125.00599670 80.609947205 5.2284998894 7.6862001419
 2763.0607910 7.0000000000 7.5995001793 2.6015064716 0.2356999964 2.6015064716 2.6015064716 121.10610199 81.095222473 8.5359001160 9.2200002670
 2763.2131348 7.0000000000 7.5995001793 2.5865240097 0.2351000011 2.5865240097 2.5865240097 122.81379700 81.196838379 8.3543996811 8.2118997574
 2763.3654785 6.0000000000 7.5995001793 2.6050701141 0.2362000048 2.6050701141 2.6050701141 123.38169861 80.150680542 6.0576000214 6.5322999954
 2763.5178223 6.0000000000 7.5995001793 2.6151838303 0.2246000022 2.6151838303 2.6151838303 127.75000000 78.304962158 6.3474001884 5.9428000450
 2763.6701660 6.0000000000 7.5995001793 2.6338400841 0.2281000018 2.6338400841 2.6338400841 120.43450165 76.778892517 40.352500916 7.6312999725
 2763.8227539 6.0000000000 7.5995001793 2.6172266006 0.2122000009 2.6172266006 2.6172266006 114.57070160 76.312736511 33.236999512 58.943000793
 2763.9750977 6.0000000000 7.5995001793 2.6094124317 0.2142000049 2.6094124317 2.6094124317 111.67800140 76.115310669 7.1259999275 8.0532999039
 2764.1274414 6.0000000000 7.5995001793 2.5945239067 0.2134000063 2.5945239067 2.5945239067 119.68049622 75.420112610 8.0628004074 8.2354001999
 2764.2797852 6.0000000000 7.5995001793 2.6080563068 0.2295999974 2.6080563068 2.6080563068 125.23670197 74.705291748 7.6715998650 6.7262997627
 2764.4323730 6.0000000000 7.5995001793 2.6112947464 0.2366999984 2.6112947464 2.6112947464 120.81210327 74.256713867 8.9998998642 11.863200188
 2764.5847168 6.0000000000 7.5995001793 2.6352615356 0.2195000052 2.6352615356 2.6352615356 114.40599823 74.210075378 8.5768995285 8.6103000641
 2764.7370605 6.0000000000 7.5995001793 2.6213223934 0.2053000033 2.6213223934 2.6213223934 109.24089813 74.562438965 30.272800446 10.295700073
 2764.8894043 6.0000000000 7.5995001793 2.6233932972 0.1867000014 2.6233932972 2.6233932972 109.29720306 75.377380371 4.8326997757 7.5029997826
 2765.0419922 6.0000000000 7.5995001793 2.5996382236 0.1796000004 2.5996382236 2.5996382236 106.97370148 77.344848633 14.180800438 16.434000015
 2765.1943359 6.0000000000 7.5995001793 2.5408942699 0.1819999963 2.5408942699 2.5408942699 104.42590332 80.252342224 7.5563001633 15.309100151
 2765.3466797 6.0000000000 7.5995001793 2.4979686737 0.1884000003 2.4979686737 2.4979686737 103.98770142 82.339660645 9.6567001343 8.8219003677
 2765.4990234 6.0000000000 7.5995001793 2.4885151386 0.2055999935 2.4885151386 2.4885151386 111.40489960 82.950019836 3.0801999569 6.5492000580
 2765.6516113 6.0000000000 7.5995001793 2.5352251530 0.2152999938 2.5352251530 2.5352251530 115.52400208 82.492729187 3.6540000439 4.2170000076
 2765.8039551 6.0000000000 7.5995001793 2.5703437328 0.2354000062 2.5703437328 2.5703437328 120.39399719 81.089248657 4.3975000381 4.6126999855
 2765.9562988 6.0000000000 7.5995001793 2.5676045418 0.2391999960 2.5676045418 2.5676045418 118.71469879 79.536483765 5.4327998161 4.5155000687
 2766.1086426 6.0000000000 7.5995001793 2.5507271290 0.2316000015 2.5507271290 2.5507271290 116.70899963 77.501266479 6.5121002197 5.5668997765
 2766.2609863 6.0000000000 7.5995001793 2.5512981415 0.2085999995 2.5512981415 2.5512981415 114.78630066 73.497840881 6.2409000397 4.7610998154
 2766.4135742 6.0000000000 7.5995001793 2.5728654861 0.1775999963 2.5728654861 2.5728654861 109.78029633 69.507385254 6.6978001595 6.6012001038
