# LAS format log file from PETREL
# Project units are specified as depth units
#==================================================================
~Version information
VERS.   2.0:
WRAP.   NO:
#==================================================================
~Well
STRT .ft        7935.0 :
STOP .ft        8390.0 :
STEP .ft        0.5    :
NULL .          -999.25  :
COMP.           : COMPANY
WELL.  HW-29    : WELL
FLD.   COSTA    : FIELD
LOC.            : LOCATION
SRVC.           : SERVICE COMPANY
DATE.  2018-02-06 14:55:42   : Log Export Date {yyyy-MM-dd HH:mm:ss}
PROV.           : PROVINCE
UWI.   HW-29    : UNIQUE WELL ID
API.            : API NUMBER
#==================================================================
~Curve
DEPT .ft                  : DEPTH
GR .gAPI                  : GR
RHOB .g/cm3               : RHOB
NPHI .ft3/ft3             : NPHI
DT .us/ft                 : DT
PHIE .ft3/ft3             : PHIE
RT .ohm.m                 : RT
SW .                      : SW
SO . 			  : SO
CORE_POR .ft3/ft3         : CORE_POR
CORE_PERM .mD             : CORE_PERM
~Parameter
#==================================================================
~Ascii
# ...
8356.0	10.79	2.22	0.25	-999.25	0.30	19.25	0.09	0.91	31.50	5.75
8356.5	10.46	2.21	0.26	-999.25	0.31	19.42	0.09	0.91	31.90	5.90
8357.0	10.07	2.21	0.28	-999.25	0.31	19.54	0.09	0.91	31.08	5.57
8357.5	10.05	2.21	0.28	-999.25	0.31	19.55	0.09	0.91	30.41	5.33
8358.0	10.61	2.22	0.28	-999.25	0.31	19.66	0.09	0.91	30.46	5.53
8358.5	11.37	2.22	0.27	-999.25	0.31	19.85	0.09	0.91	30.50	5.70
8359.0	11.90	2.22	0.27	-999.25	0.30	20.14	0.09	0.91	30.50	5.70
8359.5	12.02	2.20	0.27	-999.25	0.31	20.33	0.09	0.91	30.27	5.73
8360.0	12.22	2.19	0.28	-999.25	0.32	20.41	0.09	0.91	29.93	5.77
8360.5	11.95	2.18	0.28	-999.25	0.32	20.15	0.09	0.91	30.06	6.22
8361.0	11.05	2.18	0.28	-999.25	0.32	19.74	0.09	0.91	31.13	7.46
8361.5	10.04	2.19	0.27	-999.25	0.32	19.27	0.09	0.91	32.20	8.70
8362.0	9.39	2.20	0.27	-999.25	0.32	18.42	0.09	0.91	32.34	7.59
8362.5	9.53	2.21	0.27	-999.25	0.32	16.97	0.09	0.91	32.48	6.48
8363.0	9.89	2.21	0.27	-999.25	0.32	15.43	0.10	0.90	32.09	6.94
8363.5	10.14	2.21	0.27	-999.25	0.32	13.77	0.10	0.90	31.60	7.70
8364.0	10.22	2.21	0.27	-999.25	0.31	12.22	0.11	0.89	30.88	6.54
8364.5	10.23	2.21	0.26	-999.25	0.31	10.83	0.12	0.88	30.16	5.38
8365.0	10.19	2.23	0.25	-999.25	0.29	9.62	0.13	0.87	29.20	4.41
8365.5	9.87	2.25	0.23	-999.25	0.28	8.78	0.15	0.85	27.95	3.67
8366.0	9.54	2.27	0.22	-999.25	0.27	8.63	0.16	0.84	26.62	2.98
8366.5	9.27	2.29	0.22	-999.25	0.26	8.85	0.16	0.84	25.30	2.30
8367.0	8.77	2.30	0.23	-999.25	0.26	8.35	0.16	0.84	25.52	2.46
8367.5	8.08	2.30	0.23	-999.25	0.26	6.90	0.18	0.82	25.69	2.64
8368.0	8.01	2.30	0.23	-999.25	0.26	5.53	0.20	0.80	25.59	2.92
8368.5	8.77	2.29	0.24	-999.25	0.26	4.52	0.22	0.78	25.50	3.20
8369.0	9.74	2.28	0.24	-999.25	0.27	4.35	0.22	0.78	25.48	3.35
8369.5	10.09	2.28	0.25	-999.25	0.27	4.14	0.23	0.77	25.45	3.50
8370.0	10.09	2.28	0.24	-999.25	0.26	4.97	0.21	0.79	25.42	3.65
8370.5	10.14	2.29	0.22	-999.25	0.25	5.39	0.21	0.79	25.40	3.80
8371.0	10.09	2.30	0.21	-999.25	0.24	5.91	0.21	0.79	23.39	2.85
8371.5	9.99	2.32	0.19	-999.25	0.23	6.39	0.21	0.79	21.39	1.89
8372.0	9.92	2.33	0.18	-999.25	0.21	6.85	0.22	0.78	19.38	0.94
8372.5	10.45	2.34	0.17	-999.25	0.20	8.66	0.20	0.80	17.31	0.13
8373.0	11.34	2.35	0.16	-999.25	0.19	7.66	0.23	0.77	-999.25	-999.25
8373.5	12.25	2.36	0.15	-999.25	0.17	5.70	0.30	0.70	-999.25	-999.25
8374.0	12.96	2.39	0.13	-999.25	0.15	4.70	0.38	0.62	-999.25	-999.25
8374.5	14.17	2.42	0.10	-999.25	0.12	4.81	0.48	0.52	-999.25	-999.25
8375.0	19.15	2.47	0.07	-999.25	0.09	4.69	0.64	0.36	-999.25	-999.25
8375.5	28.93	2.52	0.06	-999.25	0.07	5.07	0.81	0.19	-999.25	-999.25
8376.0	38.75	2.58	0.06	-999.25	0.05	6.64	0.96	0.04	-999.25	-999.25
8376.5	43.27	2.65	0.05	-999.25	0.04	9.06	-999.25	-999.25	-999.25	-999.25
8377.0	41.08	2.69	0.04	-999.25	0.03	11.31	-999.25	-999.25	-999.25	-999.25
8377.5	34.48	2.72	0.03	-999.25	0.03	13.85	-999.25	-999.25	-999.25	-999.25
8378.0	26.67	2.72	0.02	-999.25	0.03	15.76	-999.25	-999.25	-999.25	-999.25
8378.5	19.79	2.70	0.02	-999.25	0.02	15.64	-999.25	-999.25	-999.25	-999.25
8379.0	15.52	2.70	0.01	-999.25	0.01	17.17	-999.25	-999.25	-999.25	-999.25
8379.5	13.48	2.70	0.01	-999.25	0.02	19.15	-999.25	-999.25	-999.25	-999.25
8380.0	12.70	2.70	0.01	-999.25	0.02	19.90	-999.25	-999.25	-999.25	-999.25
8380.5	13.49	2.69	0.01	-999.25	0.02	20.27	-999.25	-999.25	-999.25	-999.25
8381.0	15.74	2.69	0.01	-999.25	0.02	20.38	-999.25	-999.25	-999.25	-999.25
8381.5	19.14	2.68	0.01	-999.25	0.02	20.27	-999.25	-999.25	-999.25	-999.25
8382.0	23.59	2.68	0.01	-999.25	0.02	18.77	-999.25	-999.25	-999.25	-999.25
8382.5	28.65	2.68	0.02	-999.25	0.02	15.28	-999.25	-999.25	-999.25	-999.25
8383.0	33.48	2.70	0.03	-999.25	0.03	12.60	-999.25	-999.25	-999.25	-999.25
8383.5	36.00	2.71	0.04	-999.25	0.03	10.81	-999.25	-999.25	-999.25	-999.25
8384.0	34.54	2.72	0.04	-999.25	0.03	9.62	-999.25	-999.25	-999.25	-999.25
8384.5	29.66	2.73	0.03	-999.25	0.01	10.32	-999.25	-999.25	-999.25	-999.25
8385.0	24.13	2.72	0.02	-999.25	0.00	12.23	-999.25	-999.25	-999.25	-999.25
8385.5	21.40	2.72	0.02	-999.25	0.01	13.73	-999.25	-999.25	-999.25	-999.25
8386.0	22.42	2.71	0.02	-999.25	0.01	13.54	-999.25	-999.25	-999.25	-999.25
8386.5	25.62	2.71	0.02	-999.25	0.01	12.48	-999.25	-999.25	-999.25	-999.25
8387.0	28.30	2.71	0.02	-999.25	0.01	11.21	-999.25	-999.25	-999.25	-999.25
8387.5	29.10	2.71	0.03	-999.25	0.00	9.73	-999.25	-999.25	-999.25	-999.25
8388.0	28.50	2.71	0.02	-999.25	0.01	9.69	-999.25	-999.25	-999.25	-999.25
8388.5	26.34	2.72	0.02	-999.25	0.01	12.68	-999.25	-999.25	-999.25	-999.25
8389.0	22.89	2.72	0.01	-999.25	0.02	17.75	-999.25	-999.25	-999.25	-999.25
8389.5	20.11	2.72	0.01	-999.25	0.01	23.39	-999.25	-999.25	-999.25	-999.25
8390.0	20.01	2.71	0.01	-999.25	0.01	23.30	-999.25	-999.25	-999.25	-999.25
