# LAS format log file from PETREL
# Project units are specified as depth units
#==================================================================
~Version information
VERS.   2.0:
WRAP.   NO:
#==================================================================
~Well
STRT .ft        7935.0 :
STOP .ft        8390.0 :
STEP .ft        0.5    :
NULL .          -999.25  :
COMP.           : COMPANY
WELL.  HW-29    : WELL
FLD.   COSTA    : FIELD
LOC.            : LOCATION
SRVC.           : SERVICE COMPANY
DATE.  2018-02-06 14:55:42   : Log Export Date {yyyy-MM-dd HH:mm:ss}
PROV.           : PROVINCE
UWI.   HW-29    : UNIQUE WELL ID
API.            : API NUMBER
#==================================================================
~Curve
DEPT .ft                  : DEPTH
GR .gAPI                  : GR
RHOB .g/cm3               : RHOB
NPHI .ft3/ft3             : NPHI
DT .us/ft                 : DT
PHIE .ft3/ft3             : PHIE
RT .ohm.m                 : RT
SW .                      : SW
SO . 			  : SO
CORE_POR .ft3/ft3         : CORE_POR
CORE_PERM .mD             : CORE_PERM
~Parameter
#==================================================================
~Ascii
8168.0	34.05	2.72	0.03	-999.25	0.00	14.49	-999.25	-999.25	1.30	0.06
8168.5	34.63	2.72	0.03	-999.25	0.00	15.10	-999.25	-999.25	0.34	0.02
8169.0	34.52	2.72	0.03	-999.25	0.00	15.33	-999.25	-999.25	0.65	0.01
8169.5	34.28	2.73	0.02	-999.25	0.00	16.06	-999.25	-999.25	1.11	0.01
8170.0	33.95	2.73	0.02	-999.25	0.01	17.48	-999.25	-999.25	1.20	0.01
8170.5	32.38	2.74	0.02	-999.25	0.02	18.03	-999.25	-999.25	1.29	0.01
8171.0	28.98	2.74	0.02	-999.25	0.02	17.56	-999.25	-999.25	1.55	0.02
8171.5	26.59	2.73	0.02	-999.25	0.01	17.07	-999.25	-999.25	1.85	0.03
8172.0	27.34	2.72	0.02	-999.25	0.00	16.02	-999.25	-999.25	1.90	0.17
8172.5	29.48	2.71	0.03	-999.25	0.01	14.57	-999.25	-999.25	1.90	0.34
8173.0	30.56	2.72	0.04	-999.25	0.02	13.62	-999.25	-999.25	1.47	0.16
8173.5	29.63	2.73	0.04	-999.25	0.04	13.36	0.76	0.24	1.16	0.01
8174.0	28.11	2.73	0.04	-999.25	0.04	13.55	0.80	0.20	1.53	0.03
8174.5	27.41	2.73	0.04	-999.25	0.02	13.61	-999.25	-999.25	1.90	0.05
8175.0	28.55	2.72	0.04	-999.25	0.01	13.77	-999.25	-999.25	1.52	0.03
8175.5	31.37	2.72	0.03	-999.25	0.00	14.66	-999.25	-999.25	1.15	0.01
8176.0	33.81	2.72	0.03	-999.25	0.00	16.47	-999.25	-999.25	0.86	0.02
8176.5	34.05	2.72	0.03	-999.25	0.00	19.60	-999.25	-999.25	0.56	0.02
8177.0	31.98	2.72	0.03	-999.25	0.01	24.10	-999.25	-999.25	0.55	0.02
8177.5	29.61	2.72	0.02	-999.25	0.02	29.63	-999.25	-999.25	0.64	0.01
8178.0	28.37	2.72	0.02	-999.25	0.02	33.39	-999.25	-999.25	0.94	0.02
8178.5	29.50	2.72	0.02	-999.25	0.02	33.10	-999.25	-999.25	1.15	0.02
8179.0	32.43	2.71	0.02	-999.25	0.02	31.72	-999.25	-999.25	0.83	0.02
8179.5	34.47	2.72	0.02	-999.25	0.03	32.81	0.74	0.26	0.51	0.02
8180.0	33.83	2.73	0.02	-999.25	0.04	33.44	0.60	0.40	1.57	0.10
8180.5	30.37	2.74	0.03	-999.25	0.04	35.55	0.51	0.49	2.63	0.18
8181.0	26.36	2.74	0.04	-999.25	0.05	33.45	0.43	0.57	6.79	0.70
8181.5	23.77	2.71	0.06	-999.25	0.06	30.86	0.40	0.60	11.54	1.30
8182.0	23.91	2.66	0.06	-999.25	0.05	30.99	0.41	0.59	7.00	0.77
8182.5	27.00	2.61	0.04	-999.25	0.04	29.89	0.50	0.50	0.68	0.02
8183.0	30.07	2.60	0.02	-999.25	0.03	29.15	0.77	0.23	1.94	0.03
8183.5	30.63	2.63	0.01	-999.25	0.02	27.97	-999.25	-999.25	3.20	0.03
8184.0	29.46	2.66	0.01	-999.25	0.02	30.02	-999.25	-999.25	1.86	0.04
8184.5	29.34	2.68	0.02	-999.25	0.02	37.70	-999.25	-999.25	1.26	0.05
8185.0	30.49	2.68	0.02	-999.25	0.02	43.97	0.77	0.23	2.07	0.04
8185.5	30.10	2.69	0.03	-999.25	0.04	35.77	0.48	0.52	5.74	7.86
8186.0	27.32	2.67	0.06	-999.25	0.08	37.74	0.25	0.75	9.96	17.18
8186.5	23.56	2.61	0.11	-999.25	0.13	30.32	0.17	0.83	14.15	26.08
8187.0	21.02	2.53	0.16	-999.25	0.18	25.33	0.13	0.87	18.21	32.81
8187.5	20.17	2.43	0.21	-999.25	0.23	21.18	0.12	0.88	22.27	39.54
8188.0	19.59	2.34	0.24	-999.25	0.26	18.86	0.11	0.89	26.34	46.27
8188.5	18.43	2.27	0.25	-999.25	0.28	17.99	0.10	0.90	30.40	53.00
8189.0	16.83	2.23	0.25	-999.25	0.29	18.25	0.10	0.90	30.10	62.00
8189.5	16.25	2.22	0.25	-999.25	0.30	20.45	0.09	0.91	29.80	71.00
8190.0	17.70	2.21	0.26	-999.25	0.30	23.78	0.08	0.92	28.45	186.00
8190.5	20.13	2.21	0.25	-999.25	0.29	25.54	0.08	0.92	27.10	301.00
8191.0	21.43	2.22	0.23	-999.25	0.27	26.47	0.09	0.91	28.63	572.33
8191.5	20.96	2.22	0.21	-999.25	0.25	26.68	0.09	0.91	26.51	502.58
8192.0	19.70	2.24	0.21	-999.25	0.25	26.98	0.10	0.90	20.73	91.73
8192.5	18.85	2.26	0.21	-999.25	0.24	29.01	0.09	0.91	19.44	21.80
8193.0	18.42	2.28	0.19	-999.25	0.23	32.94	0.09	0.91	19.00	16.80
8193.5	17.72	2.31	0.18	-999.25	0.21	37.70	0.10	0.90	18.57	11.80
8194.0	16.32	2.34	0.17	-999.25	0.19	40.58	0.10	0.90	19.17	7.92
8194.5	14.57	2.36	0.15	-999.25	0.18	38.82	0.11	0.89	19.16	4.91
8195.0	13.51	2.39	0.14	-999.25	0.17	35.07	0.12	0.88	17.58	3.16
8195.5	13.63	2.43	0.14	-999.25	0.17	31.02	0.13	0.87	15.99	1.42
8196.0	14.44	2.45	0.15	-999.25	0.18	28.06	0.13	0.87	15.88	32.05
8196.5	15.29	2.45	0.16	-999.25	0.18	30.08	0.13	0.87	17.24	95.04
8197.0	15.99	2.43	0.15	-999.25	0.16	37.92	0.12	0.88	18.60	158.03
8197.5	15.79	2.44	0.12	-999.25	0.14	48.60	0.12	0.88	19.96	221.03
8198.0	14.29	2.47	0.11	-999.25	0.14	57.08	0.12	0.88	21.32	284.02
8198.5	12.59	2.48	0.13	-999.25	0.16	55.33	0.10	0.90	22.68	347.01
8199.0	11.57	2.45	0.18	-999.25	0.21	42.90	0.09	0.91	24.04	410.01
8199.5	10.69	2.38	0.22	-999.25	0.26	33.53	0.08	0.92	25.40	473.00
8200.0	9.46	2.31	0.25	-999.25	0.29	28.59	0.08	0.92	28.73	318.37
8200.5	8.90	2.25	0.26	-999.25	0.31	26.72	0.08	0.92	32.07	163.74
8201.0	10.04	2.20	0.27	-999.25	0.32	28.91	0.07	0.93	30.75	222.50
8201.5	12.03	2.17	0.27	-999.25	0.32	30.98	0.07	0.93	29.02	276.77
8202.0	13.24	2.17	0.26	-999.25	0.31	30.61	0.07	0.93	29.75	94.11
8202.5	12.97	2.19	0.25	-999.25	0.30	30.08	0.07	0.93	29.96	47.40
8203.0	12.14	2.20	0.25	-999.25	0.30	30.15	0.07	0.93	29.89	70.73
8203.5	11.90	2.19	0.26	-999.25	0.31	29.81	0.07	0.93	29.82	94.07
8204.0	12.04	2.17	0.27	-999.25	0.32	29.52	0.07	0.93	30.77	130.45
8204.5	11.40	2.17	0.26	-999.25	0.31	31.35	0.07	0.93	30.18	252.80
8205.0	9.61	2.18	0.25	-999.25	0.30	33.36	0.07	0.93	27.54	454.40
8205.5	8.02	2.22	0.24	-999.25	0.29	32.92	0.07	0.93	24.90	656.00
8206.0	8.34	2.22	0.25	-999.25	0.29	31.44	0.08	0.92	28.28	620.10
8206.5	10.43	2.22	0.25	-999.25	0.29	29.87	0.08	0.92	31.65	584.21
8207.0	12.16	2.20	0.25	-999.25	0.30	28.79	0.08	0.92	33.36	395.87
8207.5	12.26	2.17	0.27	-999.25	0.31	28.99	0.07	0.93	34.20	129.00
8208.0	11.24	2.17	0.27	-999.25	0.32	29.50	0.07	0.93	31.05	72.01
8208.5	10.25	2.18	0.26	-999.25	0.31	29.67	0.07	0.93	27.90	15.02
8209.0	9.53	2.20	0.25	-999.25	0.29	29.63	0.08	0.92	29.30	9.95
8209.5	8.91	2.21	0.24	-999.25	0.29	29.84	0.08	0.92	30.64	27.78
8210.0	8.99	2.20	0.25	-999.25	0.29	30.11	0.08	0.92	27.15	113.93
8210.5	9.40	2.18	0.26	-999.25	0.30	32.15	0.07	0.93	27.00	134.80
8211.0	9.33	2.17	0.26	-999.25	0.30	35.67	0.07	0.93	30.20	90.40
8211.5	8.63	2.17	0.25	-999.25	0.30	40.91	0.06	0.94	33.40	46.00
8212.0	7.93	2.19	0.24	-999.25	0.29	47.41	0.06	0.94	34.00	35.67
8212.5	7.87	2.22	0.24	-999.25	0.29	53.36	0.06	0.94	33.97	27.81
8213.0	7.99	2.23	0.25	-999.25	0.30	57.30	0.05	0.95	30.63	32.91
8213.5	7.99	2.22	0.26	-999.25	0.30	60.97	0.05	0.95	27.30	38.00
8214.0	8.11	2.19	0.25	-999.25	0.30	65.64	0.05	0.95	27.97	24.00
8214.5	8.55	2.17	0.25	-999.25	0.30	72.08	0.05	0.95	28.66	24.05
8215.0	9.25	2.18	0.25	-999.25	0.30	77.93	0.05	0.95	29.39	38.15
8215.5	9.82	2.19	0.26	-999.25	0.30	82.98	0.04	0.96	29.46	47.41
8216.0	10.08	2.20	0.26	-999.25	0.31	86.81	0.04	0.96	26.08	31.20
8216.5	10.54	2.20	0.27	-999.25	0.31	88.16	0.04	0.96	22.70	15.00
8217.0	11.26	2.19	0.27	-999.25	0.31	90.50	0.04	0.96	24.32	15.00
8217.5	11.73	2.19	0.27	-999.25	0.31	92.90	0.04	0.96	25.94	15.00
8218.0	11.32	2.19	0.27	-999.25	0.31	94.72	0.04	0.96	31.68	30.52
8218.5	10.53	2.19	0.27	-999.25	0.31	95.61	0.04	0.96	38.20	49.00
8219.0	10.40	2.18	0.27	-999.25	0.31	94.90	0.04	0.96	37.71	35.41
8219.5	10.56	2.17	0.28	-999.25	0.32	91.78	0.04	0.96	36.48	35.12
8220.0	10.39	2.18	0.28	-999.25	0.32	88.68	0.04	0.96	31.33	104.62
8220.5	10.09	2.18	0.27	-999.25	0.32	85.51	0.04	0.96	27.22	156.30
8221.0	10.39	2.18	0.27	-999.25	0.32	83.45	0.04	0.96	28.60	114.46
8221.5	10.83	2.18	0.27	-999.25	0.32	81.25	0.04	0.96	29.99	72.62
8222.0	10.51	2.18	0.28	-999.25	0.33	77.09	0.04	0.96	-999.25	-999.25
8222.5	9.82	2.17	0.28	-999.25	0.33	70.77	0.04	0.96	-999.25	-999.25
8223.0	10.06	2.16	0.28	-999.25	0.33	62.60	0.05	0.95	-999.25	-999.25
8223.5	11.57	2.15	0.28	-999.25	0.33	55.40	0.05	0.95	21.81	30.37
8224.0	13.28	2.14	0.27	-999.25	0.31	49.84	0.06	0.94	28.14	151.46
8224.5	14.18	2.15	0.25	-999.25	0.30	46.10	0.06	0.94	31.36	170.97
8225.0	14.04	2.15	0.25	-999.25	0.30	43.35	0.06	0.94	31.49	88.92
8225.5	13.26	2.15	0.25	-999.25	0.30	41.62	0.06	0.94	31.34	33.95
8226.0	12.31	2.15	0.27	-999.25	0.31	39.68	0.06	0.94	29.70	121.15
8226.5	11.51	2.16	0.28	-999.25	0.33	38.18	0.06	0.94	28.06	208.35
8227.0	11.15	2.16	0.28	-999.25	0.33	38.21	0.06	0.94	27.68	143.84
8227.5	11.69	2.17	0.27	-999.25	0.31	40.05	0.06	0.94	28.46	24.67
8228.0	12.88	2.18	0.25	-999.25	0.30	43.11	0.06	0.94	31.95	28.89
8228.5	13.76	2.19	0.25	-999.25	0.29	43.94	0.06	0.94	32.86	25.88
8229.0	13.71	2.21	0.25	-999.25	0.30	41.35	0.06	0.94	31.17	15.64
8229.5	13.23	2.21	0.27	-999.25	0.31	36.75	0.07	0.93	31.40	42.39
