# LAS format log file from PETREL
# Project units are specified as depth units
#==================================================================
~Version information
VERS.   2.0:
WRAP.   NO:
#==================================================================
~Well
STRT .ft        7935.0 :
STOP .ft        8390.0 :
STEP .ft        0.5    :
NULL .          -999.25  :
COMP.           : COMPANY
WELL.  HW-29    : WELL
FLD.   COSTA    : FIELD
LOC.            : LOCATION
SRVC.           : SERVICE COMPANY
DATE.  2018-02-06 14:55:42   : Log Export Date {yyyy-MM-dd HH:mm:ss}
PROV.           : PROVINCE
UWI.   HW-29    : UNIQUE WELL ID
API.            : API NUMBER
#==================================================================
~Curve
DEPT .ft                  : DEPTH
GR .gAPI                  : GR
RHOB .g/cm3               : RHOB
NPHI .ft3/ft3             : NPHI
DT .us/ft                 : DT
PHIE .ft3/ft3             : PHIE
RT .ohm.m                 : RT
SW .                      : SW
SO . 			  : SO
CORE_POR .ft3/ft3         : CORE_POR
CORE_PERM .mD             : CORE_PERM
~Parameter
#==================================================================
~Ascii
# ...
8230.0	13.36	2.20	0.27	-999.25	0.31	34.16	0.07	0.93	32.00	76.20
8230.5	13.69	2.19	0.27	-999.25	0.31	33.83	0.07	0.93	32.60	110.00
8231.0	13.10	2.19	0.27	-999.25	0.31	35.13	0.07	0.93	33.90	100.76
8231.5	11.52	2.19	0.26	-999.25	0.31	36.16	0.06	0.94	34.63	89.48
8232.0	9.62	2.17	0.27	-999.25	0.32	35.19	0.06	0.94	32.32	67.51
8232.5	8.79	2.15	0.28	-999.25	0.33	32.61	0.06	0.94	30.88	222.80
8233.0	9.34	2.13	0.29	-999.25	0.34	31.37	0.06	0.94	31.12	722.20
8233.5	10.86	2.13	0.29	-999.25	0.34	32.41	0.06	0.94	31.88	707.42
8234.0	12.39	2.15	0.27	-999.25	0.32	34.06	0.07	0.93	32.92	427.75
8234.5	12.87	2.17	0.25	-999.25	0.30	35.42	0.07	0.93	33.95	148.09
8235.0	12.68	2.19	0.25	-999.25	0.30	35.42	0.07	0.93	34.54	53.00
8235.5	12.48	2.19	0.26	-999.25	0.31	33.51	0.07	0.93	34.90	53.00
8236.0	12.54	2.19	0.28	-999.25	0.32	32.56	0.07	0.93	36.31	53.00
8236.5	12.22	2.18	0.29	-999.25	0.33	32.54	0.06	0.94	37.72	53.00
8237.0	11.15	2.17	0.28	-999.25	0.33	33.18	0.06	0.94	35.85	176.65
8237.5	10.34	2.17	0.28	-999.25	0.33	35.44	0.06	0.94	32.30	364.00
8238.0	10.07	2.17	0.28	-999.25	0.33	38.58	0.06	0.94	33.12	180.85
8238.5	9.62	2.17	0.27	-999.25	0.32	39.99	0.06	0.94	33.58	28.12
8239.0	8.75	2.16	0.27	-999.25	0.33	38.94	0.06	0.94	32.18	35.12
8239.5	8.29	2.16	0.28	-999.25	0.33	36.41	0.06	0.94	31.10	39.22
8240.0	9.08	2.16	0.28	-999.25	0.34	33.80	0.06	0.94	31.75	28.11
8240.5	10.24	2.16	0.29	-999.25	0.34	32.85	0.06	0.94	32.40	17.00
8241.0	10.90	2.15	0.29	-999.25	0.34	32.84	0.06	0.94	28.68	19.99
8241.5	10.99	2.15	0.29	-999.25	0.34	33.36	0.06	0.94	24.96	22.98
8242.0	10.48	2.15	0.27	-999.25	0.32	33.83	0.07	0.93	29.60	32.50
8242.5	10.25	2.16	0.26	-999.25	0.31	33.79	0.07	0.93	35.41	36.01
8243.0	10.78	2.18	0.26	-999.25	0.31	33.49	0.07	0.93	35.14	21.35
8243.5	11.56	2.19	0.26	-999.25	0.31	33.36	0.07	0.93	35.28	19.79
8244.0	11.51	2.20	0.25	-999.25	0.30	34.09	0.07	0.93	35.51	20.74
8244.5	10.54	2.20	0.26	-999.25	0.31	36.16	0.07	0.93	35.73	21.68
8245.0	10.02	2.20	0.27	-999.25	0.32	38.52	0.06	0.94	35.80	-999.25
8245.5	10.20	2.20	0.29	-999.25	0.33	40.06	0.06	0.94	35.34	-999.25
8246.0	10.46	2.20	0.28	-999.25	0.33	43.93	0.06	0.94	32.49	-999.25
8246.5	10.47	2.20	0.28	-999.25	0.33	47.14	0.05	0.95	30.58	18.26
8247.0	10.37	2.19	0.29	-999.25	0.34	49.11	0.05	0.95	33.61	19.91
8247.5	10.21	2.18	0.30	-999.25	0.35	49.73	0.05	0.95	34.56	19.40
8248.0	10.11	2.18	0.29	-999.25	0.34	49.38	0.05	0.95	31.50	14.70
8248.5	10.40	2.18	0.28	-999.25	0.34	48.27	0.05	0.95	28.44	10.00
8249.0	10.88	2.19	0.29	-999.25	0.34	46.49	0.05	0.95	30.38	16.99
8249.5	11.07	2.19	0.29	-999.25	0.34	44.17	0.05	0.95	34.90	30.00
8250.0	10.71	2.19	0.29	-999.25	0.34	41.68	0.06	0.94	34.41	23.98
8250.5	10.21	2.19	0.28	-999.25	0.33	40.08	0.06	0.94	33.92	17.97
8251.0	10.55	2.19	0.29	-999.25	0.33	40.46	0.06	0.94	32.56	-999.25
8251.5	12.01	2.20	0.27	-999.25	0.32	42.68	0.06	0.94	29.50	-999.25
8252.0	13.42	2.22	0.26	-999.25	0.31	45.31	0.06	0.94	32.27	-999.25
8252.5	13.56	2.23	0.26	-999.25	0.30	46.73	0.06	0.94	34.43	54.68
8253.0	12.84	2.22	0.26	-999.25	0.30	46.10	0.06	0.94	33.35	33.90
8253.5	12.62	2.19	0.26	-999.25	0.31	46.03	0.06	0.94	32.27	13.12
8254.0	13.00	2.17	0.27	-999.25	0.31	44.16	0.06	0.94	30.95	8.25
8254.5	12.64	2.17	0.27	-999.25	0.32	44.10	0.06	0.94	30.03	7.52
8255.0	11.33	2.19	0.27	-999.25	0.31	42.88	0.06	0.94	31.46	12.63
8255.5	10.01	2.20	0.27	-999.25	0.31	42.74	0.06	0.94	32.49	16.89
8256.0	9.46	2.21	0.28	-999.25	0.31	43.12	0.06	0.94	32.75	19.50
8256.5	9.35	2.22	0.27	-999.25	0.31	43.73	0.06	0.94	33.01	22.11
8257.0	8.90	2.23	0.27	-999.25	0.31	44.85	0.06	0.94	32.18	27.28
8257.5	8.38	2.24	0.27	-999.25	0.31	46.90	0.06	0.94	30.79	33.76
8258.0	8.69	2.24	0.26	-999.25	0.30	50.29	0.06	0.94	30.75	23.85
8258.5	10.13	2.24	0.26	-999.25	0.30	53.91	0.05	0.95	31.26	7.01
8259.0	11.40	2.24	0.27	-999.25	0.31	56.40	0.05	0.95	30.24	8.49
8259.5	11.86	2.24	0.27	-999.25	0.31	57.99	0.05	0.95	30.70	10.14
8260.0	12.12	2.23	0.27	-999.25	0.32	57.53	0.05	0.95	31.90	11.86
8260.5	12.49	2.22	0.27	-999.25	0.32	56.48	0.05	0.95	32.86	12.26
8261.0	12.39	2.22	0.28	-999.25	0.33	56.53	0.05	0.95	33.33	10.08
8261.5	11.56	2.21	0.29	-999.25	0.34	57.59	0.05	0.95	33.80	7.90
8262.0	11.18	2.20	0.29	-999.25	0.34	59.61	0.05	0.95	33.26	9.58
8262.5	11.81	2.18	0.30	-999.25	0.34	61.94	0.05	0.95	32.85	10.90
8263.0	12.63	2.18	0.30	-999.25	0.34	62.74	0.05	0.95	33.15	10.30
8263.5	12.58	2.18	0.29	-999.25	0.34	59.92	0.05	0.95	32.88	9.97
8264.0	11.83	2.19	0.29	-999.25	0.33	54.64	0.05	0.95	32.03	9.92
8264.5	11.52	2.20	0.28	-999.25	0.33	48.29	0.05	0.95	32.04	-999.25
8265.0	11.96	2.19	0.29	-999.25	0.33	43.87	0.06	0.94	32.92	-999.25
8265.5	12.60	2.20	0.29	-999.25	0.33	39.81	0.06	0.94	33.80	-999.25
8266.0	12.59	2.21	0.29	-999.25	0.32	37.13	0.06	0.94	33.30	-999.25
8266.5	11.94	2.22	0.27	-999.25	0.32	35.78	0.06	0.94	32.80	26.00
8267.0	11.30	2.22	0.28	-999.25	0.32	34.81	0.06	0.94	33.78	22.24
8267.5	10.94	2.20	0.29	-999.25	0.33	33.99	0.06	0.94	34.75	18.48
8268.0	10.92	2.19	0.30	-999.25	0.34	32.97	0.06	0.94	35.42	16.41
8268.5	11.25	2.17	0.30	-999.25	0.34	31.77	0.06	0.94	35.48	17.61
8269.0	11.24	2.17	0.28	-999.25	0.33	31.00	0.07	0.93	35.54	18.81
8269.5	10.29	2.17	0.27	-999.25	0.32	30.93	0.07	0.93	35.60	20.01
8270.0	8.84	2.19	0.27	-999.25	0.32	31.09	0.07	0.93	35.66	21.21
8270.5	7.94	2.19	0.28	-999.25	0.33	31.58	0.07	0.93	35.02	19.47
8271.0	7.76	2.19	0.28	-999.25	0.33	32.05	0.07	0.93	33.02	12.02
8271.5	7.44	2.18	0.28	-999.25	0.33	32.70	0.07	0.93	-999.25	-999.25
8272.0	6.81	2.18	0.28	-999.25	0.33	34.33	0.06	0.94	-999.25	-999.25
8272.5	6.81	2.19	0.28	-999.25	0.33	36.96	0.06	0.94	-999.25	-999.25
8273.0	7.90	2.19	0.29	-999.25	0.34	39.90	0.06	0.94	-999.25	-999.25
8273.5	9.23	2.19	0.30	-999.25	0.34	42.61	0.06	0.94	-999.25	-999.25
8274.0	10.06	2.19	0.30	-999.25	0.34	44.48	0.05	0.95	-999.25	-999.25
8274.5	10.13	2.18	0.29	-999.25	0.34	44.71	0.05	0.95	32.80	11.00
8275.0	9.82	2.18	0.29	-999.25	0.33	43.89	0.06	0.94	-999.25	-999.25
8275.5	9.45	2.19	0.29	-999.25	0.34	42.95	0.06	0.94	-999.25	-999.25
8276.0	9.14	2.19	0.30	-999.25	0.34	42.87	0.05	0.95	-999.25	-999.25
8276.5	9.20	2.19	0.30	-999.25	0.35	43.99	0.05	0.95	33.90	10.00
8277.0	9.19	2.18	0.30	-999.25	0.34	46.22	0.05	0.95	-999.25	-999.25
8277.5	9.20	2.18	0.29	-999.25	0.34	48.49	0.05	0.95	-999.25	-999.25
8278.0	9.47	2.19	0.28	-999.25	0.33	49.57	0.05	0.95	-999.25	-999.25
8278.5	10.00	2.21	0.27	-999.25	0.31	48.30	0.06	0.94	31.90	8.80
8279.0	10.99	2.22	0.26	-999.25	0.31	44.52	0.06	0.94	-999.25	-999.25
8279.5	11.60	2.23	0.26	-999.25	0.31	40.40	0.06	0.94	33.80	8.40
8280.0	11.22	2.21	0.27	-999.25	0.32	37.15	0.06	0.94	-999.25	-999.25
8280.5	10.28	2.20	0.28	-999.25	0.33	34.46	0.06	0.94	34.60	7.90
8281.0	9.71	2.19	0.28	-999.25	0.33	33.06	0.06	0.94	-999.25	-999.25
8281.5	10.12	2.19	0.29	-999.25	0.34	33.39	0.06	0.94	-999.25	-999.25
8282.0	10.32	2.18	0.29	-999.25	0.34	34.99	0.06	0.94	-999.25	-999.25
8282.5	9.69	2.18	0.29	-999.25	0.34	37.98	0.06	0.94	35.00	9.30
8283.0	9.28	2.18	0.29	-999.25	0.34	41.65	0.06	0.94	-999.25	-999.25
8283.5	9.51	2.19	0.29	-999.25	0.34	44.33	0.05	0.95	-999.25	-999.25
8284.0	9.90	2.19	0.30	-999.25	0.34	45.45	0.05	0.95	-999.25	-999.25
8284.5	9.73	2.19	0.29	-999.25	0.34	45.59	0.05	0.95	29.90	5.40
8285.0	9.36	2.20	0.29	-999.25	0.34	45.25	0.05	0.95	-999.25	-999.25
8285.5	9.42	2.19	0.29	-999.25	0.33	44.78	0.05	0.95	-999.25	-999.25
8286.0	9.93	2.19	0.29	-999.25	0.34	44.16	0.05	0.95	-999.25	-999.25
8286.5	10.56	2.19	0.30	-999.25	0.34	43.68	0.05	0.95	32.70	-999.25
8287.0	10.94	2.19	0.30	-999.25	0.34	43.30	0.05	0.95	-999.25	-999.25
8287.5	10.93	2.19	0.29	-999.25	0.34	42.88	0.06	0.94	32.30	9.60
8288.0	10.62	2.19	0.28	-999.25	0.33	42.67	0.06	0.94	-999.25	-999.25
8288.5	10.59	2.19	0.28	-999.25	0.33	42.75	0.06	0.94	-999.25	-999.25
8289.0	10.84	2.19	0.28	-999.25	0.33	42.67	0.06	0.94	-999.25	-999.25
8289.5	10.89	2.19	0.28	-999.25	0.33	42.46	0.06	0.94	30.80	9.90
8290.0	10.68	2.20	0.29	-999.25	0.33	42.24	0.06	0.94	-999.25	-999.25
8290.5	10.69	2.20	0.29	-999.25	0.33	42.46	0.06	0.94	-999.25	-999.25
8291.0	11.33	2.21	0.28	-999.25	0.32	43.40	0.06	0.94	-999.25	-999.25
8291.5	12.19	2.21	0.28	-999.25	0.31	44.79	0.06	0.94	-999.25	-999.25
