# LAS format log file from PETREL
# Project units are specified as depth units
#==================================================================
~Version information
VERS.   2.0:
WRAP.   NO:
#==================================================================
~Well
STRT .ft        7935.0 :
STOP .ft        8390.0 :
STEP .ft        0.5    :
NULL .          -999.25  :
COMP.           : COMPANY
WELL.  HW-29    : WELL
FLD.   COSTA    : FIELD
LOC.            : LOCATION
SRVC.           : SERVICE COMPANY
DATE.  2018-02-06 14:55:42   : Log Export Date {yyyy-MM-dd HH:mm:ss}
PROV.           : PROVINCE
UWI.   HW-29    : UNIQUE WELL ID
API.            : API NUMBER
#==================================================================
~Curve
DEPT .ft                  : DEPTH
GR .gAPI                  : GR
RHOB .g/cm3               : RHOB
NPHI .ft3/ft3             : NPHI
DT .us/ft                 : DT
PHIE .ft3/ft3             : PHIE
RT .ohm.m                 : RT
SW .                      : SW
SO . 			  : SO
CORE_POR .ft3/ft3         : CORE_POR
CORE_PERM .mD             : CORE_PERM
~Parameter
#==================================================================
~Ascii
# ...
8292.0	12.37	2.22	0.27	-999.25	0.31	45.85	0.06	0.94	-999.25	-999.25
8292.5	11.55	2.22	0.27	-999.25	0.31	46.81	0.06	0.94	31.46	8.08
8293.0	10.60	2.22	0.28	-999.25	0.32	47.63	0.06	0.94	31.62	6.56
8293.5	10.29	2.21	0.29	-999.25	0.32	48.19	0.05	0.95	31.43	6.63
8294.0	10.16	2.21	0.30	-999.25	0.33	48.34	0.05	0.95	30.88	8.28
8294.5	9.53	2.21	0.29	-999.25	0.33	48.14	0.05	0.95	30.64	8.84
8295.0	8.77	2.22	0.29	-999.25	0.33	47.89	0.05	0.95	30.73	8.33
8295.5	8.70	2.22	0.28	-999.25	0.32	47.42	0.06	0.94	31.03	7.96
8296.0	9.14	2.22	0.28	-999.25	0.32	46.69	0.06	0.94	32.46	8.33
8296.5	9.47	2.22	0.29	-999.25	0.32	46.29	0.06	0.94	33.90	8.70
8297.0	9.36	2.23	0.29	-999.25	0.33	46.20	0.06	0.94	34.73	9.56
8297.5	9.29	2.23	0.28	-999.25	0.32	46.47	0.06	0.94	35.55	10.43
8298.0	9.80	2.24	0.28	-999.25	0.32	47.09	0.06	0.94	36.00	10.75
8298.5	10.38	2.23	0.28	-999.25	0.33	47.74	0.05	0.95	35.70	10.00
8299.0	10.31	2.22	0.28	-999.25	0.33	48.07	0.05	0.95	35.40	-999.25
8299.5	9.48	2.20	0.28	-999.25	0.33	48.07	0.05	0.95	35.10	-999.25
8300.0	8.60	2.20	0.28	-999.25	0.33	47.77	0.05	0.95	35.10	-999.25
8300.5	8.12	2.20	0.29	-999.25	0.33	47.08	0.05	0.95	34.96	13.68
8301.0	7.94	2.20	0.28	-999.25	0.33	46.30	0.05	0.95	34.54	9.82
8301.5	8.17	2.20	0.28	-999.25	0.33	45.88	0.06	0.94	33.79	8.81
8302.0	8.60	2.20	0.27	-999.25	0.32	45.57	0.06	0.94	32.86	9.27
8302.5	8.79	2.19	0.27	-999.25	0.32	45.11	0.06	0.94	33.04	10.16
8303.0	9.12	2.19	0.28	-999.25	0.33	44.53	0.06	0.94	34.32	11.47
8303.5	9.95	2.19	0.29	-999.25	0.33	43.79	0.06	0.94	35.60	12.79
8304.0	10.77	2.19	0.29	-999.25	0.34	43.03	0.06	0.94	35.24	-999.25
8304.5	11.02	2.19	0.30	-999.25	0.34	42.16	0.06	0.94	33.34	-999.25
8305.0	10.89	2.19	0.30	-999.25	0.34	41.18	0.06	0.94	30.22	-999.25
8305.5	11.02	2.19	0.31	-999.25	0.34	40.36	0.06	0.94	28.09	4.56
8306.0	11.29	2.19	0.30	-999.25	0.34	39.86	0.06	0.94	31.17	6.81
8306.5	11.33	2.19	0.30	-999.25	0.34	39.36	0.06	0.94	33.21	8.46
8307.0	11.16	2.19	0.30	-999.25	0.34	38.92	0.06	0.94	33.26	8.93
8307.5	10.83	2.19	0.29	-999.25	0.34	38.42	0.06	0.94	33.30	9.40
8308.0	10.40	2.19	0.29	-999.25	0.34	37.64	0.06	0.94	33.90	10.36
8308.5	10.06	2.19	0.30	-999.25	0.34	36.60	0.06	0.94	34.17	10.78
8309.0	9.78	2.19	0.31	-999.25	0.35	35.63	0.06	0.94	33.78	10.14
8309.5	9.26	2.19	0.31	-999.25	0.35	34.67	0.06	0.94	33.40	9.50
8310.0	8.84	2.19	0.30	-999.25	0.35	33.44	0.06	0.94	34.54	9.77
8310.5	8.94	2.19	0.29	-999.25	0.34	32.03	0.06	0.94	35.24	9.79
8311.0	9.03	2.18	0.29	-999.25	0.34	30.80	0.07	0.93	33.61	8.46
8311.5	8.61	2.19	0.29	-999.25	0.34	30.34	0.07	0.93	33.42	8.35
8312.0	8.45	2.19	0.29	-999.25	0.34	30.85	0.07	0.93	34.67	9.45
8312.5	9.37	2.20	0.29	-999.25	0.34	31.95	0.06	0.94	33.59	12.31
8313.0	10.43	2.19	0.30	-999.25	0.34	32.95	0.06	0.94	30.16	16.94
8313.5	10.18	2.18	0.30	-999.25	0.34	33.01	0.06	0.94	28.15	19.54
8314.0	8.94	2.17	0.30	-999.25	0.34	31.52	0.06	0.94	28.90	18.17
8314.5	8.19	2.18	0.29	-999.25	0.33	29.76	0.07	0.93	29.64	16.80
8315.0	8.24	2.19	0.28	-999.25	0.33	28.22	0.07	0.93	30.38	15.43
8315.5	8.75	2.20	0.28	-999.25	0.33	28.03	0.07	0.93	31.13	14.07
8316.0	9.01	2.20	0.28	-999.25	0.33	29.62	0.07	0.93	31.87	12.70
8316.5	8.57	2.20	0.28	-999.25	0.33	32.27	0.07	0.93	32.61	11.33
8317.0	7.88	2.20	0.29	-999.25	0.34	34.77	0.06	0.94	33.36	9.97
8317.5	7.68	2.19	0.29	-999.25	0.34	36.91	0.06	0.94	34.10	8.60
8318.0	8.77	2.19	0.29	-999.25	0.33	38.16	0.06	0.94	34.15	10.45
8318.5	9.80	2.21	0.28	-999.25	0.32	38.72	0.06	0.94	34.19	12.44
8319.0	9.38	2.23	0.28	-999.25	0.33	39.06	0.06	0.94	34.09	15.22
8319.5	8.14	2.23	0.30	-999.25	0.33	40.39	0.06	0.94	34.00	18.00
8320.0	7.40	2.22	0.31	-999.25	0.34	42.73	0.05	0.95	33.87	18.00
8320.5	7.77	2.20	0.31	-999.25	0.34	49.34	0.05	0.95	33.56	16.50
8321.0	8.25	2.19	0.30	-999.25	0.33	49.90	0.05	0.95	33.09	13.51
8321.5	8.29	2.18	0.28	-999.25	0.33	49.96	0.05	0.95	32.69	10.88
8322.0	8.21	2.18	0.28	-999.25	0.32	50.34	0.05	0.95	32.65	10.12
8322.5	7.95	2.18	0.28	-999.25	0.32	50.96	0.05	0.95	32.61	9.36
8323.0	7.44	2.18	0.29	-999.25	0.33	51.38	0.05	0.95	33.79	9.56
8323.5	7.05	2.18	0.29	-999.25	0.33	51.47	0.05	0.95	34.20	10.43
8324.0	7.43	2.18	0.29	-999.25	0.33	51.55	0.05	0.95	33.20	11.48
8324.5	8.50	2.19	0.29	-999.25	0.32	52.07	0.05	0.95	32.42	11.80
8325.0	9.56	2.20	0.28	-999.25	0.32	52.43	0.05	0.95	31.86	11.40
8325.5	10.05	2.21	0.28	-999.25	0.31	52.72	0.05	0.95	31.30	11.00
8326.0	9.87	2.22	0.26	-999.25	0.31	52.23	0.06	0.94	31.20	9.65
8326.5	9.52	2.22	0.26	-999.25	0.30	51.36	0.06	0.94	31.10	8.30
8327.0	9.86	2.23	0.26	-999.25	0.30	50.48	0.06	0.94	29.60	7.50
8327.5	10.62	2.24	0.27	-999.25	0.30	50.27	0.06	0.94	28.10	6.70
8328.0	10.62	2.24	0.27	-999.25	0.30	50.45	0.06	0.94	30.50	10.90
8328.5	9.64	2.24	0.26	-999.25	0.30	50.94	0.06	0.94	31.61	12.07
8329.0	8.61	2.24	0.26	-999.25	0.30	51.41	0.06	0.94	31.42	10.22
8329.5	8.33	2.24	0.27	-999.25	0.31	51.47	0.06	0.94	31.49	8.94
8330.0	8.60	2.23	0.29	-999.25	0.32	51.08	0.05	0.95	32.05	8.76
8330.5	9.03	2.22	0.29	-999.25	0.32	51.02	0.05	0.95	32.62	8.59
8331.0	9.57	2.22	0.28	-999.25	0.32	52.08	0.05	0.95	31.90	8.07
8331.5	9.78	2.23	0.27	-999.25	0.31	54.53	0.05	0.95	29.90	7.20
8332.0	9.37	2.24	0.27	-999.25	0.30	59.03	0.05	0.95	29.90	7.65
8332.5	8.60	2.25	0.27	-999.25	0.30	63.60	0.05	0.95	29.90	8.10
8333.0	8.09	2.25	0.27	-999.25	0.30	67.00	0.05	0.95	29.79	10.76
8333.5	8.46	2.25	0.27	-999.25	0.30	68.07	0.05	0.95	29.85	13.32
8334.0	9.15	2.24	0.27	-999.25	0.30	65.72	0.05	0.95	30.80	15.32
8334.5	9.34	2.23	0.27	-999.25	0.31	60.49	0.05	0.95	31.57	16.49
8335.0	9.10	2.22	0.27	-999.25	0.31	53.48	0.05	0.95	31.37	13.29
8335.5	9.23	2.20	0.27	-999.25	0.31	47.05	0.06	0.94	31.17	10.09
8336.0	10.38	2.18	0.27	-999.25	0.31	42.06	0.06	0.94	32.75	11.00
8336.5	11.56	2.17	0.27	-999.25	0.32	38.54	0.06	0.94	33.92	12.05
8337.0	11.54	2.17	0.27	-999.25	0.32	35.80	0.06	0.94	32.49	9.25
8337.5	10.58	2.18	0.28	-999.25	0.33	33.06	0.06	0.94	31.33	6.86
8338.0	9.84	2.19	0.29	-999.25	0.33	29.89	0.07	0.93	31.49	6.62
8338.5	9.82	2.20	0.29	-999.25	0.33	26.55	0.07	0.93	31.65	6.38
8339.0	9.79	2.20	0.27	-999.25	0.32	23.62	0.08	0.92	29.80	5.35
8339.5	9.20	2.22	0.25	-999.25	0.30	22.05	0.09	0.91	28.24	4.57
8340.0	8.68	2.25	0.24	-999.25	0.28	22.41	0.09	0.91	29.24	5.07
8340.5	8.88	2.27	0.22	-999.25	0.27	23.91	0.09	0.91	29.76	5.27
8341.0	9.75	2.28	0.23	-999.25	0.27	25.10	0.09	0.91	29.36	4.89
8341.5	10.36	2.26	0.25	-999.25	0.29	24.21	0.09	0.91	28.95	4.50
8342.0	10.13	2.24	0.27	-999.25	0.30	22.09	0.09	0.91	28.54	4.12
8342.5	10.03	2.22	0.27	-999.25	0.31	19.80	0.09	0.91	28.56	4.07
8343.0	11.03	2.20	0.28	-999.25	0.32	18.43	0.09	0.91	30.83	5.79
8343.5	12.24	2.19	0.29	-999.25	0.32	18.55	0.09	0.91	33.10	7.50
8344.0	12.01	2.18	0.30	-999.25	0.33	19.36	0.08	0.92	32.55	7.60
8344.5	10.62	2.18	0.30	-999.25	0.33	20.34	0.08	0.92	32.00	7.70
8345.0	9.66	2.18	0.29	-999.25	0.33	21.17	0.08	0.92	32.70	-999.25
8345.5	9.71	2.19	0.29	-999.25	0.33	21.57	0.08	0.92	33.40	-999.25
8346.0	9.58	2.20	0.28	-999.25	0.32	21.50	0.08	0.92	32.35	-999.25
8346.5	8.63	2.21	0.28	-999.25	0.32	21.28	0.08	0.92	31.30	5.90
8347.0	7.61	2.20	0.28	-999.25	0.32	21.07	0.08	0.92	31.60	6.67
8347.5	7.10	2.20	0.28	-999.25	0.33	20.95	0.08	0.92	31.90	7.44
8348.0	7.23	2.20	0.27	-999.25	0.32	20.61	0.08	0.92	31.55	6.40
8348.5	7.76	2.19	0.27	-999.25	0.32	20.13	0.09	0.91	31.19	5.27
8349.0	8.74	2.19	0.27	-999.25	0.32	19.61	0.09	0.91	31.47	5.78
8349.5	9.80	2.19	0.28	-999.25	0.32	19.18	0.09	0.91	31.79	6.21
8350.0	10.23	2.18	0.28	-999.25	0.32	18.81	0.09	0.91	32.35	6.25
8350.5	10.37	2.18	0.28	-999.25	0.32	18.65	0.09	0.91	32.91	6.29
8351.0	10.98	2.18	0.26	-999.25	0.32	18.59	0.09	0.91	31.71	5.46
8351.5	11.84	2.19	0.27	-999.25	0.31	18.36	0.09	0.91	30.73	4.83
8352.0	12.12	2.19	0.27	-999.25	0.31	18.11	0.09	0.91	30.81	4.91
8352.5	11.64	2.19	0.27	-999.25	0.32	17.94	0.09	0.91	30.90	5.00
8353.0	10.99	2.19	0.27	-999.25	0.32	17.92	0.09	0.91	31.28	5.43
8353.5	10.21	2.19	0.27	-999.25	0.32	17.94	0.09	0.91	31.59	5.81
8354.0	9.37	2.20	0.27	-999.25	0.31	18.09	0.09	0.91	31.55	5.85
8354.5	9.30	2.21	0.27	-999.25	0.31	18.33	0.09	0.91	31.50	5.90
8355.0	10.07	2.22	0.26	-999.25	0.31	18.59	0.09	0.91	31.30	5.75
8355.5	10.79	2.22	0.25	-999.25	0.30	18.96	0.09	0.91	31.10	5.60
