# LAS format log file from PETREL
# Project units are specified as depth units
#==================================================================
~Version information
VERS.   2.0:
WRAP.   NO:
#==================================================================
~Well
STRT .ft        7770.0 :
STOP .ft        8120.0 :
STEP .ft        0.5    :
NULL .          -999.25  :
COMP.           : COMPANY
WELL.  HW-6     : WELL
FLD.   COSTA    : FIELD
LOC.            : LOCATION
SRVC.           : SERVICE COMPANY
DATE.  2018-02-06 14:55:39   : Log Export Date {yyyy-MM-dd HH:mm:ss}
PROV.           : PROVINCE
UWI.   HW-6     : UNIQUE WELL ID
API.            : API NUMBER
#==================================================================
~Curve
DEPT .ft                  : DEPTH
GR .gAPI                  : GR
RHOB .g/cm3               : RHOB
NPHI .ft3/ft3             : NPHI
DT .us/ft                 : DT
PHIE .ft3/ft3             : PHIE
RT .ohm.m                 : RT
SW .                      : SW
SO . 			  : SO
CORE_POR .ft3/ft3         : CORE_POR
CORE_PERM .mD             : CORE_PERM
~Parameter
#==================================================================
~Ascii
# ...
7974.0	8.76	2.22	0.24	-999.25	0.26	12.48	0.13	0.87	27.74	144.65
7974.5	9.20	2.21	0.25	-999.25	0.27	11.47	0.13	0.87	28.27	125.14
7975.0	9.22	2.21	0.26	-999.25	0.27	10.36	0.14	0.86	28.80	105.63
7975.5	9.04	2.22	0.26	-999.25	0.28	9.19	0.15	0.85	29.33	86.12
7976.0	8.43	2.23	0.26	-999.25	0.28	8.18	0.15	0.85	29.86	66.62
7976.5	7.48	2.22	0.26	-999.25	0.28	7.46	0.16	0.84	30.29	63.61
7977.0	7.11	2.20	0.27	-999.25	0.28	7.06	0.16	0.84	30.20	147.22
7977.5	7.66	2.20	0.27	-999.25	0.29	7.06	0.16	0.84	30.11	230.82
7978.0	8.41	2.20	0.27	-999.25	0.29	7.43	0.16	0.84	30.49	140.39
7978.5	8.64	2.20	0.26	-999.25	0.28	8.02	0.15	0.85	30.58	55.64
7979.0	8.39	2.19	0.26	-999.25	0.28	9.25	0.15	0.85	29.94	46.27
7979.5	7.98	2.19	0.24	-999.25	0.27	9.83	0.15	0.85	29.30	36.91
7980.0	7.86	2.20	0.24	-999.25	0.26	10.75	0.14	0.86	29.73	63.30
7980.5	8.19	2.20	0.23	-999.25	0.26	12.26	0.14	0.86	29.94	104.41
7981.0	8.60	2.21	0.24	-999.25	0.26	13.87	0.13	0.87	28.91	222.78
7981.5	8.61	2.20	0.25	-999.25	0.27	14.70	0.12	0.88	28.51	236.82
7982.0	8.58	2.19	0.25	-999.25	0.27	14.23	0.12	0.88	28.72	146.52
7982.5	9.12	2.20	0.25	-999.25	0.27	12.72	0.13	0.87	28.72	74.02
7983.0	9.95	2.21	0.25	-999.25	0.27	10.83	0.14	0.86	27.57	94.93
7983.5	10.54	2.22	0.24	-999.25	0.27	9.17	0.15	0.85	26.68	106.62
7984.0	10.49	2.22	0.24	-999.25	0.26	7.99	0.16	0.84	27.16	69.87
7984.5	10.02	2.23	0.24	-999.25	0.26	7.23	0.17	0.83	27.64	33.12
7985.0	9.06	2.23	0.24	-999.25	0.27	6.71	0.18	0.82	27.60	21.85
7985.5	8.11	2.23	0.24	-999.25	0.27	6.28	0.18	0.82	27.90	22.36
7986.0	8.04	2.23	0.24	-999.25	0.27	5.87	0.19	0.81	29.38	20.22
7986.5	8.84	2.23	0.25	-999.25	0.27	5.53	0.19	0.81	30.86	18.09
7987.0	10.07	2.24	0.26	-999.25	0.27	5.39	0.20	0.80	30.19	15.86
7987.5	10.83	2.25	0.26	-999.25	0.26	5.53	0.20	0.80	29.10	13.62
7988.0	10.53	2.25	0.25	-999.25	0.26	5.98	0.19	0.81	28.23	17.09
7988.5	9.23	2.25	0.25	-999.25	0.26	6.81	0.18	0.82	27.42	19.21
7989.0	7.87	2.26	0.24	-999.25	0.25	7.93	0.17	0.83	26.90	14.20
7989.5	7.46	2.29	0.23	-999.25	0.24	9.25	0.17	0.83	26.38	9.19
7990.0	8.09	2.32	0.22	-999.25	0.23	11.10	0.16	0.84	22.92	5.43
7990.5	8.85	2.34	0.22	-999.25	0.22	14.08	0.15	0.85	18.90	1.90
7991.0	9.22	2.35	0.22	-999.25	0.22	18.48	0.13	0.87	20.37	8.92
7991.5	9.62	2.36	0.21	-999.25	0.20	22.54	0.13	0.87	21.39	13.93
7992.0	10.22	2.39	0.20	-999.25	0.19	23.27	0.13	0.87	20.09	8.38
7992.5	10.66	2.42	0.18	-999.25	0.18	20.43	0.15	0.85	19.13	3.72
7993.0	10.66	2.44	0.18	-999.25	0.18	16.58	0.17	0.83	19.97	3.79
7993.5	10.38	2.42	0.19	-999.25	0.19	13.47	0.18	0.82	20.80	3.86
7994.0	10.15	2.38	0.22	-999.25	0.21	11.27	0.18	0.82	22.80	7.76
7994.5	9.98	2.33	0.24	-999.25	0.23	9.54	0.17	0.83	24.80	11.66
7995.0	9.95	2.30	0.24	-999.25	0.24	7.92	0.18	0.82	26.53	10.20
7995.5	10.08	2.28	0.24	-999.25	0.25	6.54	0.19	0.81	27.72	10.76
7996.0	9.95	2.28	0.25	-999.25	0.26	5.59	0.20	0.80	28.35	13.34
7996.5	9.59	2.26	0.25	-999.25	0.26	5.03	0.21	0.79	28.98	15.92
7997.0	9.75	2.24	0.25	-999.25	0.27	4.78	0.21	0.79	29.42	13.68
7997.5	10.42	2.23	0.25	-999.25	0.27	4.73	0.21	0.79	29.67	9.87
7998.0	10.52	2.22	0.25	-999.25	0.28	4.78	0.20	0.80	29.47	10.83
7998.5	10.01	2.22	0.26	-999.25	0.28	4.88	0.20	0.80	29.16	10.93
7999.0	9.57	2.22	0.26	-999.25	0.28	5.00	0.20	0.80	28.80	10.60
7999.5	9.65	2.24	0.25	-999.25	0.27	5.11	0.20	0.80	28.44	10.28
8000.0	9.90	2.26	0.25	-999.25	0.26	5.17	0.21	0.79	27.68	9.21
8000.5	9.85	2.27	0.25	-999.25	0.25	5.11	0.21	0.79	26.27	7.60
8001.0	9.68	2.28	0.25	-999.25	0.25	4.93	0.22	0.78	25.47	10.59
8001.5	9.06	2.29	0.25	-999.25	0.25	4.70	0.22	0.78	25.09	12.78
8002.0	8.43	2.28	0.25	-999.25	0.26	4.51	0.22	0.78	26.90	10.78
8002.5	8.83	2.26	0.26	-999.25	0.27	4.35	0.22	0.78	28.71	8.79
8003.0	10.10	2.24	0.27	-999.25	0.27	4.20	0.22	0.78	28.95	7.89
8003.5	10.94	2.23	0.27	-999.25	0.28	4.07	0.22	0.78	28.90	7.20
8004.0	10.73	2.23	0.28	-999.25	0.28	3.95	0.22	0.78	28.77	8.21
8004.5	10.21	2.24	0.28	-999.25	0.28	3.85	0.23	0.77	28.18	9.00
8005.0	10.07	2.25	0.27	-999.25	0.27	3.79	0.23	0.77	27.14	9.57
8005.5	10.12	2.26	0.25	-999.25	0.26	3.77	0.24	0.76	26.10	10.14
8006.0	9.72	2.26	0.25	-999.25	0.26	3.82	0.24	0.76	27.46	8.30
8006.5	9.32	2.26	0.26	-999.25	0.27	3.94	0.23	0.77	28.62	7.00
8007.0	9.25	2.25	0.27	-999.25	0.27	4.08	0.22	0.78	28.72	8.60
8007.5	9.49	2.26	0.28	-999.25	0.27	4.14	0.22	0.78	28.83	10.19
8008.0	9.52	2.26	0.28	-999.25	0.27	4.05	0.23	0.77	28.82	11.17
8008.5	9.08	2.26	0.27	-999.25	0.26	3.86	0.24	0.76	28.57	10.96
8009.0	8.94	2.27	0.26	-999.25	0.26	3.67	0.24	0.76	28.32	10.75
8009.5	9.40	2.27	0.26	-999.25	0.26	3.52	0.25	0.75	28.07	10.54
8010.0	10.10	2.26	0.26	-999.25	0.27	3.41	0.25	0.75	27.82	10.33
8010.5	10.27	2.25	0.26	-999.25	0.27	3.31	0.25	0.75	27.90	10.33
8011.0	9.93	2.24	0.27	-999.25	0.27	3.19	0.25	0.75	28.30	10.53
8011.5	9.81	2.25	0.27	-999.25	0.27	3.08	0.26	0.74	28.70	10.73
8012.0	9.82	2.25	0.26	-999.25	0.27	3.03	0.26	0.74	28.70	10.19
8012.5	9.49	2.25	0.26	-999.25	0.27	3.08	0.26	0.74	28.70	9.65
8013.0	8.88	2.25	0.26	-999.25	0.27	3.24	0.26	0.74	28.07	8.10
8013.5	8.59	2.26	0.25	-999.25	0.26	3.53	0.25	0.75	26.68	5.33
8014.0	8.86	2.27	0.24	-999.25	0.25	4.00	0.25	0.75	27.79	6.57
8014.5	9.14	2.31	0.22	-999.25	0.23	4.71	0.24	0.76	28.90	7.81
8015.0	9.25	2.34	0.21	-999.25	0.22	5.77	0.24	0.76	25.77	4.53
8015.5	9.64	2.38	0.20	-999.25	0.20	7.22	0.23	0.77	22.99	2.24
8016.0	10.88	2.41	0.18	-999.25	0.18	8.91	0.23	0.77	20.89	1.90
8016.5	12.42	2.45	0.16	-999.25	0.16	10.28	0.24	0.76	18.93	1.54
8017.0	13.03	2.48	0.14	-999.25	0.15	10.60	0.26	0.74	17.25	1.14
8017.5	12.27	2.48	0.15	-999.25	0.15	9.81	0.26	0.74	15.57	0.73
8018.0	11.01	2.45	0.17	-999.25	0.17	8.60	0.25	0.75	15.93	3.01
8018.5	10.35	2.40	0.20	-999.25	0.19	7.38	0.23	0.77	16.68	5.79
8019.0	10.39	2.35	0.22	-999.25	0.21	6.25	0.23	0.77	21.78	5.92
8019.5	11.08	2.32	0.23	-999.25	0.23	5.28	0.23	0.77	25.28	5.38
8020.0	11.84	2.30	0.23	-999.25	0.24	4.47	0.24	0.76	24.04	4.52
8020.5	11.87	2.29	0.23	-999.25	0.24	3.87	0.26	0.74	22.80	3.67
8021.0	11.11	2.29	0.24	-999.25	0.25	3.53	0.26	0.74	23.26	4.94
8021.5	10.62	2.28	0.25	-999.25	0.26	3.47	0.26	0.74	24.04	6.62
8022.0	11.13	2.26	0.26	-999.25	0.26	3.63	0.24	0.76	24.82	8.30
8022.5	11.67	2.25	0.26	-999.25	0.27	3.90	0.23	0.77	25.61	9.98
8023.0	11.31	2.24	0.25	-999.25	0.27	4.09	0.23	0.77	26.60	8.58
8023.5	10.28	2.24	0.25	-999.25	0.27	4.11	0.23	0.77	27.72	5.82
8024.0	9.71	2.25	0.25	-999.25	0.26	4.07	0.23	0.77	28.66	6.37
8024.5	9.98	2.25	0.25	-999.25	0.27	4.09	0.23	0.77	29.60	6.93
8025.0	10.15	2.25	0.26	-999.25	0.27	4.16	0.22	0.78	29.00	6.50
8025.5	9.48	2.24	0.27	-999.25	0.27	4.21	0.22	0.78	28.40	6.08
8026.0	8.31	2.23	0.26	-999.25	0.28	4.15	0.22	0.78	28.64	7.28
8026.5	7.47	2.23	0.26	-999.25	0.28	3.93	0.22	0.78	29.29	9.31
8027.0	7.93	2.23	0.26	-999.25	0.28	3.69	0.23	0.77	28.36	8.41
8027.5	9.53	2.23	0.27	-999.25	0.28	3.51	0.23	0.77	27.12	6.94
8028.0	10.79	2.23	0.27	-999.25	0.28	3.39	0.24	0.76	27.13	6.31
8028.5	10.48	2.23	0.27	-999.25	0.28	3.30	0.24	0.76	28.38	6.53
8029.0	9.18	2.24	0.26	-999.25	0.27	3.23	0.25	0.75	28.85	6.54
8029.5	8.75	2.25	0.25	-999.25	0.27	3.20	0.25	0.75	28.85	6.48
8030.0	9.51	2.24	0.25	-999.25	0.27	3.18	0.25	0.75	28.70	6.50
8030.5	10.10	2.24	0.26	-999.25	0.27	3.18	0.25	0.75	28.55	6.51
8031.0	9.75	2.23	0.27	-999.25	0.28	3.14	0.25	0.75	28.26	6.39
8031.5	8.94	2.23	0.28	-999.25	0.29	3.09	0.24	0.76	27.90	6.20
8032.0	8.35	2.23	0.28	-999.25	0.29	3.04	0.24	0.76	28.45	6.69
8032.5	8.18	2.24	0.28	-999.25	0.29	3.02	0.25	0.75	29.00	7.18
8033.0	8.17	2.25	0.27	-999.25	0.28	3.02	0.25	0.75	25.47	5.04
8033.5	8.17	2.25	0.27	-999.25	0.28	3.05	0.25	0.75	23.01	3.67
8034.0	8.35	2.25	0.27	-999.25	0.28	3.08	0.25	0.75	26.20	6.32
8034.5	8.72	2.25	0.27	-999.25	0.28	3.11	0.25	0.75	29.39	8.97
8035.0	8.96	2.25	0.28	-999.25	0.28	3.14	0.25	0.75	29.30	8.25
8035.5	8.91	2.25	0.27	-999.25	0.28	3.17	0.25	0.75	28.75	7.25
8036.0	8.21	2.24	0.26	-999.25	0.27	3.20	0.25	0.75	29.07	8.12
8036.5	7.29	2.25	0.26	-999.25	0.27	3.23	0.25	0.75	29.39	8.99
8037.0	6.94	2.26	0.27	-999.25	0.27	3.24	0.25	0.75	28.59	8.93
8037.5	7.21	2.27	0.27	-999.25	0.27	3.24	0.25	0.75	26.03	7.15
8038.0	7.67	2.28	0.27	-999.25	0.27	3.24	0.25	0.75	25.59	5.86
