# LAS format log file from PETREL
# Project units are specified as depth units
#==================================================================
~Version information
VERS.   2.0:
WRAP.   NO:
#==================================================================
~Well
STRT .ft        7770.0 :
STOP .ft        8120.0 :
STEP .ft        0.5    :
NULL .          -999.25  :
COMP.           : COMPANY
WELL.  HW-6     : WELL
FLD.   COSTA    : FIELD
LOC.            : LOCATION
SRVC.           : SERVICE COMPANY
DATE.  2018-02-06 14:55:39   : Log Export Date {yyyy-MM-dd HH:mm:ss}
PROV.           : PROVINCE
UWI.   HW-6     : UNIQUE WELL ID
API.            : API NUMBER
#==================================================================
~Curve
DEPT .ft                  : DEPTH
GR .gAPI                  : GR
RHOB .g/cm3               : RHOB
NPHI .ft3/ft3             : NPHI
DT .us/ft                 : DT
PHIE .ft3/ft3             : PHIE
RT .ohm.m                 : RT
SW .                      : SW
SO . 			  : SO
CORE_POR .ft3/ft3         : CORE_POR
CORE_PERM .mD             : CORE_PERM
~Parameter
#==================================================================
~Ascii
7912.0	42.85	2.71	0.10	-999.25	0.02	10.86	-999.25	-999.25	2.36	4.26
7912.5	40.16	2.70	0.13	-999.25	0.02	10.94	-999.25	-999.25	2.73	3.05
7913.0	34.81	2.69	0.13	-999.25	0.02	11.20	-999.25	-999.25	3.10	1.85
7913.5	30.53	2.70	0.10	-999.25	0.02	11.95	-999.25	-999.25	2.08	1.00
7914.0	28.94	2.72	0.07	-999.25	0.02	13.71	-999.25	-999.25	1.06	0.15
7914.5	28.20	2.73	0.06	-999.25	0.01	16.86	-999.25	-999.25	1.13	0.01
7915.0	26.82	2.73	0.05	-999.25	0.01	21.21	-999.25	-999.25	1.40	0.01
7915.5	25.76	2.73	0.04	-999.25	0.00	26.06	-999.25	-999.25	1.03	0.01
7916.0	25.82	2.72	0.04	-999.25	0.00	30.48	-999.25	-999.25	0.66	0.01
7916.5	25.65	2.72	0.04	-999.25	0.01	33.10	-999.25	-999.25	0.47	0.01
7917.0	24.72	2.72	0.04	-999.25	0.01	33.30	-999.25	-999.25	0.47	0.01
7917.5	24.43	2.73	0.04	-999.25	0.00	32.38	-999.25	-999.25	0.60	0.01
7918.0	25.62	2.73	0.04	-999.25	0.00	32.03	-999.25	-999.25	0.82	0.08
7918.5	27.46	2.72	0.04	-999.25	0.00	32.51	-999.25	-999.25	0.96	0.12
7919.0	28.41	2.72	0.05	-999.25	0.00	33.35	-999.25	-999.25	0.71	0.06
7919.5	28.50	2.72	0.05	-999.25	0.00	34.35	-999.25	-999.25	0.52	0.01
7920.0	28.38	2.72	0.04	-999.25	0.00	35.81	-999.25	-999.25	0.62	0.01
7920.5	28.43	2.72	0.04	-999.25	0.00	38.38	-999.25	-999.25	0.71	0.02
7921.0	28.02	2.71	0.04	-999.25	0.00	42.42	-999.25	-999.25	0.75	0.10
7921.5	26.84	2.71	0.03	-999.25	0.00	47.51	-999.25	-999.25	0.79	0.17
7922.0	25.64	2.71	0.03	-999.25	0.00	52.77	-999.25	-999.25	0.63	0.11
7922.5	24.45	2.72	0.03	-999.25	0.00	57.40	-999.25	-999.25	0.43	0.02
7923.0	23.19	2.73	0.02	-999.25	0.00	60.58	-999.25	-999.25	0.35	0.01
7923.5	22.11	2.74	0.02	-999.25	0.00	62.25	-999.25	-999.25	0.32	0.01
7924.0	22.01	2.74	0.02	-999.25	0.00	63.10	-999.25	-999.25	0.44	0.01
7924.5	22.79	2.74	0.02	-999.25	0.00	63.01	-999.25	-999.25	0.56	0.01
7925.0	24.27	2.74	0.02	-999.25	0.00	62.08	-999.25	-999.25	0.52	0.01
7925.5	26.67	2.74	0.02	-999.25	0.00	61.00	-999.25	-999.25	0.40	0.01
7926.0	28.99	2.73	0.03	-999.25	0.00	59.24	-999.25	-999.25	0.55	0.01
7926.5	30.46	2.72	0.03	-999.25	0.00	57.85	-999.25	-999.25	0.70	0.01
7927.0	30.44	2.73	0.03	-999.25	0.00	58.37	-999.25	-999.25	0.70	0.01
7927.5	29.17	2.74	0.02	-999.25	0.01	59.70	-999.25	-999.25	0.70	0.01
7928.0	27.97	2.73	0.02	-999.25	0.01	60.53	-999.25	-999.25	0.55	0.01
7928.5	28.00	2.72	0.02	-999.25	0.01	61.77	-999.25	-999.25	0.40	0.01
7929.0	28.35	2.70	0.02	-999.25	0.01	63.00	-999.25	-999.25	1.00	0.23
7929.5	26.94	2.68	0.02	-999.25	0.02	58.50	0.69	0.31	1.60	0.45
7930.0	24.31	2.66	0.04	-999.25	0.04	47.59	0.43	0.57	3.13	7.26
7930.5	22.14	2.60	0.07	-999.25	0.07	36.45	0.31	0.69	4.82	15.33
7931.0	20.87	2.54	0.10	-999.25	0.09	28.36	0.25	0.75	6.52	23.40
7931.5	19.12	2.49	0.12	-999.25	0.12	23.10	0.21	0.79	8.21	31.47
7932.0	17.25	2.45	0.14	-999.25	0.14	19.73	0.20	0.80	9.91	39.54
7932.5	16.61	2.42	0.15	-999.25	0.15	17.33	0.19	0.81	11.61	47.61
7933.0	16.91	2.40	0.16	-999.25	0.17	15.85	0.18	0.82	13.30	55.68
7933.5	17.81	2.38	0.17	-999.25	0.18	15.31	0.18	0.82	15.00	63.75
7934.0	18.57	2.38	0.17	-999.25	0.18	15.29	0.17	0.83	16.93	36.41
7934.5	18.94	2.39	0.17	-999.25	0.17	15.47	0.18	0.82	17.63	17.58
7935.0	18.84	2.42	0.16	-999.25	0.16	15.70	0.19	0.81	15.97	15.29
7935.5	18.43	2.45	0.14	-999.25	0.14	15.99	0.21	0.79	14.30	13.00
7936.0	18.38	2.48	0.12	-999.25	0.13	16.78	0.23	0.77	12.63	10.71
7936.5	18.65	2.50	0.12	-999.25	0.12	18.76	0.24	0.76	10.48	7.71
7937.0	18.85	2.51	0.11	-999.25	0.11	21.81	0.24	0.76	7.84	4.01
7937.5	19.02	2.53	0.09	-999.25	0.09	25.40	0.26	0.74	5.20	0.31
7938.0	19.07	2.57	0.07	-999.25	0.07	29.36	0.31	0.69	5.65	21.46
7938.5	18.40	2.61	0.05	-999.25	0.06	33.51	0.35	0.65	6.10	42.61
7939.0	16.56	2.60	0.06	-999.25	0.06	38.13	0.32	0.68	6.55	63.76
7939.5	14.40	2.57	0.08	-999.25	0.08	43.61	0.24	0.76	7.97	66.26
7940.0	13.15	2.54	0.10	-999.25	0.10	49.16	0.18	0.82	9.90	59.16
7940.5	12.32	2.51	0.11	-999.25	0.11	53.34	0.15	0.85	11.83	52.06
7941.0	11.14	2.50	0.12	-999.25	0.12	56.04	0.14	0.86	13.76	44.95
7941.5	10.06	2.48	0.12	-999.25	0.13	57.85	0.13	0.87	15.69	37.85
7942.0	9.90	2.45	0.13	-999.25	0.14	58.35	0.12	0.88	17.62	30.75
7942.5	10.31	2.42	0.14	-999.25	0.15	56.31	0.11	0.89	19.54	23.64
7943.0	10.95	2.40	0.15	-999.25	0.16	50.89	0.11	0.89	20.40	25.37
7943.5	11.97	2.40	0.16	-999.25	0.17	42.69	0.11	0.89	20.70	31.64
7944.0	12.36	2.40	0.17	-999.25	0.18	33.98	0.12	0.88	21.00	37.91
7944.5	11.21	2.39	0.17	-999.25	0.18	27.19	0.13	0.87	21.30	44.18
7945.0	9.20	2.36	0.18	-999.25	0.19	22.49	0.14	0.86	21.56	32.44
7945.5	8.06	2.32	0.19	-999.25	0.21	18.79	0.14	0.86	21.81	20.70
7946.0	8.12	2.29	0.20	-999.25	0.22	15.69	0.14	0.86	22.09	16.41
7946.5	8.43	2.26	0.21	-999.25	0.23	13.43	0.15	0.85	22.38	15.95
7947.0	8.85	2.25	0.21	-999.25	0.24	12.03	0.15	0.85	22.66	15.49
7947.5	9.23	2.24	0.21	-999.25	0.24	11.24	0.15	0.85	22.95	15.03
7948.0	9.19	2.23	0.21	-999.25	0.25	10.92	0.15	0.85	23.24	14.57
7948.5	8.89	2.23	0.21	-999.25	0.25	10.90	0.15	0.85	23.53	14.11
7949.0	8.76	2.24	0.22	-999.25	0.25	11.02	0.15	0.85	23.81	13.65
7949.5	9.21	2.25	0.22	-999.25	0.25	11.37	0.15	0.85	24.10	13.19
7950.0	9.76	2.25	0.22	-999.25	0.25	12.16	0.14	0.86	24.28	27.26
7950.5	9.88	2.24	0.23	-999.25	0.25	13.23	0.13	0.87	24.69	34.33
7951.0	9.73	2.24	0.24	-999.25	0.26	13.91	0.13	0.87	25.53	27.78
7951.5	9.93	2.23	0.24	-999.25	0.26	13.77	0.13	0.87	26.38	21.24
7952.0	10.60	2.22	0.25	-999.25	0.27	13.06	0.13	0.87	27.22	14.70
7952.5	11.43	2.21	0.25	-999.25	0.27	12.22	0.13	0.87	28.06	8.16
7953.0	11.76	2.21	0.26	-999.25	0.28	11.55	0.13	0.87	27.25	60.19
7953.5	11.02	2.21	0.27	-999.25	0.28	11.19	0.13	0.87	26.54	106.90
7954.0	10.10	2.23	0.26	-999.25	0.28	11.06	0.13	0.87	28.06	67.11
7954.5	9.75	2.24	0.26	-999.25	0.27	10.99	0.14	0.86	29.58	27.32
7955.0	9.81	2.24	0.25	-999.25	0.27	10.89	0.14	0.86	29.30	11.51
7955.5	9.38	2.23	0.25	-999.25	0.27	10.72	0.14	0.86	28.12	10.91
7956.0	8.85	2.23	0.26	-999.25	0.27	10.69	0.14	0.86	26.98	15.88
7956.5	9.53	2.23	0.26	-999.25	0.27	11.14	0.13	0.87	27.12	25.79
7957.0	10.64	2.24	0.26	-999.25	0.27	12.11	0.13	0.87	27.91	38.24
7957.5	10.97	2.25	0.25	-999.25	0.27	13.67	0.12	0.88	28.70	50.69
7958.0	10.41	2.25	0.25	-999.25	0.26	15.53	0.12	0.88	28.77	91.52
7958.5	9.86	2.24	0.25	-999.25	0.27	16.76	0.11	0.89	28.69	95.71
7959.0	9.83	2.24	0.25	-999.25	0.27	17.01	0.11	0.89	28.46	63.27
7959.5	10.07	2.23	0.26	-999.25	0.27	16.91	0.11	0.89	28.24	30.83
7960.0	10.27	2.23	0.26	-999.25	0.28	16.90	0.11	0.89	28.93	243.74
7960.5	10.17	2.22	0.26	-999.25	0.28	17.39	0.11	0.89	29.80	503.38
7961.0	9.88	2.21	0.26	-999.25	0.28	18.39	0.10	0.90	29.36	377.23
7961.5	9.81	2.21	0.26	-999.25	0.28	18.81	0.10	0.90	28.91	251.08
7962.0	10.02	2.21	0.27	-999.25	0.29	18.38	0.10	0.90	28.47	124.93
7962.5	10.12	2.22	0.28	-999.25	0.29	17.86	0.10	0.90	28.13	18.91
7963.0	10.35	2.22	0.27	-999.25	0.28	17.36	0.10	0.90	28.35	18.61
7963.5	10.98	2.22	0.26	-999.25	0.28	16.61	0.11	0.89	28.57	18.32
7964.0	11.45	2.23	0.25	-999.25	0.27	15.49	0.12	0.88	28.91	21.17
7964.5	11.14	2.24	0.25	-999.25	0.27	14.17	0.12	0.88	28.93	24.10
7965.0	10.19	2.23	0.25	-999.25	0.27	13.15	0.13	0.87	28.60	26.49
7965.5	9.23	2.22	0.25	-999.25	0.27	12.76	0.13	0.87	28.27	28.88
7966.0	8.63	2.22	0.25	-999.25	0.26	12.93	0.13	0.87	28.01	28.08
7966.5	8.14	2.23	0.24	-999.25	0.25	13.42	0.13	0.87	27.84	24.09
7967.0	7.54	2.24	0.22	-999.25	0.24	13.94	0.14	0.86	27.67	20.10
7967.5	7.24	2.26	0.20	-999.25	0.22	14.61	0.15	0.85	27.50	16.11
7968.0	7.82	2.29	0.19	-999.25	0.20	15.89	0.15	0.85	25.15	11.04
7968.5	9.37	2.33	0.19	-999.25	0.19	17.97	0.15	0.85	22.80	5.97
7969.0	10.64	2.37	0.18	-999.25	0.19	20.78	0.14	0.86	19.30	7.39
7969.5	10.40	2.39	0.17	-999.25	0.18	23.43	0.14	0.86	15.79	8.82
7970.0	9.35	2.39	0.17	-999.25	0.18	24.18	0.14	0.86	16.03	8.44
7970.5	8.60	2.37	0.17	-999.25	0.18	23.16	0.14	0.86	18.20	7.14
7971.0	8.60	2.34	0.19	-999.25	0.20	21.84	0.13	0.87	21.65	124.67
7971.5	8.94	2.31	0.21	-999.25	0.22	20.12	0.13	0.87	25.10	242.19
7972.0	8.93	2.28	0.22	-999.25	0.23	17.88	0.12	0.88	25.63	222.68
7972.5	8.42	2.26	0.23	-999.25	0.24	15.99	0.13	0.87	26.16	203.17
7973.0	7.87	2.24	0.23	-999.25	0.25	14.67	0.13	0.87	26.69	183.67
7973.5	8.07	2.23	0.23	-999.25	0.25	13.53	0.13	0.87	27.21	164.16
