# LAS format log file from PETREL
# Project units are specified as depth units
#==================================================================
~Version information
VERS.   2.0:
WRAP.   NO:
#==================================================================
~Well
STRT .ft        7770.0 :
STOP .ft        8120.0 :
STEP .ft        0.5    :
NULL .          -999.25  :
COMP.           : COMPANY
WELL.  HW-6     : WELL
FLD.   COSTA    : FIELD
LOC.            : LOCATION
SRVC.           : SERVICE COMPANY
DATE.  2018-02-06 14:55:39   : Log Export Date {yyyy-MM-dd HH:mm:ss}
PROV.           : PROVINCE
UWI.   HW-6     : UNIQUE WELL ID
API.            : API NUMBER
#==================================================================
~Curve
DEPT .ft                  : DEPTH
GR .gAPI                  : GR
RHOB .g/cm3               : RHOB
NPHI .ft3/ft3             : NPHI
DT .us/ft                 : DT
PHIE .ft3/ft3             : PHIE
RT .ohm.m                 : RT
SW .                      : SW
SO . 			  : SO
CORE_POR .ft3/ft3         : CORE_POR
CORE_PERM .mD             : CORE_PERM
~Parameter
#==================================================================
~Ascii
# ...
8038.5	8.10	2.28	0.27	-999.25	0.26	3.19	0.26	0.74	25.55	5.15
8039.0	8.76	2.29	0.26	-999.25	0.26	3.15	0.27	0.73	26.30	5.56
8039.5	9.41	2.30	0.25	-999.25	0.25	3.10	0.27	0.73	26.76	5.92
8040.0	9.40	2.30	0.25	-999.25	0.25	3.06	0.28	0.72	26.65	6.20
8040.5	8.65	2.29	0.25	-999.25	0.26	3.02	0.27	0.73	26.54	6.47
8041.0	7.73	2.27	0.25	-999.25	0.26	2.98	0.27	0.73	25.35	4.42
8041.5	7.21	2.27	0.25	-999.25	0.26	2.95	0.28	0.72	23.82	2.27
8042.0	7.49	2.27	0.25	-999.25	0.26	2.97	0.28	0.72	22.70	2.21
8042.5	8.46	2.28	0.25	-999.25	0.25	3.07	0.27	0.73	21.58	2.15
8043.0	9.27	2.28	0.24	-999.25	0.25	3.30	0.27	0.73	22.00	2.20
8043.5	9.48	2.28	0.24	-999.25	0.25	3.67	0.26	0.74	23.21	2.30
8044.0	9.26	2.29	0.24	-999.25	0.25	4.21	0.24	0.76	24.86	3.59
8044.5	9.14	2.30	0.23	-999.25	0.24	4.90	0.23	0.77	26.60	5.11
8045.0	9.80	2.32	0.22	-999.25	0.23	5.57	0.23	0.77	24.53	3.59
8045.5	11.29	2.35	0.20	-999.25	0.21	6.09	0.24	0.76	22.04	2.14
8046.0	12.34	2.38	0.18	-999.25	0.19	6.35	0.26	0.74	17.25	0.99
8046.5	11.94	2.40	0.17	-999.25	0.18	6.26	0.27	0.73	14.54	0.40
8047.0	10.84	2.39	0.18	-999.25	0.19	5.83	0.27	0.73	15.82	0.87
8047.5	10.14	2.37	0.19	-999.25	0.20	5.17	0.28	0.72	17.11	1.33
8048.0	9.73	2.35	0.20	-999.25	0.21	4.42	0.28	0.72	18.40	1.80
8048.5	9.03	2.32	0.21	-999.25	0.22	3.74	0.28	0.72	19.68	2.27
8049.0	8.77	2.30	0.23	-999.25	0.24	3.22	0.29	0.71	20.97	2.73
8049.5	9.44	2.28	0.25	-999.25	0.25	2.85	0.29	0.71	22.26	3.20
8050.0	10.07	2.27	0.26	-999.25	0.26	2.60	0.29	0.71	23.55	3.66
8050.5	10.06	2.26	0.26	-999.25	0.27	2.44	0.29	0.71	24.83	4.13
8051.0	9.43	2.25	0.26	-999.25	0.27	2.34	0.29	0.71	26.12	4.60
8051.5	8.64	2.24	0.26	-999.25	0.28	2.29	0.29	0.71	27.24	5.01
8052.0	8.10	2.24	0.27	-999.25	0.28	2.26	0.29	0.71	27.52	5.12
8052.5	7.96	2.24	0.27	-999.25	0.28	2.24	0.29	0.71	27.80	5.23
8053.0	8.08	2.24	0.27	-999.25	0.28	2.23	0.30	0.70	27.00	4.08
8053.5	8.12	2.25	0.27	-999.25	0.27	2.23	0.30	0.70	26.44	3.51
8054.0	8.38	2.25	0.26	-999.25	0.27	2.22	0.30	0.70	26.13	3.50
8054.5	8.71	2.24	0.26	-999.25	0.27	2.22	0.30	0.70	25.82	3.49
8055.0	8.82	2.24	0.26	-999.25	0.27	2.21	0.31	0.69	25.51	3.49
8055.5	8.98	2.24	0.26	-999.25	0.27	2.19	0.31	0.69	25.20	3.48
8056.0	9.10	2.25	0.25	-999.25	0.27	2.17	0.31	0.69	25.20	3.58
8056.5	8.72	2.25	0.25	-999.25	0.27	2.16	0.31	0.69	25.20	3.69
8057.0	7.81	2.26	0.26	-999.25	0.27	2.17	0.31	0.69	25.20	3.79
8057.5	7.75	2.26	0.27	-999.25	0.27	2.44	0.29	0.71	25.20	3.89
8058.0	8.73	2.27	0.27	-999.25	0.27	2.68	0.28	0.72	25.20	3.99
8058.5	9.26	2.27	0.27	-999.25	0.26	3.04	0.27	0.73	25.20	4.10
8059.0	8.52	2.28	0.26	-999.25	0.26	3.53	0.25	0.75	25.20	4.20
8059.5	7.20	2.29	0.25	-999.25	0.25	4.10	0.24	0.76	25.20	4.30
8060.0	6.62	2.30	0.24	-999.25	0.25	4.67	0.23	0.77	24.90	3.33
8060.5	6.80	2.31	0.23	-999.25	0.24	5.21	0.23	0.77	24.17	2.23
8061.0	7.41	2.32	0.22	-999.25	0.23	5.72	0.23	0.77	21.49	1.49
8061.5	8.07	2.34	0.21	-999.25	0.22	6.15	0.23	0.77	18.80	0.74
8062.0	8.41	2.36	0.21	-999.25	0.21	6.31	0.23	0.77	19.36	0.86
8062.5	8.33	2.37	0.21	-999.25	0.21	6.05	0.24	0.76	19.91	0.97
8063.0	7.91	2.37	0.22	-999.25	0.21	5.37	0.25	0.75	20.47	1.09
8063.5	7.68	2.35	0.22	-999.25	0.22	4.59	0.26	0.74	21.03	1.21
8064.0	7.45	2.33	0.22	-999.25	0.22	3.96	0.28	0.72	21.59	1.33
8064.5	7.11	2.33	0.22	-999.25	0.22	3.54	0.29	0.71	22.14	1.44
8065.0	7.49	2.33	0.22	-999.25	0.22	3.28	0.30	0.70	22.70	1.56
8065.5	8.44	2.33	0.22	-999.25	0.23	3.15	0.30	0.70	22.64	1.99
8066.0	8.90	2.33	0.23	-999.25	0.23	3.08	0.30	0.70	22.53	2.16
8066.5	8.52	2.33	0.24	-999.25	0.23	3.05	0.30	0.70	22.31	1.82
8067.0	8.11	2.33	0.23	-999.25	0.23	3.11	0.30	0.70	22.10	1.48
8067.5	8.20	2.33	0.22	-999.25	0.22	3.16	0.31	0.69	21.25	1.28
8068.0	8.19	2.34	0.20	-999.25	0.21	3.23	0.32	0.68	20.39	1.09
8068.5	8.07	2.37	0.19	-999.25	0.20	3.31	0.34	0.66	19.21	0.94
8069.0	8.24	2.40	0.18	-999.25	0.18	3.37	0.36	0.64	17.87	0.81
8069.5	8.54	2.43	0.17	-999.25	0.17	3.38	0.38	0.62	17.59	1.03
8070.0	8.68	2.45	0.17	-999.25	0.17	3.32	0.39	0.61	18.43	1.49
8070.5	8.64	2.45	0.19	-999.25	0.18	3.22	0.38	0.62	19.40	1.77
8071.0	8.58	2.44	0.21	-999.25	0.19	3.10	0.37	0.63	20.37	2.04
8071.5	8.67	2.42	0.22	-999.25	0.20	2.99	0.36	0.64	20.92	2.49
8072.0	8.77	2.42	0.22	-999.25	0.20	2.92	0.36	0.64	21.25	3.04
8072.5	8.59	2.42	0.22	-999.25	0.20	2.87	0.37	0.63	20.56	3.87
8073.0	8.37	2.44	0.21	-999.25	0.19	2.82	0.39	0.61	19.67	4.75
8073.5	8.44	2.46	0.20	-999.25	0.18	2.76	0.42	0.58	18.78	5.64
8074.0	8.74	2.49	0.19	-999.25	0.17	2.69	0.45	0.55	17.89	6.00
8074.5	8.75	2.50	0.18	-999.25	0.16	2.61	0.48	0.52	16.97	5.35
8075.0	8.23	2.49	0.17	-999.25	0.15	2.52	0.50	0.50	16.24	4.55
8075.5	7.75	2.47	0.16	-999.25	0.15	2.44	0.51	0.49	16.46	2.95
8076.0	7.63	2.45	0.16	-999.25	0.16	2.37	0.51	0.49	16.69	1.34
8076.5	7.68	2.43	0.16	-999.25	0.16	2.30	0.50	0.50	16.69	0.54
8077.0	7.91	2.43	0.16	-999.25	0.16	2.27	0.50	0.50	16.47	0.54
8077.5	8.39	2.43	0.15	-999.25	0.16	2.28	0.51	0.49	16.83	0.53
8078.0	8.88	2.44	0.15	-999.25	0.16	2.29	0.52	0.48	17.48	0.52
8078.5	8.85	2.45	0.14	-999.25	0.15	2.37	0.53	0.47	16.45	0.41
8079.0	8.17	2.46	0.13	-999.25	0.14	2.52	0.55	0.45	14.58	0.36
8079.5	7.74	2.48	0.12	-999.25	0.13	2.75	0.57	0.43	12.75	0.41
8080.0	8.36	2.51	0.11	-999.25	0.11	3.06	0.62	0.38	10.92	0.47
8080.5	9.41	2.54	0.09	-999.25	0.09	3.45	0.70	0.30	9.45	0.41
8081.0	9.83	2.58	0.07	-999.25	0.07	3.95	0.83	0.17	8.17	0.28
8081.5	9.25	2.61	0.06	-999.25	0.06	4.53	0.99	0.01	6.89	0.16
8082.0	8.44	2.63	0.04	-999.25	0.05	5.13	-999.25	-999.25	5.61	0.03
8082.5	8.41	2.66	0.04	-999.25	0.04	5.63	-999.25	-999.25	5.79	0.01
8083.0	9.01	2.67	0.03	-999.25	0.03	5.91	-999.25	-999.25	6.24	0.01
8083.5	9.41	2.68	0.03	-999.25	0.03	5.90	-999.25	-999.25	6.43	0.02
8084.0	9.00	2.67	0.03	-999.25	0.03	5.65	-999.25	-999.25	6.46	0.03
8084.5	8.12	2.66	0.04	-999.25	0.04	5.25	-999.25	-999.25	6.50	0.04
8085.0	7.68	2.64	0.05	-999.25	0.05	4.83	-999.25	-999.25	6.54	0.06
8085.5	7.82	2.62	0.06	-999.25	0.06	4.48	0.91	0.09	6.58	0.07
8086.0	7.86	2.60	0.07	-999.25	0.07	4.24	0.80	0.20	6.62	0.08
8086.5	7.58	2.58	0.08	-999.25	0.08	4.12	0.72	0.28	6.66	0.10
8087.0	7.54	2.57	0.09	-999.25	0.09	4.12	0.69	0.31	6.69	0.11
8087.5	7.62	2.58	0.09	-999.25	0.09	4.25	0.69	0.31	5.48	0.07
8088.0	7.80	2.59	0.08	-999.25	0.08	4.54	0.72	0.28	4.03	0.02
8088.5	9.54	2.60	0.07	-999.25	0.07	5.04	0.82	0.18	2.57	0.07
8089.0	14.25	2.62	0.06	-999.25	0.05	5.81	-999.25	-999.25	1.10	0.14
8089.5	20.81	2.66	0.05	-999.25	0.03	6.97	-999.25	-999.25	-999.25	0.07
8090.0	26.18	2.70	0.04	-999.25	0.01	8.64	-999.25	-999.25	-999.25	0.01
8090.5	28.59	2.72	0.04	-999.25	0.00	10.91	-999.25	-999.25	-999.25	0.01
8091.0	28.52	2.72	0.03	-999.25	0.01	14.05	-999.25	-999.25	-999.25	0.01
8091.5	26.98	2.72	0.02	-999.25	0.00	18.42	-999.25	-999.25	-999.25	0.01
8092.0	23.92	2.72	0.02	-999.25	0.00	24.17	-999.25	-999.25	-999.25	0.01
8092.5	19.42	2.72	0.02	-999.25	0.00	31.87	-999.25	-999.25	-999.25	0.01
8093.0	14.63	2.73	0.01	-999.25	0.00	41.16	-999.25	-999.25	-999.25	0.01
8093.5	11.35	2.73	0.01	-999.25	0.00	49.98	-999.25	-999.25	-999.25	0.01
8094.0	10.43	2.72	0.01	-999.25	0.00	57.55	-999.25	-999.25	-999.25	0.01
8094.5	10.93	2.73	0.01	-999.25	0.00	62.68	-999.25	-999.25	-999.25	0.01
8095.0	12.93	2.73	0.01	-999.25	0.00	61.84	-999.25	-999.25	-999.25	0.01
8095.5	17.50	2.72	0.01	-999.25	0.00	54.98	-999.25	-999.25	-999.25	0.01
8096.0	24.07	2.72	0.01	-999.25	0.00	46.85	-999.25	-999.25	-999.25	0.01
8096.5	29.73	2.73	0.02	-999.25	0.01	41.05	-999.25	-999.25	-999.25	0.01
8097.0	31.55	2.73	0.02	-999.25	0.01	38.15	-999.25	-999.25	-999.25	0.01
8097.5	29.32	2.72	0.03	-999.25	0.00	37.33	-999.25	-999.25	-999.25	0.01
8098.0	24.70	2.72	0.02	-999.25	0.00	37.47	-999.25	-999.25	-999.25	0.01
8098.5	19.30	2.71	0.02	-999.25	0.01	37.81	-999.25	-999.25	-999.25	0.01
8099.0	14.59	2.71	0.01	-999.25	0.01	38.28	-999.25	-999.25	-999.25	0.01
8099.5	11.83	2.71	0.01	-999.25	0.01	39.69	-999.25	-999.25	-999.25	0.01
8100.0	11.60	2.71	0.01	-999.25	0.01	42.73	-999.25	-999.25	-999.25	0.01
8100.5	13.36	2.71	0.01	-999.25	0.01	46.50	-999.25	-999.25	-999.25	0.01
8101.0	16.05	2.72	0.01	-999.25	0.01	49.63	-999.25	-999.25	-999.25	0.01
8101.5	18.25	2.72	0.01	-999.25	0.01	51.71	-999.25	-999.25	-999.25	0.01
