# LAS format log file from PETREL
# Project units are specified as depth units
#==================================================================
~Version information
VERS.   2.0:
WRAP.   NO:
#==================================================================
~Well
STRT .ft        8355.0 :
STOP .ft        8697.0 :
STEP .ft        0.5    :
NULL .          -999.25  :
COMP.           : COMPANY
WELL.  HW-7     : WELL
FLD.   COSTA    : FIELD
LOC.            : LOCATION
SRVC.           : SERVICE COMPANY
DATE.  2018-02-06 14:55:39   : Log Export Date {yyyy-MM-dd HH:mm:ss}
PROV.           : PROVINCE
UWI.   HW-7     : UNIQUE WELL ID
API.            : API NUMBER
#==================================================================
~Curve
DEPT .ft                  : DEPTH
GR .gAPI                  : GR
RHOB .g/cm3               : RHOB
NPHI .ft3/ft3             : NPHI
DT .us/ft                 : DT
PHIE .ft3/ft3             : PHIE
RT .ohm.m                 : RT
SW .                      : SW
SO . 			  : SO
CORE_POR .ft3/ft3         : CORE_POR
CORE_PERM .mD             : CORE_PERM
~Parameter
#==================================================================
~Ascii
8512.0	49.47	2.70	0.07	-999.25	0.04	9.84	-999.25	-999.25	2.64	3.59
8512.5	47.09	2.70	0.09	-999.25	0.03	11.74	-999.25	-999.25	2.90	6.23
8513.0	39.04	2.71	0.08	-999.25	0.02	16.52	-999.25	-999.25	3.16	8.88
8513.5	33.42	2.72	0.06	-999.25	0.02	22.33	-999.25	-999.25	1.91	4.10
8514.0	31.40	2.73	0.04	-999.25	0.01	27.43	-999.25	-999.25	1.00	0.02
8514.5	32.39	2.74	0.02	-999.25	0.00	32.80	-999.25	-999.25	1.30	0.03
8515.0	36.99	2.73	0.02	-999.25	0.00	30.67	-999.25	-999.25	1.60	0.05
8515.5	38.86	2.72	0.02	-999.25	0.00	22.99	-999.25	-999.25	1.74	0.05
8516.0	41.52	2.71	0.02	-999.25	0.00	23.57	-999.25	-999.25	1.88	0.04
8516.5	35.66	2.72	0.02	-999.25	0.00	30.85	-999.25	-999.25	1.73	0.04
8517.0	32.03	2.73	0.01	-999.25	0.00	44.24	-999.25	-999.25	1.53	0.04
8517.5	30.34	2.74	0.01	-999.25	0.00	56.13	-999.25	-999.25	1.37	0.03
8518.0	32.99	2.73	0.01	-999.25	0.00	68.41	-999.25	-999.25	1.22	0.02
8518.5	36.33	2.73	0.01	-999.25	0.00	59.83	-999.25	-999.25	1.25	0.02
8519.0	36.80	2.72	0.01	-999.25	0.00	44.64	-999.25	-999.25	1.34	0.02
8519.5	34.98	2.72	0.01	-999.25	0.01	45.63	-999.25	-999.25	1.62	0.03
8520.0	31.20	2.72	0.01	-999.25	0.01	57.76	-999.25	-999.25	1.74	0.04
8520.5	29.89	2.73	0.01	-999.25	0.00	66.41	-999.25	-999.25	1.57	0.02
8521.0	30.57	2.74	0.01	-999.25	0.00	70.63	-999.25	-999.25	1.40	0.01
8521.5	31.64	2.73	0.01	-999.25	0.00	61.19	-999.25	-999.25	1.64	0.03
8522.0	30.92	2.73	0.01	-999.25	0.01	57.84	-999.25	-999.25	1.73	0.04
8522.5	30.44	2.73	0.01	-999.25	0.01	61.33	-999.25	-999.25	1.53	0.04
8523.0	29.24	2.74	0.01	-999.25	0.00	70.47	-999.25	-999.25	1.33	0.04
8523.5	30.79	2.74	0.01	-999.25	0.00	77.17	-999.25	-999.25	1.11	0.02
8524.0	30.50	2.74	0.01	-999.25	0.00	70.44	-999.25	-999.25	0.90	0.01
8524.5	32.92	2.72	0.01	-999.25	0.01	73.67	-999.25	-999.25	0.81	0.01
8525.0	34.00	2.72	0.01	-999.25	0.01	78.04	-999.25	-999.25	0.71	0.01
8525.5	35.85	2.73	0.01	-999.25	0.01	84.24	-999.25	-999.25	0.88	0.02
8526.0	35.53	2.73	0.01	-999.25	0.00	94.49	-999.25	-999.25	1.10	0.04
8526.5	34.83	2.75	0.01	-999.25	0.00	157.33	-999.25	-999.25	1.05	0.03
8527.0	34.45	2.76	0.00	-999.25	0.00	347.27	-999.25	-999.25	1.00	0.01
8527.5	33.11	2.75	0.00	-999.25	0.00	963.78	-999.25	-999.25	0.81	0.01
8528.0	29.44	2.75	0.00	-999.25	0.00	2172.84	-999.25	-999.25	0.63	0.01
8528.5	25.24	2.75	0.00	-999.25	0.00	3086.94	-999.25	-999.25	1.01	0.31
8529.0	26.52	2.73	0.00	-999.25	0.00	3054.77	-999.25	-999.25	1.50	0.66
8529.5	32.12	2.73	0.00	-999.25	0.00	127.97	-999.25	-999.25	1.17	0.31
8530.0	33.49	2.71	0.01	-999.25	0.01	133.24	-999.25	-999.25	1.33	0.03
8530.5	26.52	2.69	0.02	-999.25	0.02	137.89	0.65	0.35	4.01	0.06
8531.0	19.77	2.63	0.04	-999.25	0.04	116.87	0.38	0.62	6.70	0.09
8531.5	15.64	2.60	0.06	-999.25	0.06	34.19	0.47	0.53	8.78	0.10
8532.0	16.57	2.57	0.08	-999.25	0.08	5.42	0.92	0.08	10.87	0.11
8532.5	14.90	2.56	0.09	-999.25	0.10	2.45	-999.25	-999.25	11.25	0.19
8533.0	16.62	2.54	0.10	-999.25	0.11	1.45	-999.25	-999.25	11.30	0.29
8533.5	16.88	2.52	0.11	-999.25	0.12	1.18	-999.25	-999.25	14.02	70.97
8534.0	18.85	2.50	0.13	-999.25	0.12	1.15	-999.25	-999.25	16.74	141.66
8534.5	21.75	2.50	0.14	-999.25	0.12	1.16	-999.25	-999.25	16.58	152.83
8535.0	23.23	2.51	0.12	-999.25	0.11	1.18	-999.25	-999.25	13.55	104.48
8535.5	24.47	2.55	0.09	-999.25	0.09	1.49	-999.25	-999.25	10.52	56.13
8536.0	25.32	2.62	0.05	-999.25	0.05	2.90	-999.25	-999.25	7.49	7.79
8536.5	26.09	2.67	0.02	-999.25	0.02	6.29	-999.25	-999.25	5.15	0.05
8537.0	23.14	2.70	0.01	-999.25	0.01	12.18	-999.25	-999.25	2.95	0.05
8537.5	18.24	2.70	0.01	-999.25	0.01	15.56	-999.25	-999.25	2.86	0.05
8538.0	14.10	2.68	0.01	-999.25	0.02	10.01	-999.25	-999.25	3.97	0.05
8538.5	13.25	2.64	0.03	-999.25	0.03	7.95	-999.25	-999.25	5.63	0.05
8539.0	12.44	2.62	0.04	-999.25	0.05	5.05	-999.25	-999.25	7.30	0.04
8539.5	11.67	2.59	0.06	-999.25	0.07	2.57	-999.25	-999.25	9.01	0.13
8540.0	11.84	2.57	0.09	-999.25	0.09	2.47	-999.25	-999.25	10.79	0.38
8540.5	10.81	2.55	0.10	-999.25	0.10	2.59	-999.25	-999.25	10.96	0.30
8541.0	11.56	2.55	0.10	-999.25	0.10	2.81	-999.25	-999.25	10.30	0.05
8541.5	13.94	2.55	0.09	-999.25	0.10	2.70	-999.25	-999.25	12.36	82.85
8542.0	13.52	2.55	0.09	-999.25	0.10	1.87	-999.25	-999.25	14.41	165.65
8542.5	13.77	2.51	0.10	-999.25	0.12	1.03	-999.25	-999.25	16.47	248.45
8543.0	10.18	2.46	0.14	-999.25	0.15	0.61	-999.25	-999.25	18.38	298.07
8543.5	11.35	2.42	0.16	-999.25	0.17	0.46	-999.25	-999.25	19.50	173.50
8544.0	9.88	2.40	0.18	-999.25	0.20	0.38	-999.25	-999.25	20.62	48.93
8544.5	9.22	2.38	0.20	-999.25	0.21	0.35	-999.25	-999.25	21.58	23.58
8545.0	8.91	2.36	0.22	-999.25	0.22	0.30	-999.25	-999.25	22.50	17.13
8545.5	7.92	2.36	0.22	-999.25	0.23	0.29	-999.25	-999.25	23.43	10.68
8546.0	8.14	2.35	0.22	-999.25	0.23	0.29	-999.25	-999.25	24.35	4.23
8546.5	7.23	2.35	0.22	-999.25	0.23	0.28	-999.25	-999.25	23.40	2.30
8547.0	7.99	2.35	0.23	-999.25	0.24	0.28	-999.25	-999.25	22.27	1.46
8547.5	8.08	2.35	0.22	-999.25	0.24	0.28	-999.25	-999.25	22.11	1.86
8548.0	7.41	2.35	0.22	-999.25	0.24	0.28	-999.25	-999.25	21.95	2.26
8548.5	7.78	2.34	0.21	-999.25	0.23	0.28	-999.25	-999.25	21.72	1.83
8549.0	7.95	2.33	0.20	-999.25	0.23	0.28	-999.25	-999.25	21.44	0.98
8549.5	8.44	2.32	0.21	-999.25	0.24	0.28	-999.25	-999.25	22.86	255.20
8550.0	7.98	2.31	0.22	-999.25	0.24	0.28	-999.25	-999.25	24.60	558.00
8550.5	7.25	2.32	0.24	-999.25	0.24	0.28	-999.25	-999.25	22.10	300.09
8551.0	9.16	2.34	0.23	-999.25	0.24	0.28	-999.25	-999.25	19.60	42.18
8551.5	9.42	2.35	0.21	-999.25	0.23	0.28	-999.25	-999.25	21.30	0.95
8552.0	9.41	2.35	0.21	-999.25	0.23	0.29	-999.25	-999.25	23.80	0.99
8552.5	7.74	2.35	0.21	-999.25	0.23	0.29	-999.25	-999.25	22.05	0.99
8553.0	6.98	2.35	0.21	-999.25	0.22	0.31	-999.25	-999.25	20.30	0.99
8553.5	7.94	2.38	0.20	-999.25	0.21	0.37	-999.25	-999.25	21.63	2.32
8554.0	7.92	2.40	0.19	-999.25	0.20	0.46	-999.25	-999.25	20.87	2.65
8554.5	9.46	2.42	0.17	-999.25	0.18	0.60	-999.25	-999.25	16.09	1.04
8555.0	11.12	2.46	0.14	-999.25	0.15	0.75	-999.25	-999.25	12.68	0.38
8555.5	12.67	2.50	0.11	-999.25	0.13	0.89	-999.25	-999.25	10.65	0.67
8556.0	12.28	2.54	0.10	-999.25	0.11	1.25	-999.25	-999.25	8.62	0.96
8556.5	10.45	2.55	0.10	-999.25	0.11	1.14	-999.25	-999.25	10.93	1.04
8557.0	8.83	2.53	0.12	-999.25	0.12	0.82	-999.25	-999.25	17.60	0.91
8557.5	9.23	2.49	0.13	-999.25	0.14	0.77	-999.25	-999.25	16.68	0.69
8558.0	9.69	2.46	0.15	-999.25	0.16	0.71	-999.25	-999.25	16.28	0.61
8558.5	10.13	2.45	0.15	-999.25	0.17	0.63	-999.25	-999.25	18.64	1.20
8559.0	9.42	2.44	0.16	-999.25	0.18	0.54	-999.25	-999.25	20.08	1.49
8559.5	8.70	2.41	0.18	-999.25	0.19	0.47	-999.25	-999.25	19.71	1.18
8560.0	8.21	2.40	0.18	-999.25	0.19	0.41	-999.25	-999.25	19.33	0.90
8560.5	9.65	2.41	0.19	-999.25	0.20	0.38	-999.25	-999.25	18.86	0.87
8561.0	9.37	2.41	0.19	-999.25	0.20	0.39	-999.25	-999.25	18.40	0.84
8561.5	9.90	2.42	0.20	-999.25	0.20	0.39	-999.25	-999.25	20.15	4.77
8562.0	8.17	2.40	0.21	-999.25	0.21	0.38	-999.25	-999.25	21.90	8.70
8562.5	8.19	2.40	0.21	-999.25	0.21	0.36	-999.25	-999.25	21.36	5.49
8563.0	7.99	2.37	0.20	-999.25	0.21	0.35	-999.25	-999.25	20.77	2.69
8563.5	7.97	2.37	0.20	-999.25	0.21	0.37	-999.25	-999.25	19.95	2.00
8564.0	8.43	2.37	0.20	-999.25	0.21	0.40	-999.25	-999.25	19.13	1.31
8564.5	8.14	2.39	0.20	-999.25	0.20	0.42	-999.25	-999.25	19.27	26.22
8565.0	10.07	2.41	0.19	-999.25	0.19	0.45	-999.25	-999.25	19.60	56.00
8565.5	12.54	2.44	0.17	-999.25	0.17	0.49	-999.25	-999.25	19.17	26.33
8566.0	15.31	2.47	0.14	-999.25	0.15	0.58	-999.25	-999.25	18.84	1.39
8566.5	15.69	2.50	0.13	-999.25	0.15	0.63	-999.25	-999.25	19.08	1.34
8567.0	13.93	2.48	0.13	-999.25	0.15	0.56	-999.25	-999.25	19.32	1.30
8567.5	11.45	2.45	0.15	-999.25	0.16	0.52	-999.25	-999.25	19.56	1.25
8568.0	10.68	2.42	0.15	-999.25	0.18	0.50	-999.25	-999.25	19.80	1.20
8568.5	8.94	2.40	0.16	-999.25	0.19	0.45	-999.25	-999.25	19.30	1.90
8569.0	8.95	2.39	0.19	-999.25	0.21	0.38	-999.25	-999.25	18.80	2.60
8569.5	7.03	2.35	0.20	-999.25	0.22	0.31	-999.25	-999.25	23.52	162.04
8570.0	7.78	2.33	0.22	-999.25	0.23	0.27	-999.25	-999.25	28.24	321.49
8570.5	6.79	2.32	0.22	-999.25	0.24	0.25	-999.25	-999.25	27.54	191.74
