# LAS format log file from PETREL
# Project units are specified as depth units
#==================================================================
~Version information
VERS.   2.0:
WRAP.   NO:
#==================================================================
~Well
STRT .ft        8355.0 :
STOP .ft        8697.0 :
STEP .ft        0.5    :
NULL .          -999.25  :
COMP.           : COMPANY
WELL.  HW-7     : WELL
FLD.   COSTA    : FIELD
LOC.            : LOCATION
SRVC.           : SERVICE COMPANY
DATE.  2018-02-06 14:55:39   : Log Export Date {yyyy-MM-dd HH:mm:ss}
PROV.           : PROVINCE
UWI.   HW-7     : UNIQUE WELL ID
API.            : API NUMBER
#==================================================================
~Curve
DEPT .ft                  : DEPTH
GR .gAPI                  : GR
RHOB .g/cm3               : RHOB
NPHI .ft3/ft3             : NPHI
DT .us/ft                 : DT
PHIE .ft3/ft3             : PHIE
RT .ohm.m                 : RT
SW .                      : SW
SO . 			  : SO
CORE_POR .ft3/ft3         : CORE_POR
CORE_PERM .mD             : CORE_PERM
~Parameter
#==================================================================
~Ascii
# ...
8630.5	9.22	2.38	0.21	-999.25	0.21	0.28	-999.25	-999.25	23.17	1.72
8631.0	9.08	2.38	0.22	-999.25	0.22	0.27	-999.25	-999.25	24.19	2.44
8631.5	10.01	2.38	0.22	-999.25	0.22	0.26	-999.25	-999.25	24.45	2.23
8632.0	8.74	2.38	0.21	-999.25	0.22	0.25	-999.25	-999.25	23.95	1.10
8632.5	8.40	2.36	0.20	-999.25	0.22	0.24	-999.25	-999.25	23.37	0.56
8633.0	7.71	2.36	0.21	-999.25	0.22	0.25	-999.25	-999.25	22.72	0.63
8633.5	7.77	2.36	0.22	-999.25	0.23	0.27	-999.25	-999.25	22.58	0.79
8634.0	7.95	2.37	0.23	-999.25	0.23	0.29	-999.25	-999.25	22.70	0.99
8634.5	7.75	2.37	0.23	-999.25	0.22	0.33	-999.25	-999.25	21.55	0.91
8635.0	9.73	2.39	0.20	-999.25	0.20	0.35	-999.25	-999.25	20.40	0.84
8635.5	10.37	2.43	0.18	-999.25	0.18	0.39	-999.25	-999.25	18.64	0.59
8636.0	11.06	2.45	0.16	-999.25	0.17	0.41	-999.25	-999.25	16.88	0.34
8636.5	9.86	2.45	0.15	-999.25	0.17	0.37	-999.25	-999.25	17.47	0.37
8637.0	8.65	2.43	0.17	-999.25	0.18	0.35	-999.25	-999.25	20.40	0.69
8637.5	7.70	2.40	0.19	-999.25	0.19	0.35	-999.25	-999.25	20.49	0.69
8638.0	8.68	2.38	0.21	-999.25	0.21	0.34	-999.25	-999.25	20.57	0.69
8638.5	8.45	2.37	0.21	-999.25	0.22	0.31	-999.25	-999.25	21.20	0.73
8639.0	8.64	2.37	0.22	-999.25	0.22	0.27	-999.25	-999.25	22.21	0.86
8639.5	7.27	2.37	0.21	-999.25	0.22	0.24	-999.25	-999.25	23.40	1.15
8640.0	8.27	2.36	0.22	-999.25	0.23	0.21	-999.25	-999.25	23.68	1.12
8640.5	9.50	2.35	0.22	-999.25	0.23	0.20	-999.25	-999.25	23.04	0.75
8641.0	9.66	2.33	0.23	-999.25	0.24	0.20	-999.25	-999.25	22.38	0.44
8641.5	8.92	2.33	0.23	-999.25	0.24	0.21	-999.25	-999.25	21.65	0.43
8642.0	7.76	2.34	0.23	-999.25	0.24	0.21	-999.25	-999.25	20.92	0.42
8642.5	7.22	2.35	0.24	-999.25	0.24	0.21	-999.25	-999.25	18.53	0.33
8643.0	6.25	2.35	0.24	-999.25	0.24	0.21	-999.25	-999.25	15.83	0.23
8643.5	6.51	2.34	0.24	-999.25	0.24	0.21	-999.25	-999.25	17.23	0.60
8644.0	6.45	2.34	0.24	-999.25	0.24	0.21	-999.25	-999.25	19.40	1.06
8644.5	7.93	2.33	0.24	-999.25	0.24	0.21	-999.25	-999.25	21.57	1.51
8645.0	8.41	2.33	0.23	-999.25	0.24	0.21	-999.25	-999.25	23.30	2.06
8645.5	8.98	2.34	0.22	-999.25	0.24	0.21	-999.25	-999.25	22.70	3.06
8646.0	8.68	2.36	0.21	-999.25	0.23	0.21	-999.25	-999.25	22.23	3.68
8646.5	7.45	2.38	0.24	-999.25	0.23	0.21	-999.25	-999.25	22.40	2.28
8647.0	8.23	2.36	0.24	-999.25	0.23	0.21	-999.25	-999.25	22.57	0.89
8647.5	7.90	2.35	0.24	-999.25	0.24	0.21	-999.25	-999.25	23.45	0.70
8648.0	8.82	2.34	0.23	-999.25	0.24	0.20	-999.25	-999.25	24.46	0.75
8648.5	8.42	2.34	0.22	-999.25	0.24	0.20	-999.25	-999.25	23.84	0.72
8649.0	7.55	2.34	0.22	-999.25	0.24	0.20	-999.25	-999.25	22.39	0.66
8649.5	7.06	2.33	0.23	-999.25	0.24	0.20	-999.25	-999.25	22.36	0.65
8650.0	5.84	2.33	0.23	-999.25	0.24	0.20	-999.25	-999.25	23.05	0.67
8650.5	6.36	2.33	0.24	-999.25	0.24	0.20	-999.25	-999.25	22.95	0.66
8651.0	6.99	2.34	0.23	-999.25	0.23	0.21	-999.25	-999.25	22.04	0.61
8651.5	7.45	2.36	0.22	-999.25	0.22	0.22	-999.25	-999.25	20.44	0.46
8652.0	8.19	2.37	0.20	-999.25	0.21	0.23	-999.25	-999.25	18.69	0.34
8652.5	8.38	2.40	0.19	-999.25	0.19	0.29	-999.25	-999.25	16.91	0.31
8653.0	9.57	2.43	0.17	-999.25	0.17	0.39	-999.25	-999.25	15.49	0.28
8653.5	9.57	2.48	0.14	-999.25	0.15	0.56	-999.25	-999.25	14.25	0.24
8654.0	8.42	2.51	0.12	-999.25	0.13	0.67	-999.25	-999.25	13.02	0.21
8654.5	7.71	2.52	0.11	-999.25	0.12	0.68	-999.25	-999.25	13.54	0.20
8655.0	7.99	2.51	0.11	-999.25	0.13	0.64	-999.25	-999.25	15.83	0.23
8655.5	8.20	2.50	0.13	-999.25	0.13	0.62	-999.25	-999.25	15.80	0.22
8656.0	8.65	2.49	0.14	-999.25	0.14	0.61	-999.25	-999.25	15.25	0.22
8656.5	8.64	2.50	0.14	-999.25	0.14	0.61	-999.25	-999.25	14.33	0.22
8657.0	10.25	2.49	0.14	-999.25	0.14	0.64	-999.25	-999.25	13.41	0.22
8657.5	10.06	2.49	0.13	-999.25	0.14	0.65	-999.25	-999.25	13.78	0.21
8658.0	9.15	2.49	0.15	-999.25	0.15	0.57	-999.25	-999.25	14.80	0.19
8658.5	6.59	2.49	0.16	-999.25	0.15	0.55	-999.25	-999.25	17.19	0.36
8659.0	6.14	2.48	0.17	-999.25	0.16	0.42	-999.25	-999.25	19.26	0.52
8659.5	7.29	2.46	0.18	-999.25	0.17	0.40	-999.25	-999.25	19.62	0.58
8660.0	7.98	2.44	0.19	-999.25	0.18	0.39	-999.25	-999.25	19.98	0.64
8660.5	8.45	2.43	0.20	-999.25	0.19	0.38	-999.25	-999.25	19.56	0.63
8661.0	7.19	2.42	0.20	-999.25	0.19	0.38	-999.25	-999.25	18.73	0.58
8661.5	7.67	2.43	0.21	-999.25	0.19	0.39	-999.25	-999.25	16.36	0.69
8662.0	7.45	2.46	0.19	-999.25	0.17	0.46	-999.25	-999.25	13.70	0.84
8662.5	7.99	2.50	0.17	-999.25	0.15	0.62	-999.25	-999.25	12.91	0.57
8663.0	8.70	2.55	0.14	-999.25	0.12	0.87	-999.25	-999.25	12.13	0.29
8663.5	9.19	2.58	0.11	-999.25	0.10	1.07	-999.25	-999.25	10.95	0.18
8664.0	9.64	2.59	0.10	-999.25	0.09	1.37	-999.25	-999.25	9.70	0.10
8664.5	10.90	2.59	0.08	-999.25	0.08	1.69	-999.25	-999.25	5.25	0.07
8665.0	10.38	2.59	0.07	-999.25	0.07	2.10	-999.25	-999.25	0.80	0.04
8665.5	9.89	2.60	0.06	-999.25	0.07	1.84	-999.25	-999.25	5.24	0.07
8666.0	8.85	2.59	0.07	-999.25	0.08	1.44	-999.25	-999.25	9.69	0.10
8666.5	8.65	2.56	0.09	-999.25	0.09	1.34	-999.25	-999.25	11.16	0.11
8667.0	8.49	2.54	0.11	-999.25	0.11	1.29	-999.25	-999.25	12.06	0.13
8667.5	7.32	2.53	0.12	-999.25	0.11	1.22	-999.25	-999.25	11.64	0.48
8668.0	7.38	2.53	0.11	-999.25	0.12	1.19	-999.25	-999.25	11.33	0.67
8668.5	8.53	2.53	0.11	-999.25	0.11	1.28	-999.25	-999.25	11.72	0.40
8669.0	10.18	2.55	0.11	-999.25	0.10	1.41	-999.25	-999.25	12.10	0.13
8669.5	10.41	2.57	0.10	-999.25	0.09	1.74	-999.25	-999.25	10.20	0.10
8670.0	9.40	2.60	0.09	-999.25	0.08	2.09	-999.25	-999.25	8.30	0.07
8670.5	7.73	2.61	0.08	-999.25	0.07	2.65	-999.25	-999.25	7.41	0.05
8671.0	7.96	2.62	0.07	-999.25	0.06	3.11	-999.25	-999.25	6.71	0.05
8671.5	9.20	2.64	0.05	-999.25	0.06	2.62	-999.25	-999.25	6.01	0.04
8672.0	10.65	2.64	0.04	-999.25	0.05	2.40	-999.25	-999.25	6.74	0.05
8672.5	9.91	2.64	0.04	-999.25	0.05	2.24	-999.25	-999.25	7.74	0.06
8673.0	8.94	2.62	0.06	-999.25	0.06	2.20	-999.25	-999.25	8.74	0.07
8673.5	7.24	2.61	0.08	-999.25	0.08	2.08	-999.25	-999.25	9.65	0.09
8674.0	8.67	2.57	0.10	-999.25	0.09	1.83	-999.25	-999.25	10.59	0.11
8674.5	7.93	2.55	0.11	-999.25	0.11	1.42	-999.25	-999.25	11.80	0.12
8675.0	8.45	2.53	0.11	-999.25	0.12	1.14	-999.25	-999.25	12.64	0.13
8675.5	7.72	2.53	0.12	-999.25	0.12	0.95	-999.25	-999.25	12.75	0.11
8676.0	8.20	2.53	0.11	-999.25	0.12	0.88	-999.25	-999.25	12.86	0.10
8676.5	7.99	2.53	0.11	-999.25	0.11	0.90	-999.25	-999.25	12.46	0.10
8677.0	7.85	2.54	0.11	-999.25	0.11	1.02	-999.25	-999.25	11.80	0.11
8677.5	9.06	2.55	0.10	-999.25	0.09	1.44	-999.25	-999.25	10.22	0.08
8678.0	10.95	2.58	0.08	-999.25	0.07	2.29	-999.25	-999.25	8.28	0.05
8678.5	17.63	2.62	0.06	-999.25	0.04	3.98	-999.25	-999.25	4.39	0.03
8679.0	24.17	2.66	0.03	-999.25	0.02	6.59	-999.25	-999.25	0.50	0.02
8679.5	32.72	2.70	0.02	-999.25	0.02	14.71	-999.25	-999.25	0.93	0.03
8680.0	32.53	2.72	0.02	-999.25	0.01	28.20	-999.25	-999.25	1.23	0.04
8680.5	31.62	2.72	0.01	-999.25	0.01	31.87	-999.25	-999.25	0.81	0.03
8681.0	25.19	2.73	0.01	-999.25	0.00	59.22	-999.25	-999.25	0.60	0.02
8681.5	20.06	2.73	0.01	-999.25	0.00	87.12	-999.25	-999.25	0.60	0.01
8682.0	14.94	2.73	0.00	-999.25	0.01	117.27	-999.25	-999.25	0.59	0.01
8682.5	11.82	2.74	0.00	-999.25	0.00	141.35	-999.25	-999.25	0.54	0.02
8683.0	11.81	2.74	0.00	-999.25	0.00	139.18	-999.25	-999.25	0.50	0.02
8683.5	17.19	2.75	0.00	-999.25	0.00	74.23	-999.25	-999.25	0.50	0.03
8684.0	26.17	2.73	0.01	-999.25	0.00	52.42	-999.25	-999.25	0.50	0.03
8684.5	28.04	2.73	0.01	-999.25	0.00	36.39	-999.25	-999.25	0.78	0.04
8685.0	23.12	2.73	0.01	-999.25	0.00	37.15	-999.25	-999.25	1.06	0.05
8685.5	15.93	2.74	0.01	-999.25	0.00	71.04	-999.25	-999.25	1.01	0.04
8686.0	16.37	2.74	0.00	-999.25	0.00	93.45	-999.25	-999.25	0.69	0.02
8686.5	19.38	2.73	0.00	-999.25	0.00	108.56	-999.25	-999.25	0.65	0.02
8687.0	21.07	2.73	0.00	-999.25	0.00	101.27	-999.25	-999.25	0.60	0.02
8687.5	21.05	2.74	0.00	-999.25	0.00	68.85	-999.25	-999.25	0.55	0.02
8688.0	19.68	2.75	0.01	-999.25	0.00	48.21	-999.25	-999.25	0.51	0.01
8688.5	20.10	2.74	0.01	-999.25	0.00	29.23	-999.25	-999.25	0.50	0.01
8689.0	20.07	2.72	0.01	-999.25	0.01	34.85	-999.25	-999.25	0.53	0.01
8689.5	19.85	2.72	0.01	-999.25	0.01	36.22	-999.25	-999.25	0.62	0.02
8690.0	19.80	2.73	0.01	-999.25	0.01	34.14	-999.25	-999.25	0.69	0.02
