# LAS format log file from PETREL
# Project units are specified as depth units
#==================================================================
~Version information
VERS.   2.0:
WRAP.   NO:
#==================================================================
~Well
STRT .ft        8355.0 :
STOP .ft        8697.0 :
STEP .ft        0.5    :
NULL .          -999.25  :
COMP.           : COMPANY
WELL.  HW-7     : WELL
FLD.   COSTA    : FIELD
LOC.            : LOCATION
SRVC.           : SERVICE COMPANY
DATE.  2018-02-06 14:55:39   : Log Export Date {yyyy-MM-dd HH:mm:ss}
PROV.           : PROVINCE
UWI.   HW-7     : UNIQUE WELL ID
API.            : API NUMBER
#==================================================================
~Curve
DEPT .ft                  : DEPTH
GR .gAPI                  : GR
RHOB .g/cm3               : RHOB
NPHI .ft3/ft3             : NPHI
DT .us/ft                 : DT
PHIE .ft3/ft3             : PHIE
RT .ohm.m                 : RT
SW .                      : SW
SO . 			  : SO
CORE_POR .ft3/ft3         : CORE_POR
CORE_PERM .mD             : CORE_PERM
~Parameter
#==================================================================
~Ascii
# ...
8571.0	6.60	2.34	0.22	-999.25	0.24	0.25	-999.25	-999.25	25.80	6.90
8571.5	6.10	2.34	0.22	-999.25	0.24	0.24	-999.25	-999.25	25.82	62.18
8572.0	6.84	2.35	0.22	-999.25	0.24	0.24	-999.25	-999.25	25.85	117.45
8572.5	7.10	2.33	0.22	-999.25	0.25	0.24	-999.25	-999.25	25.88	172.73
8573.0	7.07	2.32	0.24	-999.25	0.25	0.24	-999.25	-999.25	25.90	228.00
8573.5	7.76	2.32	0.24	-999.25	0.26	0.24	-999.25	-999.25	25.63	105.39
8574.0	8.66	2.32	0.24	-999.25	0.25	0.24	-999.25	-999.25	25.23	2.59
8574.5	9.96	2.32	0.23	-999.25	0.26	0.23	-999.25	-999.25	24.20	3.75
8575.0	9.31	2.31	0.23	-999.25	0.26	0.23	-999.25	-999.25	23.17	4.91
8575.5	9.19	2.30	0.23	-999.25	0.26	0.23	-999.25	-999.25	24.42	4.23
8576.0	8.90	2.31	0.24	-999.25	0.26	0.23	-999.25	-999.25	26.10	3.20
8576.5	8.61	2.32	0.24	-999.25	0.26	0.23	-999.25	-999.25	26.90	2.00
8577.0	8.30	2.34	0.24	-999.25	0.25	0.23	-999.25	-999.25	26.88	1.93
8577.5	8.30	2.34	0.23	-999.25	0.25	0.23	-999.25	-999.25	26.05	3.00
8578.0	9.22	2.34	0.23	-999.25	0.25	0.23	-999.25	-999.25	25.53	3.37
8578.5	8.64	2.31	0.22	-999.25	0.25	0.23	-999.25	-999.25	25.60	2.40
8579.0	7.93	2.30	0.22	-999.25	0.25	0.23	-999.25	-999.25	25.67	1.43
8579.5	7.74	2.29	0.22	-999.25	0.26	0.23	-999.25	-999.25	26.15	1.95
8580.0	7.73	2.30	0.24	-999.25	0.26	0.24	-999.25	-999.25	26.29	4.13
8580.5	6.75	2.30	0.23	-999.25	0.25	0.24	-999.25	-999.25	25.36	8.04
8581.0	6.75	2.31	0.22	-999.25	0.25	0.24	-999.25	-999.25	24.90	12.20
8581.5	8.03	2.32	0.20	-999.25	0.25	0.24	-999.25	-999.25	24.90	16.60
8582.0	8.68	2.32	0.22	-999.25	0.25	0.24	-999.25	-999.25	24.90	21.00
8582.5	8.18	2.31	0.22	-999.25	0.24	0.25	-999.25	-999.25	24.65	12.00
8583.0	7.68	2.32	0.21	-999.25	0.24	0.25	-999.25	-999.25	24.40	3.00
8583.5	8.88	2.34	0.20	-999.25	0.22	0.30	-999.25	-999.25	24.20	2.95
8584.0	7.95	2.37	0.20	-999.25	0.21	0.35	-999.25	-999.25	24.00	2.90
8584.5	8.28	2.39	0.19	-999.25	0.20	0.44	-999.25	-999.25	20.63	5.45
8585.0	10.14	2.41	0.18	-999.25	0.19	0.55	-999.25	-999.25	17.73	7.16
8585.5	11.93	2.43	0.17	-999.25	0.17	0.65	-999.25	-999.25	17.29	4.38
8586.0	13.78	2.47	0.14	-999.25	0.15	0.76	-999.25	-999.25	16.85	1.60
8586.5	14.69	2.51	0.12	-999.25	0.13	0.90	-999.25	-999.25	14.50	0.43
8587.0	13.93	2.55	0.10	-999.25	0.11	1.07	-999.25	-999.25	11.70	0.16
8587.5	11.80	2.56	0.10	-999.25	0.10	0.94	-999.25	-999.25	11.70	0.13
8588.0	9.40	2.54	0.11	-999.25	0.11	0.79	-999.25	-999.25	11.91	0.11
8588.5	11.12	2.53	0.12	-999.25	0.12	0.80	-999.25	-999.25	13.20	0.15
8589.0	11.59	2.51	0.13	-999.25	0.13	0.77	-999.25	-999.25	14.50	0.19
8589.5	10.87	2.48	0.14	-999.25	0.14	0.66	-999.25	-999.25	17.76	0.74
8590.0	9.23	2.47	0.16	-999.25	0.15	0.57	-999.25	-999.25	20.28	1.13
8590.5	9.85	2.47	0.16	-999.25	0.15	0.54	-999.25	-999.25	18.91	0.72
8591.0	10.12	2.50	0.14	-999.25	0.14	0.62	-999.25	-999.25	17.49	0.41
8591.5	10.38	2.52	0.12	-999.25	0.13	0.64	-999.25	-999.25	15.97	0.32
8592.0	8.44	2.47	0.11	-999.25	0.13	0.52	-999.25	-999.25	14.46	0.23
8592.5	8.00	2.44	0.14	-999.25	0.16	0.48	-999.25	-999.25	16.90	0.41
8593.0	8.22	2.40	0.18	-999.25	0.19	0.43	-999.25	-999.25	23.30	0.84
8593.5	8.22	2.39	0.20	-999.25	0.20	0.35	-999.25	-999.25	22.02	0.81
8594.0	9.33	2.36	0.20	-999.25	0.21	0.29	-999.25	-999.25	20.74	0.78
8594.5	8.75	2.36	0.19	-999.25	0.21	0.25	-999.25	-999.25	21.18	1.11
8595.0	9.97	2.36	0.21	-999.25	0.22	0.23	-999.25	-999.25	23.21	1.76
8595.5	8.89	2.35	0.24	-999.25	0.23	0.22	-999.25	-999.25	24.51	2.11
8596.0	9.66	2.34	0.24	-999.25	0.24	0.22	-999.25	-999.25	25.50	2.31
8596.5	9.92	2.32	0.23	-999.25	0.24	0.22	-999.25	-999.25	24.90	1.75
8597.0	10.36	2.33	0.23	-999.25	0.24	0.22	-999.25	-999.25	24.30	1.19
8597.5	9.89	2.33	0.23	-999.25	0.24	0.22	-999.25	-999.25	23.18	0.99
8598.0	9.19	2.33	0.23	-999.25	0.24	0.22	-999.25	-999.25	22.46	1.18
8598.5	9.35	2.33	0.22	-999.25	0.23	0.22	-999.25	-999.25	23.50	1.40
8599.0	9.81	2.34	0.22	-999.25	0.23	0.22	-999.25	-999.25	24.54	1.62
8599.5	9.42	2.35	0.22	-999.25	0.23	0.22	-999.25	-999.25	24.86	1.48
8600.0	8.44	2.35	0.21	-999.25	0.23	0.22	-999.25	-999.25	24.81	1.15
8600.5	7.94	2.35	0.20	-999.25	0.23	0.22	-999.25	-999.25	24.07	1.37
8601.0	8.40	2.35	0.20	-999.25	0.22	0.22	-999.25	-999.25	23.20	1.70
8601.5	9.33	2.36	0.20	-999.25	0.23	0.22	-999.25	-999.25	23.27	1.40
8602.0	9.81	2.34	0.20	-999.25	0.23	0.22	-999.25	-999.25	22.90	1.10
8602.5	9.37	2.34	0.22	-999.25	0.23	0.22	-999.25	-999.25	22.30	0.79
8603.0	9.53	2.35	0.21	-999.25	0.22	0.23	-999.25	-999.25	21.48	0.52
8603.5	8.51	2.37	0.22	-999.25	0.22	0.24	-999.25	-999.25	19.48	0.43
8604.0	8.50	2.39	0.20	-999.25	0.21	0.25	-999.25	-999.25	17.70	0.36
8604.5	7.02	2.40	0.21	-999.25	0.21	0.31	-999.25	-999.25	17.10	0.35
8605.0	8.30	2.43	0.20	-999.25	0.19	0.38	-999.25	-999.25	16.54	0.33
8605.5	8.89	2.45	0.18	-999.25	0.17	0.48	-999.25	-999.25	16.06	0.27
8606.0	10.09	2.49	0.14	-999.25	0.15	0.62	-999.25	-999.25	15.58	0.22
8606.5	10.14	2.52	0.13	-999.25	0.13	0.71	-999.25	-999.25	15.21	0.21
8607.0	11.30	2.50	0.13	-999.25	0.13	0.71	-999.25	-999.25	14.86	0.22
8607.5	12.50	2.51	0.14	-999.25	0.13	0.71	-999.25	-999.25	10.79	0.13
8608.0	13.97	2.52	0.12	-999.25	0.12	0.82	-999.25	-999.25	9.69	0.13
8608.5	13.78	2.55	0.11	-999.25	0.11	0.94	-999.25	-999.25	12.26	0.22
8609.0	12.82	2.55	0.11	-999.25	0.11	0.84	-999.25	-999.25	14.83	0.31
8609.5	9.91	2.52	0.13	-999.25	0.13	0.66	-999.25	-999.25	15.94	0.34
8610.0	7.50	2.49	0.15	-999.25	0.15	0.61	-999.25	-999.25	16.30	0.35
8610.5	5.99	2.47	0.17	-999.25	0.16	0.56	-999.25	-999.25	16.43	0.35
8611.0	6.67	2.46	0.17	-999.25	0.17	0.53	-999.25	-999.25	16.56	0.35
8611.5	9.15	2.45	0.18	-999.25	0.17	0.52	-999.25	-999.25	15.92	0.31
8612.0	13.84	2.47	0.16	-999.25	0.16	0.53	-999.25	-999.25	14.90	0.25
8612.5	15.19	2.49	0.15	-999.25	0.15	0.54	-999.25	-999.25	15.71	0.27
8613.0	16.37	2.50	0.13	-999.25	0.14	0.64	-999.25	-999.25	16.52	0.28
8613.5	12.97	2.48	0.14	-999.25	0.15	0.53	-999.25	-999.25	18.65	0.43
8614.0	11.33	2.44	0.16	-999.25	0.16	0.41	-999.25	-999.25	21.21	0.64
8614.5	10.34	2.41	0.17	-999.25	0.18	0.35	-999.25	-999.25	22.53	0.92
8615.0	9.61	2.38	0.19	-999.25	0.20	0.30	-999.25	-999.25	23.04	4.77
8615.5	9.60	2.38	0.20	-999.25	0.21	0.29	-999.25	-999.25	22.00	15.55
8616.0	7.91	2.37	0.20	-999.25	0.21	0.28	-999.25	-999.25	20.96	26.33
8616.5	9.63	2.38	0.20	-999.25	0.21	0.28	-999.25	-999.25	21.08	18.37
8617.0	10.63	2.38	0.19	-999.25	0.21	0.28	-999.25	-999.25	21.80	0.76
8617.5	11.61	2.38	0.19	-999.25	0.21	0.28	-999.25	-999.25	21.03	0.74
8618.0	10.64	2.38	0.19	-999.25	0.21	0.29	-999.25	-999.25	20.27	0.72
8618.5	10.63	2.38	0.20	-999.25	0.20	0.31	-999.25	-999.25	19.50	0.69
8619.0	11.60	2.41	0.19	-999.25	0.19	0.33	-999.25	-999.25	19.17	0.68
8619.5	12.02	2.44	0.19	-999.25	0.19	0.34	-999.25	-999.25	19.66	0.67
8620.0	11.93	2.44	0.18	-999.25	0.19	0.33	-999.25	-999.25	20.14	0.66
8620.5	9.76	2.41	0.20	-999.25	0.20	0.31	-999.25	-999.25	20.63	0.66
8621.0	9.90	2.39	0.20	-999.25	0.21	0.31	-999.25	-999.25	21.12	0.65
8621.5	9.08	2.38	0.21	-999.25	0.21	0.30	-999.25	-999.25	22.21	0.96
8622.0	9.31	2.38	0.21	-999.25	0.22	0.29	-999.25	-999.25	23.41	1.34
8622.5	9.27	2.37	0.21	-999.25	0.22	0.27	-999.25	-999.25	23.10	1.40
8623.0	8.98	2.37	0.21	-999.25	0.22	0.26	-999.25	-999.25	22.50	1.40
8623.5	9.61	2.37	0.21	-999.25	0.22	0.25	-999.25	-999.25	20.54	1.04
8624.0	8.89	2.38	0.21	-999.25	0.22	0.24	-999.25	-999.25	18.58	0.69
8624.5	10.34	2.39	0.20	-999.25	0.21	0.25	-999.25	-999.25	17.78	0.53
8625.0	10.39	2.40	0.21	-999.25	0.21	0.25	-999.25	-999.25	18.15	0.56
8625.5	10.57	2.39	0.21	-999.25	0.21	0.25	-999.25	-999.25	18.51	0.60
8626.0	9.18	2.38	0.22	-999.25	0.22	0.25	-999.25	-999.25	18.87	0.63
8626.5	9.42	2.37	0.21	-999.25	0.22	0.26	-999.25	-999.25	19.24	0.67
8627.0	8.43	2.37	0.22	-999.25	0.22	0.26	-999.25	-999.25	19.60	0.70
8627.5	10.83	2.37	0.21	-999.25	0.21	0.27	-999.25	-999.25	19.97	0.74
8628.0	12.96	2.38	0.20	-999.25	0.21	0.28	-999.25	-999.25	20.33	0.77
8628.5	13.44	2.41	0.19	-999.25	0.20	0.29	-999.25	-999.25	20.69	0.81
8629.0	10.78	2.43	0.18	-999.25	0.19	0.30	-999.25	-999.25	21.07	0.83
8629.5	8.40	2.42	0.18	-999.25	0.19	0.29	-999.25	-999.25	21.51	0.79
8630.0	8.25	2.40	0.19	-999.25	0.20	0.28	-999.25	-999.25	22.15	1.00
