~Version ---------------------------------------------------
VERS.   2.0 : CWLS log ASCII Standard -VERSION 2.0
WRAP.    NO : One line per depth step
DLM . SPACE : Column Data Section Delimiter
~Well ------------------------------------------------------
STRT  .m                3600.00000 : START DEPTH
STOP  .m                4100.00000 : STOP DEPTH
STEP  .m                   0.50000 : STEP
NULL  .                    -999.25 : NULL VALUE
COMP  .                            : COMPANY
WELL  .                    X10_raw : WELL
FLD   .                            : FIELD
LOC   .                            : LOCATION
PROV  .                            : PROVINCE
CNTY  .                            : COUNTY
STAT  .                            : STATE
CTRY  .                            : COUNTRY
SRVC  .                            : SERVICE COMPANY
DATE  . 2024-01-19 09:37:53.532499 : DATE
UWI   .                            : UNIQUE WELL ID
API   .                            : API NUMBER
LIC   .                            : 
LATI  .                            : 
LONG  .                            : 
NS    .                            : 
EW    .                            : 
XCOORD.                            : 
YCOORD.                            : 
GDAT  .                            : 
SECT  .                            : 
RANG  .                            : 
TOWN  .                            : 
~Curve Information -----------------------------------------
DEPT .m      : 
DEPTH.None   : None
GR   .GAPI   : None
RT   .ohm.m  : None
NPHI .v/v    : None
RHOB .g/cc   : None
~Params ----------------------------------------------------
EKB.      : 
EGL.      : 
KB .      : 
GL .      : 
TD .      : 
TDD.      : 
TDL.      : 
~Other -----------------------------------------------------
~ASCII -----------------------------------------------------
# ...
 3660.00000 3660.00000   84.31850    3.37600    0.24190    2.35580
 3660.50000 3660.50000   81.16030    3.36530    0.23080    2.31880
 3661.00000 3661.00000   82.68100    3.18400    0.23700    2.31120
 3661.50000 3661.50000   89.23130    3.03460    0.25210    2.32270
 3662.00000 3662.00000   98.35490    2.97050    0.26150    2.34140
 3662.50000 3662.50000  104.17000    2.98080    0.26160    2.35150
 3663.00000 3663.00000  105.18850    3.04450    0.25970    2.36000
 3663.50000 3663.50000  102.53290    3.07690    0.25680    2.35570
 3664.00000 3664.00000   96.36640    3.05590    0.24930    2.32580
 3664.50000 3664.50000   87.94460    3.00250    0.23920    2.29860
 3665.00000 3665.00000   82.21310    2.94910    0.23230    2.29130
 3665.50000 3665.50000   83.26580    2.93840    0.22750    2.30390
 3666.00000 3666.00000   88.96900    2.95940    0.22470    2.33500
 3666.50000 3666.50000   95.60350    2.96970    0.23220    2.37490
 3667.00000 3667.00000  102.41600    2.90600    0.24790    2.41470
 3667.50000 3667.50000  110.98760    2.77800    0.26480    2.45340
 3668.00000 3668.00000  120.34520    2.59620    0.28740    2.47890
 3668.50000 3668.50000  127.59740    2.39380    0.31750    2.46570
 3669.00000 3669.00000  131.42540    2.21300    0.34260    2.42590
 3669.50000 3669.50000  133.95040    2.09710    0.36030    2.39000
 3670.00000 3670.00000  135.27550    2.06720    0.37390    2.39380
 3670.50000 3670.50000  135.03390    2.07000    0.37870    2.43370
 3671.00000 3671.00000  134.09570    2.10300    0.37260    2.47090
 3671.50000 3671.50000  133.24910    2.17580    0.36040    2.48000
 3672.00000 3672.00000  131.36930    2.28970    0.35090    2.48080
 3672.50000 3672.50000  128.49910    2.42640    0.34480    2.49000
 3673.00000 3673.00000  126.89550    2.54290    0.34030    2.49000
 3673.50000 3673.50000  126.66160    2.60680    0.33560    2.48860
 3674.00000 3674.00000  125.37490    2.62820    0.32990    2.46730
 3674.50000 3674.50000  121.16400    2.64960    0.32150    2.42810
 3675.00000 3675.00000  117.77190    2.71380    0.31040    2.39880
 3675.50000 3675.50000  117.88880    2.76730    0.30350    2.38000
 3676.00000 3676.00000  117.53790    2.77800    0.30370    2.38050
 3676.50000 3676.50000  116.60220    2.76730    0.30680    2.39000
 3677.00000 3677.00000  118.23980    2.74590    0.31150    2.39000
 3677.50000 3677.50000  121.51490    2.73520    0.31180    2.39000
 3678.00000 3678.00000  125.14100    2.74590    0.30690    2.39000
 3678.50000 3678.50000  127.59740    2.78870    0.30560    2.38970
 3679.00000 3679.00000  123.15250    2.84210    0.30680    2.37940
 3679.50000 3679.50000  111.45550    2.92760    0.29910    2.35870
 3680.00000 3680.00000   99.29070    3.05580    0.27830    2.30870
 3680.50000 3680.50000   90.28400    3.24790    0.25280    2.24940
 3681.00000 3681.00000   84.31850    3.55690    0.23480    2.21970
 3681.50000 3681.50000   80.92640    4.00350    0.22790    2.19990
 3682.00000 3682.00000   78.00220    4.60150    0.22420    2.18990
 3682.50000 3682.50000   74.63350    5.21160    0.21910    2.18000
 3683.00000 3683.00000   73.34640    5.58210    0.21730    2.17000
 3683.50000 3683.50000   76.48150    5.42730    0.22340    2.18000
 3684.00000 3684.00000   82.68100    4.82920    0.23400    2.19000
 3684.50000 3684.50000   88.99730    4.15210    0.24500    2.21000
 3685.00000 3685.00000   95.31370    3.55680    0.26080    2.24000
 3685.50000 3685.50000  104.23680    3.09880    0.28190    2.31000
 3686.00000 3686.00000  116.24640    2.73620    0.29660    2.39000
 3686.50000 3686.50000  126.86580    2.45920    0.30660    2.44000
 3687.00000 3687.00000  132.06360    2.25670    0.32100    2.47000
 3687.50000 3687.50000  133.74740    2.11790    0.33640    2.47000
 3688.00000 3688.00000  134.61120    2.04320    0.34730    2.48000
 3688.50000 3688.50000  134.77170    1.98980    0.35450    2.48000
 3689.00000 3689.00000  133.99320    1.94710    0.36040    2.48000
 3689.50000 3689.50000  133.60900    1.92610    0.36420    2.47000
 3690.00000 3690.00000  133.53400    1.90480    0.36650    2.48000
 3690.50000 3690.50000  132.15760    1.88290    0.36980    2.47000
 3691.00000 3691.00000  129.14020    1.83940    0.37070    2.47000
 3691.50000 3691.50000  126.63600    1.81770    0.36770    2.45000
 3692.00000 3692.00000  127.53840    1.80740    0.36830    2.43000
 3692.50000 3692.50000  130.12720    1.81880    0.37090    2.43000
 3693.00000 3693.00000  131.02530    1.84010    0.36040    2.43000
 3693.50000 3693.50000  129.76820    1.85040    0.34710    2.44000
 3694.00000 3694.00000  128.94670    1.85040    0.33610    2.46000
 3694.50000 3694.50000  130.67300    1.81850    0.32440    2.47000
 3695.00000 3695.00000  134.47380    1.79720    0.32100    2.46000
 3695.50000 3695.50000  136.04430    1.78670    0.32440    2.45000
 3696.00000 3696.00000  134.71950    1.78710    0.33110    2.45000
 3696.50000 3696.50000  134.36680    1.77630    0.34620    2.46000
 3697.00000 3697.00000  134.12140    1.76490    0.36250    2.46000
 3697.50000 3697.50000  130.85820    1.76390    0.37230    2.47000
 3698.00000 3698.00000  126.98780    1.78540    0.37860    2.47000
 3698.50000 3698.50000  127.07280    1.79720    0.37950    2.47000
 3699.00000 3699.00000  131.58610    1.81960    0.37670    2.46000
 3699.50000 3699.50000  136.96610    1.80920    0.37510    2.45000
 3700.00000 3700.00000  139.79110    1.78770    0.37600    2.45000
 3700.50000 3700.50000  140.02650    1.77690    0.37620    2.45000
 3701.00000 3701.00000  139.90880    1.76610    0.37570    2.46000
 3701.50000 3701.50000  139.23220    1.75490    0.37500    2.46000
 3702.00000 3702.00000  136.92280    1.71120    0.37450    2.44000
 3702.50000 3702.50000  134.02330    1.67840    0.37800    2.41000
 3703.00000 3703.00000  132.37540    1.65640    0.38380    2.39000
 3703.50000 3703.50000  132.18160    1.66760    0.38920    2.39000
 3704.00000 3704.00000  132.65970    1.70110    0.39110    2.40000
 3704.50000 3704.50000  133.60260    1.72310    0.38230    2.40000
 3705.00000 3705.00000  135.31810    1.72240    0.37120    2.41000
 3705.50000 3705.50000  137.58540    1.71100    0.36770    2.43000
 3706.00000 3706.00000  139.48200    1.70060    0.36810    2.44000
 3706.50000 3706.50000  138.65770    1.70060    0.36680    2.45000
 3707.00000 3707.00000  136.48340    1.71080    0.38110    2.46000
 3707.50000 3707.50000  136.19260    1.72100    0.41290    2.47000
 3708.00000 3708.00000  137.60190    1.72100    0.41560    2.48000
 3708.50000 3708.50000  137.44060    1.73180    0.41910    2.47000
 3709.00000 3709.00000  135.63630    1.73160    0.43330    2.45000
 3709.50000 3709.50000  133.43840    1.74220    0.44240    2.44000
 3710.00000 3710.00000  131.91370    1.77460    0.43560    2.44000
 3710.50000 3710.50000  131.91370    1.80690    0.42300    2.46000
 3711.00000 3711.00000  133.83310    1.85010    0.41750    2.47000
 3711.50000 3711.50000  135.59290    1.88230    0.41590    2.47000
 3712.00000 3712.00000  136.06220    1.91450    0.40970    2.46000
 3712.50000 3712.50000  136.37050    1.93580    0.39310    2.45000
 3713.00000 3713.00000  136.48780    1.93570    0.37690    2.44000
 3713.50000 3713.50000  135.66680    1.92500    0.37390    2.44000
 3714.00000 3714.00000  133.55570    1.90350    0.37590    2.44000
 3714.50000 3714.50000  131.32730    1.90350    0.37620    2.45000
 3715.00000 3715.00000  131.88070    1.93620    0.37370    2.45000
 3715.50000 3715.50000  134.31360    1.97960    0.37260    2.45000
 3716.00000 3716.00000  135.06120    2.00130    0.37530    2.45000
 3716.50000 3716.50000  134.07870    2.01180    0.37710    2.44000
 3717.00000 3717.00000  133.99320    2.04350    0.37460    2.43000
 3717.50000 3717.50000  135.35830    2.09680    0.37580    2.39000
 3718.00000 3718.00000  134.22800    2.12920    0.38400    2.37000
 3718.50000 3718.50000  126.16690    2.01080    0.39050    2.38000
 3719.00000 3719.00000  115.26640    1.80620    0.38850    2.44000
 3719.50000 3719.50000  111.17600    1.66420    0.38160    2.51000
