~Version ---------------------------------------------------
VERS.   2.0 : CWLS log ASCII Standard -VERSION 2.0
WRAP.    NO : One line per depth step
DLM . SPACE : Column Data Section Delimiter
~Well ------------------------------------------------------
STRT  .m                3600.00000 : START DEPTH
STOP  .m                4100.00000 : STOP DEPTH
STEP  .m                   0.50000 : STEP
NULL  .                    -999.25 : NULL VALUE
COMP  .                            : COMPANY
WELL  .                    X10_raw : WELL
FLD   .                            : FIELD
LOC   .                            : LOCATION
PROV  .                            : PROVINCE
CNTY  .                            : COUNTY
STAT  .                            : STATE
CTRY  .                            : COUNTRY
SRVC  .                            : SERVICE COMPANY
DATE  . 2024-01-19 09:37:53.532499 : DATE
UWI   .                            : UNIQUE WELL ID
API   .                            : API NUMBER
LIC   .                            : 
LATI  .                            : 
LONG  .                            : 
NS    .                            : 
EW    .                            : 
XCOORD.                            : 
YCOORD.                            : 
GDAT  .                            : 
SECT  .                            : 
RANG  .                            : 
TOWN  .                            : 
~Curve Information -----------------------------------------
DEPT .m      : 
DEPTH.None   : None
GR   .GAPI   : None
RT   .ohm.m  : None
NPHI .v/v    : None
RHOB .g/cc   : None
~Params ----------------------------------------------------
EKB.      : 
EGL.      : 
KB .      : 
GL .      : 
TD .      : 
TDD.      : 
TDL.      : 
~Other -----------------------------------------------------
~ASCII -----------------------------------------------------
# ...
 3780.00000 3780.00000  124.72170    1.66560    0.37890    2.50000
 3780.50000 3780.50000  123.74410    1.67700    0.37370    2.49140
 3781.00000 3781.00000  125.46920    1.66690    0.37120    2.47280
 3781.50000 3781.50000  129.35960    1.65710    0.37340    2.46140
 3782.00000 3782.00000  132.39470    1.64700    0.37200    2.46860
 3782.50000 3782.50000  132.18830    1.64610    0.36290    2.49560
 3783.00000 3783.00000  131.10100    1.64390    0.35480    2.52550
 3783.50000 3783.50000  130.45600    1.65350    0.35540    2.53000
 3784.00000 3784.00000  130.49800    1.65370    0.36260    2.51310
 3784.50000 3784.50000  131.46780    1.63140    0.36820    2.48480
 3785.00000 3785.00000  131.99940    1.61970    0.36340    2.48000
 3785.50000 3785.50000  131.41470    1.63070    0.35490    2.48830
 3786.00000 3786.00000  131.85090    1.64200    0.34750    2.49830
 3786.50000 3786.50000  133.70450    1.66490    0.34260    2.50830
 3787.00000 3787.00000  134.93210    1.67660    0.34110    2.51000
 3787.50000 3787.50000  135.47560    1.69840    0.34330    2.50180
 3788.00000 3788.00000  135.25820    1.71940    0.34760    2.48360
 3788.50000 3788.50000  133.76630    1.74070    0.35400    2.46370
 3789.00000 3789.00000  131.89360    1.75150    0.36080    2.46000
 3789.50000 3789.50000  132.17030    1.75170    0.36220    2.46000
 3790.00000 3790.00000  133.86460    1.74170    0.35750    2.46810
 3790.50000 3790.50000  133.09680    1.74250    0.35230    2.47000
 3791.00000 3791.00000  129.06990    1.73210    0.35140    2.47800
 3791.50000 3791.50000  125.46780    1.74310    0.35390    2.48800
 3792.00000 3792.00000  126.48800    1.76500    0.35610    2.49000
 3792.50000 3792.50000  130.92160    1.78690    0.35580    2.49790
 3793.00000 3793.00000  134.68710    1.80850    0.35650    2.50000
 3793.50000 3793.50000  135.39310    1.81920    0.36110    2.50790
 3794.00000 3794.00000  133.98110    1.85150    0.36440    2.51000
 3794.50000 3794.50000  131.39230    1.87300    0.36140    2.51000
 3795.00000 3795.00000  129.15660    1.90530    0.35630    2.51000
 3795.50000 3795.50000  128.33290    1.90530    0.35450    2.51000
 3796.00000 3796.00000  127.62680    1.87300    0.35580    2.51000
 3796.50000 3796.50000  128.09750    1.83000    0.35780    2.49460
 3797.00000 3797.00000  132.33370    1.80850    0.35900    2.47470
 3797.50000 3797.50000  136.45210    1.79770    0.35930    2.46240
 3798.00000 3798.00000  134.68710    1.79770    0.36010    2.46760
 3798.50000 3798.50000  130.92160    1.78690    0.36000    2.47000
 3799.00000 3799.00000  130.09790    1.75460    0.35780    2.46250
 3799.50000 3799.50000  130.88640    1.70050    0.31575    2.45250
 3800.00000 3800.00000  132.42400    1.67910    0.31802    2.45000
 3800.50000 3800.50000  134.00580    1.65780    0.31983    2.45740
 3801.00000 3801.00000  134.01890    1.66990    0.31931    2.46740
 3801.50000 3801.50000  132.77180    1.67230    0.31745    2.47000
 3802.00000 3802.00000  131.78260    1.66280    0.31609    2.47000
 3802.50000 3802.50000  131.46570    1.65030    0.31605    2.46270
 3803.00000 3803.00000  133.46330    1.65850    0.31894    2.46000
 3803.50000 3803.50000  135.79250    1.66990    0.32177    2.46730
 3804.00000 3804.00000  135.57520    1.68260    0.32093    2.47720
 3804.50000 3804.50000  134.54440    1.69330    0.31897    2.48720
 3805.00000 3805.00000  134.05420    1.71360    0.31775    2.49720
 3805.50000 3805.50000  133.37410    1.72360    0.31665    2.50000
 3806.00000 3806.00000  132.31230    1.71260    0.31557    2.49290
 3806.50000 3806.50000  132.35880    1.69140    0.31655    2.47580
 3807.00000 3807.00000  132.79540    1.65870    0.31824    2.45590
 3807.50000 3807.50000  133.38640    1.63670    0.32050    2.42890
 3808.00000 3808.00000  133.42200    1.61430    0.32136    2.41300
 3808.50000 3808.50000  131.88150    1.60270    0.31869    2.42390
 3809.00000 3809.00000  128.96870    1.61340    0.31363    2.44390
 3809.50000 3809.50000  126.53090    1.64600    0.30921    2.46380
 3810.00000 3810.00000  126.09830    1.67870    0.30827    2.47000
 3810.50000 3810.50000  126.41200    1.73340    0.32970    2.46320
 3811.00000 3811.00000  126.52970    1.75490    0.32040    2.45320
 3811.50000 3811.50000  127.23620    1.76570    0.31780    2.45000
 3812.00000 3812.00000  128.88470    1.75490    0.31900    2.45680
 3812.50000 3812.50000  128.06040    1.75490    0.32140    2.46000
 3813.00000 3813.00000  125.82320    1.74410    0.32670    2.46000
 3813.50000 3813.50000  126.64750    1.72250    0.33530    2.45330
 3814.00000 3814.00000  129.63190    1.68970    0.34280    2.45000
 3814.50000 3814.50000  130.57420    1.66770    0.34970    2.46320
 3815.00000 3815.00000  127.39390    1.67870    0.35390    2.47660
 3815.50000 3815.50000  121.34880    1.74410    0.35260    2.46690
 3816.00000 3816.00000  115.81470    1.86260    0.35730    2.41440
 3816.50000 3816.50000  112.75320    1.98090    0.37150    2.34460
 3817.00000 3817.00000  112.51770    1.98090    0.37730    2.30710
 3817.50000 3817.50000  115.22590    1.84110    0.37200    2.32570
 3818.00000 3818.00000  119.46480    1.63450    0.36630    2.37200
 3818.50000 3818.50000  124.13480    1.45880    0.36230    2.40910
 3819.00000 3819.00000  128.53700    1.37130    0.36270    2.42000
 3819.50000 3819.50000  129.56380    1.36100    0.36360    2.42630
 3820.00000 3820.00000  126.45130    1.42740    0.35420    2.45510
 3820.50000 3820.50000  121.92040    1.53750    0.33590    2.50750
 3821.00000 3821.00000  119.87400    1.65850    0.32560    2.54240
 3821.50000 3821.50000  120.54580    1.70240    0.33220    2.53760
 3822.00000 3822.00000  122.39800    1.69120    0.34790    2.50540
 3822.50000 3822.50000  124.83920    1.65800    0.35920    2.47770
 3823.00000 3823.00000  128.14480    1.65800    0.36190    2.47000
 3823.50000 3823.50000  130.03360    1.69100    0.36120    2.47000
 3824.00000 3824.00000  128.14480    1.74570    0.36080    2.47600
 3824.50000 3824.50000  123.54070    1.81040    0.36140    2.49800
 3825.00000 3825.00000  119.05460    1.87510    0.36040    2.53390
 3825.50000 3825.50000  118.46430    1.93970    0.35820    2.56780
 3826.00000 3826.00000  122.95040    1.99350    0.35780    2.56820
 3826.50000 3826.50000  128.73500    2.01500    0.36210    2.53060
 3827.00000 3827.00000  130.03360    2.00420    0.37020    2.49240
 3827.50000 3827.50000  127.55450    1.98270    0.37840    2.48580
 3828.00000 3828.00000  124.95730    2.00420    0.38220    2.51900
 3828.50000 3828.50000  123.54070    2.03650    0.37910    2.56310
 3829.00000 3829.00000  123.77680    2.09020    0.37180    2.57430
 3829.50000 3829.50000  125.70460    2.12270    0.36500    2.54150
 3830.00000 3830.00000  126.88550    2.12270    0.36000    2.49730
 3830.50000 3830.50000  127.59410    2.11200    0.35540    2.48000
 3831.00000 3831.00000  129.67950    2.14390    0.35050    2.47440
 3831.50000 3831.50000  132.27670    2.21910    0.35030    2.45880
 3832.00000 3832.00000  132.39470    2.32630    0.35570    2.42220
 3832.50000 3832.50000  127.79060    2.40130    0.36520    2.36680
 3833.00000 3833.00000  119.95520    2.45540    0.37540    2.31280
 3833.50000 3833.50000  114.68380    2.44730    0.37710    2.30060
 3834.00000 3834.00000  115.80010    2.38970    0.36600    2.33070
 3834.50000 3834.50000  120.56590    2.32540    0.34730    2.37020
 3835.00000 3835.00000  124.09640    2.30340    0.33170    2.40480
 3835.50000 3835.50000  123.99660    2.41630    0.32310    2.42960
 3836.00000 3836.00000  121.69210    2.71190    0.31460    2.44470
 3836.50000 3836.50000  118.42980    3.15680    0.29950    2.45450
 3837.00000 3837.00000  114.14040    3.68670    0.27840    2.47330
 3837.50000 3837.50000  110.19710    4.19100    0.25770    2.50290
 3838.00000 3838.00000  108.34630    4.57690    0.23980    2.51580
 3838.50000 3838.50000  108.85140    4.80560    0.22410    2.49790
 3839.00000 3839.00000  110.34930    4.96040    0.20860    2.46830
 3839.50000 3839.50000  110.51600    5.07320    0.19250    2.43870
