~Version ---------------------------------------------------
VERS.   2.0 : CWLS log ASCII Standard -VERSION 2.0
WRAP.    NO : One line per depth step
DLM . SPACE : Column Data Section Delimiter
~Well ------------------------------------------------------
STRT  .m                3600.00000 : START DEPTH
STOP  .m                4100.00000 : STOP DEPTH
STEP  .m                   0.50000 : STEP
NULL  .                    -999.25 : NULL VALUE
COMP  .                            : COMPANY
WELL  .                    X10_raw : WELL
FLD   .                            : FIELD
LOC   .                            : LOCATION
PROV  .                            : PROVINCE
CNTY  .                            : COUNTY
STAT  .                            : STATE
CTRY  .                            : COUNTRY
SRVC  .                            : SERVICE COMPANY
DATE  . 2024-01-19 09:37:53.532499 : DATE
UWI   .                            : UNIQUE WELL ID
API   .                            : API NUMBER
LIC   .                            : 
LATI  .                            : 
LONG  .                            : 
NS    .                            : 
EW    .                            : 
XCOORD.                            : 
YCOORD.                            : 
GDAT  .                            : 
SECT  .                            : 
RANG  .                            : 
TOWN  .                            : 
~Curve Information -----------------------------------------
DEPT .m      : 
DEPTH.None   : None
GR   .GAPI   : None
RT   .ohm.m  : None
NPHI .v/v    : None
RHOB .g/cc   : None
~Params ----------------------------------------------------
EKB.      : 
EGL.      : 
KB .      : 
GL .      : 
TD .      : 
TDD.      : 
TDL.      : 
~Other -----------------------------------------------------
~ASCII -----------------------------------------------------
# ...
 3720.00000 3720.00000  117.76850    1.59860    0.37760    2.53000
 3720.50000 3720.50000  127.41620    1.63220    0.37940    2.50000
 3721.00000 3721.00000  132.55200    1.73200    0.38110    2.46000
 3721.50000 3721.50000  133.40870    1.82090    0.37680    2.44000
 3722.00000 3722.00000  134.55280    1.82550    0.37020    2.44000
 3722.50000 3722.50000  137.66880    1.80820    0.36790    2.44000
 3723.00000 3723.00000  139.14370    1.79750    0.37140    2.44000
 3723.50000 3723.50000  136.37980    1.80470    0.37600    2.44000
 3724.00000 3724.00000  131.88630    1.82210    0.37700    2.44000
 3724.50000 3724.50000  130.06210    1.82000    0.37560    2.46000
 3725.00000 3725.00000  131.81370    1.81880    0.37320    2.47000
 3725.50000 3725.50000  133.95040    1.81770    0.36850    2.48000
 3726.00000 3726.00000  132.80940    1.82810    0.36510    2.48000
 3726.50000 3726.50000  129.17490    1.86030    0.36800    2.48000
 3727.00000 3727.00000  127.53340    1.89250    0.37170    2.48000
 3727.50000 3727.50000  129.56810    1.89270    0.36830    2.48000
 3728.00000 3728.00000  131.79640    1.89270    0.36110    2.48000
 3728.50000 3728.50000  131.32730    1.91420    0.35780    2.49000
 3729.00000 3729.00000  129.91990    1.93570    0.35640    2.51000
 3729.50000 3729.50000  130.58180    1.95690    0.35420    2.52000
 3730.00000 3730.00000  131.71200    1.95660    0.35440    2.50000
 3730.50000 3730.50000  131.75420    1.94610    0.35630    2.49000
 3731.00000 3731.00000  131.56190    1.94640    0.36000    2.47000
 3731.50000 3731.50000  130.91510    1.96950    0.36320    2.46000
 3732.00000 3732.00000  131.45030    2.00480    0.36250    2.45000
 3732.50000 3732.50000  132.13070    2.01750    0.36460    2.43000
 3733.00000 3733.00000  129.68380    2.01700    0.36990    2.41000
 3733.50000 3733.50000  124.36700    2.01560    0.37210    2.40000
 3734.00000 3734.00000  121.26000    2.02610    0.36990    2.41000
 3734.50000 3734.50000  121.10440    2.05810    0.36500    2.44000
 3735.00000 3735.00000  121.02900    2.08980    0.35950    2.47000
 3735.50000 3735.50000  122.05210    2.12170    0.35830    2.48000
 3736.00000 3736.00000  125.50940    2.14270    0.35940    2.48000
 3736.50000 3736.50000  129.31020    2.15210    0.35820    2.48000
 3737.00000 3737.00000  129.34000    2.15070    0.35750    2.47000
 3737.50000 3737.50000  127.27090    2.14110    0.35980    2.46000
 3738.00000 3738.00000  125.74510    2.12200    0.36310    2.45000
 3738.50000 3738.50000  125.70550    2.10100    0.36470    2.45000
 3739.00000 3739.00000  126.33250    2.09900    0.36100    2.47000
 3739.50000 3739.50000  128.82930    2.10760    0.35480    2.49000
 3740.00000 3740.00000  132.03100    2.13920    0.35120    2.51000
 3740.50000 3740.50000  133.48110    2.17160    0.34790    2.51000
 3741.00000 3741.00000  133.71580    2.20370    0.34110    2.51000
 3741.50000 3741.50000  136.41420    2.21440    0.33480    2.49000
 3742.00000 3742.00000  138.76060    2.18230    0.33510    2.47000
 3742.50000 3742.50000  138.01250    2.12850    0.34030    2.44000
 3743.00000 3743.00000  136.25320    2.09640    0.34030    2.43000
 3743.50000 3743.50000  134.49400    2.10710    0.33150    2.43000
 3744.00000 3744.00000  130.50630    2.16060    0.31940    2.44000
 3744.50000 3744.50000  123.42990    2.32070    0.30030    2.41000
 3745.00000 3745.00000  112.92310    2.57600    0.26100    2.35000
 3745.50000 3745.50000  101.69510    2.86380    0.23000    2.31000
 3746.00000 3746.00000   95.95970    3.09880    0.21910    2.31000
 3746.50000 3746.50000   96.51420    3.14110    0.22570    2.33000
 3747.00000 3747.00000   99.20540    2.98090    0.24220    2.35000
 3747.50000 3747.50000  101.66260    2.84200    0.25810    2.34000
 3748.00000 3748.00000  102.94970    2.80990    0.26940    2.32000
 3748.50000 3748.50000  102.16330    2.81030    0.27810    2.32000
 3749.00000 3749.00000  102.43010    2.78930    0.28700    2.32000
 3749.50000 3749.50000  106.86450    2.71540    0.30170    2.36000
 3750.00000 3750.00000  113.96940    2.60910    0.31950    2.40000
 3750.50000 3750.50000  120.06810    2.49170    0.33210    2.44000
 3751.00000 3751.00000  123.46930    2.41700    0.33200    2.46000
 3751.50000 3751.50000  126.51870    2.38500    0.32700    2.46000
 3752.00000 3752.00000  128.98160    2.38500    0.32910    2.45000
 3752.50000 3752.50000  126.87060    2.38500    0.33630    2.40000
 3753.00000 3753.00000  120.73330    2.43800    0.32130    2.33000
 3753.50000 3753.50000  114.21190    2.57590    0.28710    2.29000
 3754.00000 3754.00000  106.76230    2.76780    0.27100    2.28000
 3754.50000 3754.50000   98.65180    2.97060    0.26050    2.27000
 3755.00000 3755.00000   94.87610    3.07700    0.24320    2.30000
 3755.50000 3755.50000   98.73740    3.09830    0.24140    2.32000
 3756.00000 3756.00000  103.53470    3.21570    0.23960    2.30000
 3756.50000 3756.50000   98.62030    3.65240    0.21600    2.22000
 3757.00000 3757.00000   83.40920    4.51740    0.18090    2.11000
 3757.50000 3757.50000   68.29370    5.51780    0.14150    2.03000
 3758.00000 3758.00000   65.60340    5.65130    0.12770    2.03000
 3758.50000 3758.50000   79.83210    4.57010    0.14680    2.12970
 3759.00000 3759.00000  102.50810    3.42120    0.19780    2.24930
 3759.50000 3759.50000  119.15960    2.82560    0.25510    2.33920
 3760.00000 3760.00000  120.68780    2.77210    0.28930    2.34990
 3760.50000 3760.50000  108.32540    3.18740    0.29610    2.30080
 3761.00000 3761.00000   91.83320    3.96230    0.30300    2.21160
 3761.50000 3761.50000   83.90370    4.48660    0.31590    2.15130
 3762.00000 3762.00000   91.33670    4.16190    0.32880    2.15980
 3762.50000 3762.50000  108.64820    3.56680    0.33110    2.22810
 3763.00000 3763.00000  121.28100    3.25790    0.32760    2.27850
 3763.50000 3763.50000  119.09690    3.25830    0.32450    2.24130
 3764.00000 3764.00000  107.93320    3.35500    0.31990    2.21110
 3764.50000 3764.50000  100.50350    3.30240    0.31300    2.24840
 3765.00000 3765.00000  102.82750    3.01540    0.30970    2.35540
 3765.50000 3765.50000  110.90820    2.69570    0.30220    2.46500
 3766.00000 3766.00000  117.74890    2.48320    0.29190    2.51760
 3766.50000 3766.50000  120.75560    2.41090    0.28810    2.52000
 3767.00000 3767.00000  120.94350    2.41250    0.29330    2.50110
 3767.50000 3767.50000  119.62000    2.44240    0.29900    2.50000
 3768.00000 3768.00000  117.25330    2.50220    0.29690    2.50940
 3768.50000 3768.50000  114.65060    2.59580    0.28870    2.52870
 3769.00000 3769.00000  112.50820    2.71320    0.28060    2.53930
 3769.50000 3769.50000  110.51980    2.78810    0.27740    2.54930
 3770.00000 3770.00000  109.81790    2.79880    0.28040    2.55930
 3770.50000 3770.50000  111.80640    2.75600    0.28520    2.56000
 3771.00000 3771.00000  114.37980    2.69180    0.28780    2.56920
 3771.50000 3771.50000  115.78340    2.60620    0.29010    2.57000
 3772.00000 3772.00000  115.43250    2.49960    0.29680    2.57000
 3772.50000 3772.50000  114.96460    2.38240    0.30220    2.55170
 3773.00000 3773.00000  114.84760    2.31840    0.29740    2.53180
 3773.50000 3773.50000  111.92340    2.37170    0.28010    2.53000
 3774.00000 3774.00000  104.20340    2.58470    0.25200    2.52100
 3774.50000 3774.50000   95.92340    2.88320    0.22190    2.52000
 3775.00000 3775.00000   92.82570    3.02130    0.20670    2.49310
 3775.50000 3775.50000   97.46520    2.77520    0.21240    2.46320
 3776.00000 3776.00000  109.72220    2.34860    0.23070    2.44220
 3776.50000 3776.50000  122.17530    2.00750    0.25490    2.44000
 3777.00000 3777.00000  129.15120    1.80440    0.29140    2.45770
 3777.50000 3777.50000  132.39310    1.70760    0.33820    2.46880
 3778.00000 3778.00000  131.69130    1.67470    0.36350    2.47880
 3778.50000 3778.50000  126.74340    1.65320    0.36630    2.48000
 3779.00000 3779.00000  123.70240    1.65370    0.37070    2.48870
 3779.50000 3779.50000  124.52490    1.65430    0.37790    2.49870
