~Version ---------------------------------------------------
VERS.   2.0 : CWLS log ASCII Standard -VERSION 2.0
WRAP.    NO : One line per depth step
DLM . SPACE : Column Data Section Delimiter
~Well ------------------------------------------------------
STRT  .m                3600.00000 : START DEPTH
STOP  .m                4100.00000 : STOP DEPTH
STEP  .m                   0.50000 : STEP
NULL  .                    -999.25 : NULL VALUE
COMP  .                            : COMPANY
WELL  .                    X10_raw : WELL
FLD   .                            : FIELD
LOC   .                            : LOCATION
PROV  .                            : PROVINCE
CNTY  .                            : COUNTY
STAT  .                            : STATE
CTRY  .                            : COUNTRY
SRVC  .                            : SERVICE COMPANY
DATE  . 2024-01-19 09:37:53.532499 : DATE
UWI   .                            : UNIQUE WELL ID
API   .                            : API NUMBER
LIC   .                            : 
LATI  .                            : 
LONG  .                            : 
NS    .                            : 
EW    .                            : 
XCOORD.                            : 
YCOORD.                            : 
GDAT  .                            : 
SECT  .                            : 
RANG  .                            : 
TOWN  .                            : 
~Curve Information -----------------------------------------
DEPT .m      : 
DEPTH.None   : None
GR   .GAPI   : None
RT   .ohm.m  : None
NPHI .v/v    : None
RHOB .g/cc   : None
~Params ----------------------------------------------------
EKB.      : 
EGL.      : 
KB .      : 
GL .      : 
TD .      : 
TDD.      : 
TDL.      : 
~Other -----------------------------------------------------
~ASCII -----------------------------------------------------
# ...
 4020.00000 4020.00000   68.09930    3.05570    0.27880    2.32120
 4020.50000 4020.50000   66.67910    3.01300    0.27020    2.32860
 4021.00000 4021.00000   66.20560    2.98090    0.26570    2.33850
 4021.50000 4021.50000   66.44240    3.01300    0.27760    2.32320
 4022.00000 4022.00000   64.43030    3.17320    0.30290    2.27860
 4022.50000 4022.50000   57.70070    3.64280    0.33970    2.19650
 4023.00000 4023.00000   47.82370    4.68600    0.37680    2.09950
 4023.50000 4023.50000   39.48050    6.90700    0.37310    2.00070
 4024.00000 4024.00000   36.93580   11.17060    0.38230    1.86290
 4024.50000 4024.50000   42.35330   13.34830    0.43670    1.85000
 4025.00000 4025.00000   58.28400    9.05430    0.45000    1.85000
 4025.50000 4025.50000   83.00170    5.67150    0.45000    1.85000
 4026.00000 4026.00000  106.82330    4.04750    0.45000    1.85000
 4026.50000 4026.50000  120.91110    3.30560    0.42180    1.89130
 4027.00000 4027.00000  125.61640    3.04110    0.40510    2.03380
 4027.50000 4027.50000  124.83700    3.00200    0.39360    2.10710
 4028.00000 4028.00000  121.82700    3.01010    0.37520    2.15940
 4028.50000 4028.50000  121.50700    3.02480    0.35710    2.20950
 4029.00000 4029.00000  124.75410    3.07030    0.35170    2.25180
 4029.50000 4029.50000  127.30850    3.10380    0.35230    2.27590
 4030.00000 4030.00000  126.79530    3.04440    0.35510    2.24800
 4030.50000 4030.50000  127.00620    2.89460    0.36400    2.15960
 4031.00000 4031.00000  128.37270    2.70340    0.37770    2.09160
 4031.50000 4031.50000  129.04550    2.57640    0.38860    2.08810
 4032.00000 4032.00000  128.33170    2.58970    0.38410    2.11440
 4032.50000 4032.50000  128.24570    2.77630    0.35640    2.16080
 4033.00000 4033.00000  128.25320    3.08210    0.31980    2.22730
 4033.50000 4033.50000  129.20940    3.34440    0.29880    2.29760
 4034.00000 4034.00000  131.30430    3.39000    0.30390    2.30170
 4034.50000 4034.50000  132.75670    3.24810    0.32790    2.23370
 4035.00000 4035.00000  131.86090    3.08280    0.35170    2.15350
 4035.50000 4035.50000  131.01950    2.97700    0.36060    2.12330
 4036.00000 4036.00000  131.58180    2.96960    0.35420    2.15350
 4036.50000 4036.50000  130.78110    3.02800    0.33560    2.21050
 4037.00000 4037.00000  126.07670    3.06630    0.32550    2.27910
 4037.50000 4037.50000  120.63180    3.03300    0.32750    2.32390
 4038.00000 4038.00000  119.09950    2.98390    0.33680    2.29600
 4038.50000 4038.50000  121.89080    2.93060    0.35670    2.22170
 4039.00000 4039.00000  126.15210    2.87000    0.37210    2.17570
 4039.50000 4039.50000  128.59860    2.79520    0.37980    2.15280
 4040.00000 4040.00000  128.88150    2.70860    0.38420    2.11550
 4040.50000 4040.50000  128.72910    2.63530    0.38410    2.09270
 4041.00000 4041.00000  129.20550    2.60580    0.38010    2.12480
 4041.50000 4041.50000  130.06660    2.61130    0.37680    2.21730
 4042.00000 4042.00000  131.36200    2.60920    0.37690    2.29130
 4042.50000 4042.50000  131.76940    2.57100    0.38060    2.30880
 4043.00000 4043.00000  130.43170    2.52700    0.38700    2.28350
 4043.50000 4043.50000  131.01820    2.46910    0.39300    2.26230
 4044.00000 4044.00000  133.69140    2.40580    0.40020    2.23330
 4044.50000 4044.50000  134.58230    2.33030    0.41820    2.20320
 4045.00000 4045.00000  132.75550    2.24430    0.44740    2.15530
 4045.50000 4045.50000  130.01130    2.17780    0.45000    2.02430
 4046.00000 4046.00000  123.93210    2.19790    0.45000    1.86580
 4046.50000 4046.50000  111.48030    2.46810    0.45000    1.85000
 4047.00000 4047.00000   90.09500    3.24980    0.45000    1.85000
 4047.50000 4047.50000   63.90540    5.11850    0.45000    1.85000
 4048.00000 4048.00000   43.08930    9.66190    0.45000    1.85000
 4048.50000 4048.50000   32.53750   21.27680    0.45000    1.85000
 4049.00000 4049.00000   29.56670   36.52920    0.45000    1.85000
 4049.50000 4049.50000   33.15070   17.81170    0.45000    1.85000
 4050.00000 4050.00000   45.68080    7.33460    0.45000    1.85000
 4050.50000 4050.50000   65.22950    4.24760    0.45000    1.85000
 4051.00000 4051.00000   87.39660    3.03140    0.45000    1.85000
 4051.50000 4051.50000  109.34930    2.36780    0.45000    1.85000
 4052.00000 4052.00000  126.74670    2.00880    0.45000    1.93780
 4052.50000 4052.50000  135.37350    1.86630    0.45000    1.98770
 4053.00000 4053.00000  137.84170    1.85120    0.44360    1.95220
 4053.50000 4053.50000  136.99330    1.89440    0.41970    1.95000
 4054.00000 4054.00000  132.85170    1.97550    0.41090    2.01660
 4054.50000 4054.50000  129.87270    2.10220    0.39480    2.15370
 4055.00000 4055.00000  130.65930    2.22280    0.37710    2.26540
 4055.50000 4055.50000  131.61480    2.30110    0.36660    2.28920
 4056.00000 4056.00000  129.51730    2.30130    0.35590    2.24180
 4056.50000 4056.50000  125.26130    2.21490    0.34880    2.19160
 4057.00000 4057.00000  122.35150    2.06450    0.35330    2.12210
 4057.50000 4057.50000  124.59560    1.95960    0.36480    2.03240
 4058.00000 4058.00000  130.26110    1.92080    0.36700    1.99090
 4058.50000 4058.50000  134.06910    1.96510    0.35980    2.00960
 4059.00000 4059.00000  133.10250    2.04340    0.35570    2.07880
 4059.50000 4059.50000  129.01380    2.13960    0.35750    2.16880
 4060.00000 4060.00000  126.55390    2.19830    0.35530    2.24920
 4060.50000 4060.50000  126.43670    2.16610    0.34700    2.32940
 4061.00000 4061.00000  125.76670    2.04650    0.34230    2.41960
 4061.50000 4061.50000  126.17990    1.90140    0.34590    2.47000
 4062.00000 4062.00000  128.26440    1.76390    0.35280    2.45000
 4062.50000 4062.50000  127.90960    1.67140    0.35490    2.37980
 4063.00000 4063.00000  124.91790    1.61340    0.34910    2.34010
 4063.50000 4063.50000  122.36810    1.61150    0.33990    2.35050
 4064.00000 4064.00000  120.08680    1.69860    0.33310    2.39070
 4064.50000 4064.50000  114.87650    1.92600    0.32760    2.44040
 4065.00000 4065.00000  105.67180    2.22880    0.31760    2.45960
 4065.50000 4065.50000   97.69700    2.58340    0.30320    2.43980
 4066.00000 4066.00000   97.96970    2.91490    0.28820    2.43110
 4066.50000 4066.50000  103.18980    3.01090    0.27340    2.47240
 4067.00000 4067.00000  106.49860    2.82850    0.26210    2.55240
 4067.50000 4067.50000  108.70030    2.59180    0.26110    2.61960
 4068.00000 4068.00000  110.06540    2.42990    0.26800    2.60800
 4068.50000 4068.50000  108.30160    2.34290    0.27550    2.55830
 4069.00000 4069.00000  104.93860    2.36410    0.28270    2.51910
 4069.50000 4069.50000  103.03530    2.39640    0.28990    2.49950
 4070.00000 4070.00000  105.32670    2.33220    0.29820    2.48890
 4070.50000 4070.50000  111.42850    2.18170    0.30930    2.46890
 4071.00000 4071.00000  114.86350    2.07470    0.31990    2.44940
 4071.50000 4071.50000  113.14320    2.06440    0.32240    2.44120
 4072.00000 4072.00000  112.46110    2.17260    0.31440    2.46200
 4072.50000 4072.50000  114.99920    2.32380    0.30300    2.49140
 4073.00000 4073.00000  117.64240    2.38960    0.29920    2.50860
 4073.50000 4073.50000  118.42980    2.32770    0.30920    2.48700
 4074.00000 4074.00000  117.56880    2.23320    0.33100    2.44450
 4074.50000 4074.50000  115.00110    2.19160    0.35290    2.37270
 4075.00000 4075.00000  112.65780    2.22460    0.36560    2.28660
 4075.50000 4075.50000  109.98080    2.32310    0.36580    2.25390
 4076.00000 4076.00000  108.23110    2.45620    0.35190    2.30080
 4076.50000 4076.50000  109.25790    2.57580    0.32820    2.39960
 4077.00000 4077.00000  113.83700    2.60410    0.30810    2.47530
 4077.50000 4077.50000  117.80900    2.55740    0.30100    2.50710
 4078.00000 4078.00000  119.24630    2.47340    0.30120    2.48230
 4078.50000 4078.50000  117.67120    2.47570    0.29840    2.43500
 4079.00000 4079.00000  111.43590    2.64200    0.28490    2.40650
 4079.50000 4079.50000  102.57820    2.97160    0.25830    2.38250
