~Version ---------------------------------------------------
VERS.   2.0 : CWLS log ASCII Standard -VERSION 2.0
WRAP.    NO : One line per depth step
DLM . SPACE : Column Data Section Delimiter
~Well ------------------------------------------------------
STRT  .m                3600.00000 : START DEPTH
STOP  .m                4100.00000 : STOP DEPTH
STEP  .m                   0.50000 : STEP
NULL  .                    -999.25 : NULL VALUE
COMP  .                            : COMPANY
WELL  .                    X10_raw : WELL
FLD   .                            : FIELD
LOC   .                            : LOCATION
PROV  .                            : PROVINCE
CNTY  .                            : COUNTY
STAT  .                            : STATE
CTRY  .                            : COUNTRY
SRVC  .                            : SERVICE COMPANY
DATE  . 2024-01-19 09:37:53.532499 : DATE
UWI   .                            : UNIQUE WELL ID
API   .                            : API NUMBER
LIC   .                            : 
LATI  .                            : 
LONG  .                            : 
NS    .                            : 
EW    .                            : 
XCOORD.                            : 
YCOORD.                            : 
GDAT  .                            : 
SECT  .                            : 
RANG  .                            : 
TOWN  .                            : 
~Curve Information -----------------------------------------
DEPT .m      : 
DEPTH.None   : None
GR   .GAPI   : None
RT   .ohm.m  : None
NPHI .v/v    : None
RHOB .g/cc   : None
~Params ----------------------------------------------------
EKB.      : 
EGL.      : 
KB .      : 
GL .      : 
TD .      : 
TDD.      : 
TDL.      : 
~Other -----------------------------------------------------
~ASCII -----------------------------------------------------
# ...
 3900.00000 3900.00000  118.15500    3.96940    0.28330    2.48120
 3900.50000 3900.50000  120.78800    4.00160    0.27730    2.48000
 3901.00000 3901.00000  120.23510    4.03390    0.27440    2.48000
 3901.50000 3901.50000  115.27690    4.04450    0.27700    2.48000
 3902.00000 3902.00000  111.14500    4.03390    0.28120    2.48990
 3902.50000 3902.50000  111.14500    4.00200    0.28160    2.49020
 3903.00000 3903.00000  112.08940    3.97010    0.27790    2.50050
 3903.50000 3903.50000  112.32550    3.94890    0.27590    2.51000
 3904.00000 3904.00000  113.27000    3.91700    0.27870    2.50890
 3904.50000 3904.50000  114.21440    3.87440    0.28260    2.50000
 3905.00000 3905.00000  114.68660    3.82130    0.28570    2.50000
 3905.50000 3905.50000  114.92270    3.76810    0.28960    2.50000
 3906.00000 3906.00000  116.33940    3.71490    0.29360    2.50000
 3906.50000 3906.50000  119.64490    3.66160    0.29680    2.50000
 3907.00000 3907.00000  122.71430    3.62970    0.29820    2.50000
 3907.50000 3907.50000  122.32220    3.60800    0.29630    2.50310
 3908.00000 3908.00000  120.39650    3.60760    0.29380    2.50660
 3908.50000 3908.50000  119.72580    3.59740    0.29480    2.49630
 3909.00000 3909.00000  119.40880    3.58710    0.29920    2.49000
 3909.50000 3909.50000  117.99210    3.57640    0.30380    2.49000
 3910.00000 3910.00000  117.75600    3.52320    0.30560    2.49000
 3910.50000 3910.50000  120.11710    3.39530    0.30410    2.49000
 3911.00000 3911.00000  123.30450    3.23520    0.30380    2.50020
 3911.50000 3911.50000  125.42950    3.09640    0.30680    2.51000
 3912.00000 3912.00000  125.31150    3.03230    0.30840    2.51000
 3912.50000 3912.50000  122.47820    3.06440    0.30470    2.50400
 3913.00000 3913.00000  120.47130    3.14980    0.29860    2.50000
 3913.50000 3913.50000  120.58930    3.24590    0.29380    2.50000
 3914.00000 3914.00000  119.05460    3.30990    0.28960    2.49320
 3914.50000 3914.50000  115.15880    3.34190    0.28600    2.48290
 3915.00000 3915.00000  113.78980    3.35180    0.28430    2.47260
 3915.50000 3915.50000  117.10180    3.32930    0.28320    2.47000
 3916.00000 3916.00000  119.89310    3.27560    0.28250    2.46200
 3916.50000 3916.50000  118.71480    3.17960    0.28640    2.46000
 3917.00000 3917.00000  115.84140    3.09490    0.30150    2.45140
 3917.50000 3917.50000  112.13810    3.05290    0.32420    2.41460
 3918.00000 3918.00000  104.29790    3.14980    0.35580    2.27300
 3918.50000 3918.50000   89.65910    3.55500    0.40820    1.97730
 3919.00000 3919.00000   71.24270    4.52590    0.45000    1.85000
 3919.50000 3919.50000   57.05940    6.44330    0.45000    1.85000
 3920.00000 3920.00000   54.44700    8.71290    0.45000    1.85000
 3920.50000 3920.50000   65.30090    7.52430    0.45000    1.85000
 3921.00000 3921.00000   85.59310    4.73260    0.44410    1.85000
 3921.50000 3921.50000  106.00320    3.11700    0.40220    2.17000
 3922.00000 3922.00000  118.67100    2.33520    0.38570    2.31000
 3922.50000 3922.50000  123.89910    1.94850    0.41060    2.29000
 3923.00000 3923.00000  126.05940    1.73340    0.41040    2.28000
 3923.50000 3923.50000  128.37610    1.60660    0.39350    2.27000
 3924.00000 3924.00000  132.02830    1.56140    0.37900    2.29000
 3924.50000 3924.50000  134.23270    1.57900    0.36930    2.35000
 3925.00000 3925.00000  133.16640    1.65190    0.35820    2.43000
 3925.50000 3925.50000  131.93800    1.75170    0.34440    2.48000
 3926.00000 3926.00000  132.88170    1.82250    0.34480    2.48000
 3926.50000 3926.50000  133.42760    1.83250    0.35120    2.47000
 3927.00000 3927.00000  132.63620    1.79970    0.35690    2.44000
 3927.50000 3927.50000  131.69770    1.77930    0.36820    2.37000
 3928.00000 3928.00000  129.44350    1.78240    0.38110    2.26000
 3928.50000 3928.50000  125.63540    1.76400    0.39110    2.08000
 3929.00000 3929.00000  121.56400    1.71150    0.40920    1.85000
 3929.50000 3929.50000  119.25040    1.64610    0.43680    1.85000
 3930.00000 3930.00000  120.58850    1.59130    0.45000    1.85000
 3930.50000 3930.50000  125.31410    1.58040    0.45000    1.85000
 3931.00000 3931.00000  130.12600    1.63590    0.43930    1.85000
 3931.50000 3931.50000  131.44050    1.75790    0.40710    1.90780
 3932.00000 3932.00000  130.64420    1.86640    0.39020    2.10570
 3932.50000 3932.50000  131.10460    1.89750    0.38970    2.23590
 3933.00000 3933.00000  133.89310    1.85550    0.38960    2.28790
 3933.50000 3933.50000  136.89380    1.77540    0.37990    2.30890
 3934.00000 3934.00000  137.55570    1.73740    0.36910    2.31940
 3934.50000 3934.50000  136.26000    1.70360    0.36920    2.31070
 3935.00000 3935.00000  134.10970    1.68970    0.37780    2.27340
 3935.50000 3935.50000  132.66020    1.67670    0.38590    2.23380
 3936.00000 3936.00000  131.65290    1.65100    0.38860    2.21210
 3936.50000 3936.50000  130.88480    1.63610    0.38900    2.17460
 3937.00000 3937.00000  130.99860    1.62260    0.39300    2.13500
 3937.50000 3937.50000  131.05740    1.62060    0.40070    2.13000
 3938.00000 3938.00000  129.93890    1.60990    0.40790    2.15560
 3938.50000 3938.50000  128.77990    1.61470    0.41080    2.17680
 3939.00000 3939.00000  129.16600    1.63210    0.40810    2.18830
 3939.50000 3939.50000  130.00900    1.65710    0.39990    2.23930
 3940.00000 3940.00000  129.11520    1.66470    0.38760    2.32300
 3940.50000 3940.50000  128.75530    1.68070    0.37580    2.37200
 3941.00000 3941.00000  130.77570    1.69850    0.37310    2.35630
 3941.50000 3941.50000  132.45430    1.69740    0.38300    2.31880
 3942.00000 3942.00000  130.14870    1.68610    0.39770    2.30230
 3942.50000 3942.50000  127.42050    1.65480    0.40780    2.30760
 3943.00000 3943.00000  126.74540    1.63460    0.41050    2.32500
 3943.50000 3943.50000  126.04760    1.62240    0.40810    2.36690
 3944.00000 3944.00000  122.90840    1.64210    0.40410    2.42360
 3944.50000 3944.50000  120.39160    1.69600    0.40020    2.46870
 3945.00000 3945.00000  119.96280    1.75000    0.39580    2.47290
 3945.50000 3945.50000  120.43880    1.78250    0.39230    2.44220
 3946.00000 3946.00000  121.59240    1.79310    0.39480    2.40260
 3946.50000 3946.50000  124.37930    1.78130    0.40420    2.39670
 3947.00000 3947.00000  128.22310    1.78030    0.41040    2.42660
 3947.50000 3947.50000  130.71220    1.79050    0.40200    2.46610
 3948.00000 3948.00000  130.43530    1.79020    0.38670    2.47360
 3948.50000 3948.50000  128.18400    1.79090    0.37830    2.47000
 3949.00000 3949.00000  125.21070    1.82450    0.37610    2.47620
 3949.50000 3949.50000  122.36940    1.90240    0.36750    2.49220
 3950.00000 3950.00000  121.66740    2.01220    0.34810    2.51200
 3950.50000 3950.50000  123.03800    2.10830    0.32620    2.52590
 3951.00000 3951.00000  124.14180    2.20210    0.30690    2.53580
 3951.50000 3951.50000  122.93060    2.29680    0.29280    2.54000
 3952.00000 3952.00000  120.67900    2.35050    0.28890    2.53440
 3952.50000 3952.50000  118.39130    2.41460    0.29330    2.52450
 3953.00000 3953.00000  116.30640    2.48900    0.29640    2.51460
 3953.50000 3953.50000  112.76950    2.58450    0.29240    2.51000
 3954.00000 3954.00000  110.18420    2.64780    0.28500    2.51000
 3954.50000 3954.50000  112.74920    2.65810    0.28120    2.50490
 3955.00000 3955.00000  119.12010    2.60560    0.28250    2.50000
 3955.50000 3955.50000  123.13560    2.53150    0.28600    2.50000
 3956.00000 3956.00000  124.04000    2.48930    0.29110    2.50470
 3956.50000 3956.50000  124.27680    2.48930    0.29770    2.51000
 3957.00000 3957.00000  122.58130    2.52110    0.30430    2.51000
 3957.50000 3957.50000  118.08230    2.55330    0.30500    2.50560
 3958.00000 3958.00000  113.10970    2.59620    0.30000    2.50000
 3958.50000 3958.50000  109.84600    2.62770    0.29040    2.49580
 3959.00000 3959.00000  109.42410    2.64840    0.27970    2.48590
 3959.50000 3959.50000  111.51830    2.65880    0.27600    2.48000
