~Version ---------------------------------------------------
VERS.   2.0 : CWLS log ASCII Standard -VERSION 2.0
WRAP.    NO : One line per depth step
DLM . SPACE : Column Data Section Delimiter
~Well ------------------------------------------------------
STRT  .m                3600.00000 : START DEPTH
STOP  .m                4100.00000 : STOP DEPTH
STEP  .m                   0.50000 : STEP
NULL  .                    -999.25 : NULL VALUE
COMP  .                            : COMPANY
WELL  .                    X10_raw : WELL
FLD   .                            : FIELD
LOC   .                            : LOCATION
PROV  .                            : PROVINCE
CNTY  .                            : COUNTY
STAT  .                            : STATE
CTRY  .                            : COUNTRY
SRVC  .                            : SERVICE COMPANY
DATE  . 2024-01-19 09:37:53.532499 : DATE
UWI   .                            : UNIQUE WELL ID
API   .                            : API NUMBER
LIC   .                            : 
LATI  .                            : 
LONG  .                            : 
NS    .                            : 
EW    .                            : 
XCOORD.                            : 
YCOORD.                            : 
GDAT  .                            : 
SECT  .                            : 
RANG  .                            : 
TOWN  .                            : 
~Curve Information -----------------------------------------
DEPT .m      : 
DEPTH.None   : None
GR   .GAPI   : None
RT   .ohm.m  : None
NPHI .v/v    : None
RHOB .g/cc   : None
~Params ----------------------------------------------------
EKB.      : 
EGL.      : 
KB .      : 
GL .      : 
TD .      : 
TDD.      : 
TDL.      : 
~Other -----------------------------------------------------
~ASCII -----------------------------------------------------
# ...
 3960.00000 3960.00000  113.76420    2.68020    0.28240    2.48390
 3960.50000 3960.50000  115.45460    2.70200    0.29260    2.49380
 3961.00000 3961.00000  119.12010    2.70200    0.30050    2.50370
 3961.50000 3961.50000  123.29660    2.69160    0.30820    2.51000
 3962.00000 3962.00000  123.57110    2.65980    0.31270    2.50650
 3962.50000 3962.50000  120.96070    2.60720    0.31100    2.50340
 3963.00000 3963.00000  118.98360    2.53240    0.30940    2.51330
 3963.50000 3963.50000  117.45440    2.48860    0.31220    2.51680
 3964.00000 3964.00000  118.05590    2.49830    0.31380    2.51000
 3964.50000 3964.50000  121.25460    2.54010    0.31250    2.51000
 3965.00000 3965.00000  124.17180    2.61380    0.31250    2.51000
 3965.50000 3965.50000  124.76290    2.65570    0.31310    2.50730
 3966.00000 3966.00000  124.33150    2.66570    0.31020    2.49470
 3966.50000 3966.50000  122.29080    2.64390    0.30470    2.48000
 3967.00000 3967.00000  119.73780    2.60140    0.30250    2.48240
 3967.50000 3967.50000  118.47920    2.58030    0.30500    2.49000
 3968.00000 3968.00000  120.04840    2.56990    0.30900    2.48780
 3968.50000 3968.50000  122.09360    2.56920    0.31100    2.47370
 3969.00000 3969.00000  121.89930    2.60070    0.30520    2.44400
 3969.50000 3969.50000  119.15450    2.63250    0.29240    2.42000
 3970.00000 3970.00000  117.30860    2.64360    0.28520    2.42180
 3970.50000 3970.50000  115.77840    2.62210    0.28550    2.43170
 3971.00000 3971.00000  113.03570    2.56820    0.28200    2.43840
 3971.50000 3971.50000  111.74130    2.51460    0.27790    2.43000
 3972.00000 3972.00000  114.60130    2.49360    0.27870    2.43280
 3972.50000 3972.50000  118.12570    2.51600    0.27670    2.45130
 3973.00000 3973.00000  116.86610    2.60200    0.26730    2.45650
 3973.50000 3973.50000  109.84380    2.77270    0.25760    2.42360
 3974.00000 3974.00000  100.68020    2.94270    0.25070    2.36520
 3974.50000 3974.50000   95.03110    3.01610    0.23660    2.31910
 3975.00000 3975.00000   96.20630    2.97340    0.22350    2.31130
 3975.50000 3975.50000  101.17370    2.86680    0.22390    2.32490
 3976.00000 3976.00000  105.82460    2.76060    0.23270    2.35610
 3976.50000 3976.50000  108.53020    2.71780    0.24050    2.38720
 3977.00000 3977.00000  109.50550    2.68600    0.24410    2.41560
 3977.50000 3977.50000  111.18770    2.64350    0.24740    2.43320
 3978.00000 3978.00000  114.75490    2.60100    0.25330    2.44710
 3978.50000 3978.50000  118.40510    2.54740    0.25690    2.46390
 3979.00000 3979.00000  119.81810    2.51520    0.25520    2.47000
 3979.50000 3979.50000  117.46310    2.51520    0.24830    2.45140
 3980.00000 3980.00000  111.69350    2.55810    0.23600    2.40990
 3980.50000 3980.50000  106.15930    2.63310    0.21850    2.37380
 3981.00000 3981.00000  101.44940    2.80440    0.20640    2.34840
 3981.50000 3981.50000   92.94280    3.12460    0.19890    2.32770
 3982.00000 3982.00000   80.76900    3.51830    0.18360    2.30040
 3982.50000 3982.50000   72.23300    3.98500    0.16920    2.27620
 3983.00000 3983.00000   70.80100    4.29980    0.16140    2.26270
 3983.50000 3983.50000   72.91560    4.19590    0.16000    2.26730
 3984.00000 3984.00000   75.14770    3.92090    0.16850    2.29870
 3984.50000 3984.50000   75.94660    3.72920    0.18240    2.35950
 3985.00000 3985.00000   74.06750    3.61220    0.19360    2.42170
 3985.50000 3985.50000   70.77930    3.53770    0.19820    2.45370
 3986.00000 3986.00000   68.54790    3.38860    0.20090    2.46000
 3986.50000 3986.50000   69.60490    3.10070    0.20690    2.45340
 3987.00000 3987.00000   73.21810    2.82440    0.22010    2.43060
 3987.50000 3987.50000   76.15690    2.67630    0.24190    2.38820
 3988.00000 3988.00000   75.91890    2.64580    0.26300    2.34500
 3988.50000 3988.50000   74.19410    2.73220    0.27340    2.32390
 3989.00000 3989.00000   72.89550    2.88200    0.27560    2.32600
 3989.50000 3989.50000   71.59690    2.97830    0.27670    2.33000
 3990.00000 3990.00000   70.53440    3.02100    0.27770    2.31840
 3990.50000 3990.50000   69.11770    3.04240    0.27840    2.30430
 3991.00000 3991.00000   66.16640    3.06380    0.27860    2.30000
 3991.50000 3991.50000   64.51360    3.13850    0.27490    2.30000
 3992.00000 3992.00000   65.34000    3.30930    0.26780    2.30530
 3992.50000 3992.50000   65.45810    3.54370    0.26200    2.32040
 3993.00000 3993.00000   63.45110    3.76720    0.26040    2.34010
 3993.50000 3993.50000   62.27060    3.88420    0.26380    2.34500
 3994.00000 3994.00000   64.98590    3.87360    0.27140    2.33030
 3994.50000 3994.50000   70.77050    3.82040    0.27750    2.31060
 3995.00000 3995.00000   74.54820    3.80980    0.27730    2.29080
 3995.50000 3995.50000   72.42330    3.90540    0.27570    2.28000
 3996.00000 3996.00000   67.81920    4.12850    0.27530    2.28440
 3996.50000 3996.50000   65.69420    4.35790    0.27200    2.30280
 3997.00000 3997.00000   65.10390    4.47230    0.26680    2.32410
 3997.50000 3997.50000   66.04830    4.40990    0.26570    2.33000
 3998.00000 3998.00000   68.99970    4.19130    0.26960    2.32220
 3998.50000 3998.50000   71.47880    3.97980    0.27340    2.30620
 3999.00000 3999.00000   71.83300    3.91600    0.27560    2.30370
 3999.50000 3999.50000   69.23580    4.05410    0.27500    2.31710
 4000.00000 4000.00000   64.86780    4.30580    0.27020    2.33690
 4000.50000 4000.50000   61.79840    4.54500    0.26510    2.35330
 4001.00000 4001.00000   62.03450    4.69030    0.26300    2.36000
 4001.50000 4001.50000   64.04140    4.64870    0.25740    2.35380
 4002.00000 4002.00000   65.22200    4.48260    0.25400    2.33700
 4002.50000 4002.50000   64.39560    4.32660    0.25890    2.32720
 4003.00000 4003.00000   63.31420    4.24290    0.26250    2.32550
 4003.50000 4003.50000   64.82900    4.18000    0.25830    2.34780
 4004.00000 4004.00000   67.09070    4.13860    0.25170    2.37000
 4004.50000 4004.50000   67.81920    4.06470    0.24970    2.36520
 4005.00000 4005.00000   66.99280    3.93720    0.25470    2.34770
 4005.50000 4005.50000   65.81220    3.78840    0.26080    2.33790
 4006.00000 4006.00000   63.80530    3.69260    0.26250    2.33000
 4006.50000 4006.50000   61.44420    3.67140    0.26450    2.33190
 4007.00000 4007.00000   60.26370    3.75650    0.26590    2.34540
 4007.50000 4007.50000   59.43730    3.92660    0.26320    2.37340
 4008.00000 4008.00000   58.13870    4.09650    0.25880    2.39160
 4008.50000 4008.50000   58.02070    4.10710    0.25750    2.39860
 4009.00000 4009.00000   60.73590    3.91590    0.25690    2.38870
 4009.50000 4009.50000   64.39560    3.65000    0.25770    2.37760
 4010.00000 4010.00000   66.16640    3.47970    0.26070    2.35890
 4010.50000 4010.50000   66.20590    3.45910    0.26290    2.34900
 4011.00000 4011.00000   65.91030    3.51350    0.26060    2.34000
 4011.50000 4011.50000   65.73220    3.57860    0.25300    2.34000
 4012.00000 4012.00000   66.14580    3.61170    0.24490    2.34000
 4012.50000 4012.50000   67.50850    3.61280    0.24470    2.34000
 4013.00000 4013.00000   68.37870    3.63490    0.25150    2.34040
 4013.50000 4013.50000   67.19210    3.70940    0.25390    2.35050
 4014.00000 4014.00000   65.76820    3.78390    0.25020    2.37000
 4014.50000 4014.50000   65.05630    3.73070    0.25140    2.37000
 4015.00000 4015.00000   63.86970    3.56030    0.25950    2.36010
 4015.50000 4015.50000   62.44580    3.41110    0.26710    2.35020
 4016.00000 4016.00000   63.63240    3.36840    0.26920    2.35000
 4016.50000 4016.50000   66.83610    3.44300    0.26500    2.35000
 4017.00000 4017.00000   68.61600    3.53900    0.25860    2.35940
 4017.50000 4017.50000   68.49730    3.53900    0.25790    2.35070
 4018.00000 4018.00000   67.78540    3.43240    0.26410    2.35000
 4018.50000 4018.50000   67.29110    3.29330    0.27260    2.34090
 4019.00000 4019.00000   67.60720    3.18580    0.28030    2.33100
 4019.50000 4019.50000   68.61340    3.10990    0.28250    2.33000
