~Version ---------------------------------------------------
VERS.   2.0 : CWLS log ASCII Standard -VERSION 2.0
WRAP.    NO : One line per depth step
DLM . SPACE : Column Data Section Delimiter
~Well ------------------------------------------------------
STRT  .m                3600.00000 : START DEPTH
STOP  .m                4100.00000 : STOP DEPTH
STEP  .m                   0.50000 : STEP
NULL  .                    -999.25 : NULL VALUE
COMP  .                            : COMPANY
WELL  .                    X10_raw : WELL
FLD   .                            : FIELD
LOC   .                            : LOCATION
PROV  .                            : PROVINCE
CNTY  .                            : COUNTY
STAT  .                            : STATE
CTRY  .                            : COUNTRY
SRVC  .                            : SERVICE COMPANY
DATE  . 2024-01-19 09:37:53.532499 : DATE
UWI   .                            : UNIQUE WELL ID
API   .                            : API NUMBER
LIC   .                            : 
LATI  .                            : 
LONG  .                            : 
NS    .                            : 
EW    .                            : 
XCOORD.                            : 
YCOORD.                            : 
GDAT  .                            : 
SECT  .                            : 
RANG  .                            : 
TOWN  .                            : 
~Curve Information -----------------------------------------
DEPT .m      : 
DEPTH.None   : None
GR   .GAPI   : None
RT   .ohm.m  : None
NPHI .v/v    : None
RHOB .g/cc   : None
~Params ----------------------------------------------------
EKB.      : 
EGL.      : 
KB .      : 
GL .      : 
TD .      : 
TDD.      : 
TDL.      : 
~Other -----------------------------------------------------
~ASCII -----------------------------------------------------
 3600.00000 3600.00000  127.12950    2.19150    0.36530    2.51000
 3600.50000 3600.50000  126.19370    2.15950    0.37120    2.51000
 3601.00000 3601.00000  125.49190    2.12740    0.38060    2.51000
 3601.50000 3601.50000  124.28200    2.10570    0.38790    2.51000
 3602.00000 3602.00000  123.85090    2.09450    0.39140    2.50740
 3602.50000 3602.50000  123.96780    2.07310    0.39520    2.50000
 3603.00000 3603.00000  123.34650    2.06290    0.39820    2.42614
 3603.50000 3603.50000  123.38640    2.03100    0.39630    2.42663
 3604.00000 3604.00000  125.14100    2.00960    0.39080    2.43163
 3604.50000 3604.50000  127.48040    1.98820    0.38650    2.43776
 3605.00000 3605.00000  128.41610    1.97750    0.38400    2.53220
 3605.50000 3605.50000  129.35190    1.97750    0.37850    2.54440
 3606.00000 3606.00000  130.28760    1.97750    0.37100    2.56000
 3606.50000 3606.50000  130.17070    1.97750    0.36540    2.55790
 3607.00000 3607.00000  128.53310    1.95600    0.36160    2.54800
 3607.50000 3607.50000  126.66160    1.92380    0.35780    2.53800
 3608.00000 3608.00000  125.60890    1.91310    0.35260    2.52810
 3608.50000 3608.50000  124.79010    1.95600    0.34480    2.52180
 3609.00000 3609.00000  122.56760    2.10590    0.33250    2.53540
 3609.50000 3609.50000  117.42100    2.42630    0.31300    2.57040
 3610.00000 3610.00000  111.45550    2.85330    0.28870    2.62830
 3610.50000 3610.50000  110.13340    3.04520    0.27500    2.66670
 3611.00000 3611.00000  114.26910    2.72380    0.28400    2.63790
 3611.50000 3611.50000  119.41100    2.25390    0.30940    2.56350
 3612.00000 3612.00000  122.71950    1.96550    0.33330    2.47460
 3612.50000 3612.50000  123.73740    1.90240    0.34380    2.40390
 3613.00000 3613.00000  121.82770    2.02150    0.34130    2.38630
 3613.50000 3613.50000  119.01260    2.19360    0.32720    2.42320
 3614.00000 3614.00000  117.25330    2.31120    0.30730    2.47460
 3614.50000 3614.50000  116.66690    2.31120    0.29480    2.48760
 3615.00000 3615.00000  116.00650    2.22510    0.29470    2.47500
 3615.50000 3615.50000  116.94890    2.09590    0.30070    2.45740
 3616.00000 3616.00000  120.03300    1.98830    0.31100    2.44730
 3616.50000 3616.50000  124.20520    1.93450    0.32420    2.43720
 3617.00000 3617.00000  127.17060    1.92400    0.33360    2.43000
 3617.50000 3617.50000  126.43300    1.93520    0.33690    2.43300
 3618.00000 3618.00000  122.76500    1.95710    0.33830    2.44000
 3618.50000 3618.50000  121.55440    1.96760    0.34170    2.44000
 3619.00000 3619.00000  125.33890    1.96710    0.34540    2.43670
 3619.50000 3619.50000  127.94830    1.97740    0.34390    2.43000
 3620.00000 3620.00000  124.94740    2.00970    0.33620    2.43000
 3620.50000 3620.50000  120.73510    2.07400    0.32780    2.43350
 3621.00000 3621.00000  120.38400    2.10610    0.32660    2.44360
 3621.50000 3621.50000  121.86580    2.08440    0.32990    2.45000
 3622.00000 3622.00000  121.39790    2.03090    0.32640    2.45000
 3622.50000 3622.50000  117.65490    1.97740    0.31570    2.44610
 3623.00000 3623.00000  111.45550    1.94520    0.30400    2.44000
 3623.50000 3623.50000  105.25610    1.96660    0.28830    2.43590
 3624.00000 3624.00000  101.39610    2.00950    0.27110    2.43000
 3624.50000 3624.50000  100.84350    2.07400    0.26250    2.43000
 3625.00000 3625.00000  102.74850    2.10630    0.26220    2.43000
 3625.50000 3625.50000  104.38720    2.08490    0.26680    2.42550
 3626.00000 3626.00000  106.26000    2.03140    0.28540    2.41540
 3626.50000 3626.50000  111.52710    2.00990    0.31110    2.41940
 3627.00000 3627.00000  117.57210    2.02110    0.32410    2.43960
 3627.50000 3627.50000  116.90670    2.03210    0.32910    2.45970
 3628.00000 3628.00000  111.68000    2.02090    0.33380    2.47000
 3628.50000 3628.50000  111.09450    1.98870    0.33700    2.47000
 3629.00000 3629.00000  117.25820    1.95700    0.34080    2.48030
 3629.50000 3629.50000  123.31270    1.94680    0.34540    2.50050
 3630.00000 3630.00000  124.99400    1.95770    0.34800    2.52070
 3630.50000 3630.50000  124.17300    1.95770    0.34560    2.53540
 3631.00000 3631.00000  125.22860    1.94700    0.33990    2.54000
 3631.50000 3631.50000  127.10510    1.90400    0.33650    2.53440
 3632.00000 3632.00000  126.51870    1.85030    0.33670    2.51850
 3632.50000 3632.50000  123.82120    1.79650    0.33600    2.49250
 3633.00000 3633.00000  120.42000    1.75320    0.33120    2.46220
 3633.50000 3633.50000  116.19780    1.77500    0.32280    2.44400
 3634.00000 3634.00000  113.30170    1.88280    0.31290    2.44610
 3634.50000 3634.50000  113.13880    2.07640    0.30310    2.46240
 3635.00000 3635.00000  113.95120    2.34490    0.29280    2.47630
 3635.50000 3635.50000  112.96470    2.61260    0.28250    2.48000
 3636.00000 3636.00000  110.26010    2.76260    0.27410    2.48000
 3636.50000 3636.50000  109.43690    2.79470    0.26760    2.47340
 3637.00000 3637.00000  111.11810    2.73080    0.26440    2.47000
 3637.50000 3637.50000  113.84850    2.56090    0.26860    2.47680
 3638.00000 3638.00000  118.73720    2.33870    0.28140    2.48690
 3638.50000 3638.50000  124.79580    2.13570    0.29990    2.49000
 3639.00000 3639.00000  126.21600    2.01660    0.31560    2.48290
 3639.50000 3639.50000  121.42480    2.00390    0.32010    2.46570
 3640.00000 3640.00000  116.88910    2.09860    0.31530    2.45280
 3640.50000 3640.50000  115.84590    2.23620    0.30610    2.45730
 3641.00000 3641.00000  115.34000    2.37480    0.29830    2.46740
 3641.50000 3641.50000  114.20400    2.42850    0.29780    2.47750
 3642.00000 3642.00000  115.96320    2.39650    0.30350    2.48000
 3642.50000 3642.50000  119.36440    2.35380    0.30780    2.46450
 3643.00000 3643.00000  120.06810    2.30030    0.31060    2.44440
 3643.50000 3643.50000  118.81590    2.25790    0.31470    2.43210
 3644.00000 3644.00000  118.34660    2.20440    0.31890    2.42200
 3644.50000 3644.50000  120.73330    2.11820    0.32340    2.42000
 3645.00000 3645.00000  124.48510    2.05390    0.32670    2.42000
 3645.50000 3645.50000  126.55490    2.01080    0.32760    2.43660
 3646.00000 3646.00000  125.96470    1.99930    0.32690    2.44840
 3646.50000 3646.50000  123.77730    1.99890    0.32910    2.45000
 3647.00000 3647.00000  120.22830    1.97720    0.33660    2.45000
 3647.50000 3647.50000  118.00580    1.94500    0.34330    2.43260
 3648.00000 3648.00000  117.61700    1.93410    0.34210    2.42120
 3648.50000 3648.50000  116.87760    1.98740    0.33610    2.42890
 3649.00000 3649.00000  116.52690    2.10510    0.32730    2.44790
 3649.50000 3649.50000  117.26620    2.20160    0.31770    2.46810
 3650.00000 3650.00000  118.00580    2.20190    0.31830    2.47000
 3650.50000 3650.50000  121.28100    2.08420    0.33390    2.46070
 3651.00000 3651.00000  128.41610    1.92360    0.35450    2.44130
 3651.50000 3651.50000  132.51010    1.82700    0.36590    2.45890
 3652.00000 3652.00000  129.93670    1.83770    0.36460    2.48860
 3652.50000 3652.50000  126.42770    1.92360    0.35850    2.51890
 3653.00000 3653.00000  125.60890    2.03070    0.35550    2.52970
 3653.50000 3653.50000  125.49190    2.13770    0.35510    2.53000
 3654.00000 3654.00000  125.37490    2.19110    0.35350    2.52010
 3654.50000 3654.50000  125.95980    2.20180    0.35090    2.51000
 3655.00000 3655.00000  127.71430    2.20180    0.35060    2.50990
 3655.50000 3655.50000  130.40460    2.19110    0.35260    2.50000
 3656.00000 3656.00000  130.87250    2.18040    0.35310    2.50030
 3656.50000 3656.50000  127.36340    2.16980    0.34910    2.51000
 3657.00000 3657.00000  123.15250    2.14840    0.34340    2.50950
 3657.50000 3657.50000  122.21670    2.14840    0.34130    2.49940
 3658.00000 3658.00000  124.43920    2.22320    0.33950    2.48860
 3658.50000 3658.50000  122.56760    2.39390    0.32400    2.46920
 3659.00000 3659.00000  110.51980    2.70320    0.29370    2.45650
 3659.50000 3659.50000   94.14400    3.08800    0.26620    2.41420
