~Version ---------------------------------------------------
VERS.   2.0 : CWLS log ASCII Standard -VERSION 2.0
WRAP.    NO : One line per depth step
DLM . SPACE : Column Data Section Delimiter
~Well ------------------------------------------------------
STRT  .m                3600.00000 : START DEPTH
STOP  .m                4100.00000 : STOP DEPTH
STEP  .m                   0.50000 : STEP
NULL  .                    -999.25 : NULL VALUE
COMP  .                            : COMPANY
WELL  .                    X10_raw : WELL
FLD   .                            : FIELD
LOC   .                            : LOCATION
PROV  .                            : PROVINCE
CNTY  .                            : COUNTY
STAT  .                            : STATE
CTRY  .                            : COUNTRY
SRVC  .                            : SERVICE COMPANY
DATE  . 2024-01-19 09:37:53.532499 : DATE
UWI   .                            : UNIQUE WELL ID
API   .                            : API NUMBER
LIC   .                            : 
LATI  .                            : 
LONG  .                            : 
NS    .                            : 
EW    .                            : 
XCOORD.                            : 
YCOORD.                            : 
GDAT  .                            : 
SECT  .                            : 
RANG  .                            : 
TOWN  .                            : 
~Curve Information -----------------------------------------
DEPT .m      : 
DEPTH.None   : None
GR   .GAPI   : None
RT   .ohm.m  : None
NPHI .v/v    : None
RHOB .g/cc   : None
~Params ----------------------------------------------------
EKB.      : 
EGL.      : 
KB .      : 
GL .      : 
TD .      : 
TDD.      : 
TDL.      : 
~Other -----------------------------------------------------
~ASCII -----------------------------------------------------
# ...
 3840.00000 3840.00000  107.21910    5.12480    0.17550    2.40540
 3840.50000 3840.50000  101.21390    5.16610    0.16570    2.36590
 3841.00000 3841.00000   96.73950    5.23840    0.16000    2.32980
 3841.50000 3841.50000   95.67980    5.37250    0.15480    2.31000
 3842.00000 3842.00000   95.67980    5.58890    0.15340    2.31310
 3842.50000 3842.50000   95.09100    5.95900    0.15500    2.32600
 3843.00000 3843.00000   94.14910    6.56350    0.15390    2.33710
 3843.50000 3843.50000   89.20370    7.58290    0.14520    2.31070
 3844.00000 3844.00000   78.51260    9.39990    0.12420    2.23370
 3844.50000 3844.50000   67.32290   12.35880    0.09130    2.14000
 3845.00000 3845.00000   60.23770   16.69360    0.06310    2.07050
 3845.50000 3845.50000   56.35200   22.52530    0.04880    2.03550
 3846.00000 3846.00000   53.05510   29.24220    0.04330    2.01580
 3846.50000 3846.50000   51.75990   33.78260    0.03970    2.00000
 3847.00000 3847.00000   53.99710   32.85570    0.03990    2.00370
 3847.50000 3847.50000   57.29400   28.87670    0.04370    2.02520
 3848.00000 3848.00000   58.35370   25.86910    0.04860    2.05320
 3848.50000 3848.50000   58.23600   24.90180    0.05460    2.07150
 3849.00000 3849.00000   58.70700   25.29850    0.05750    2.08130
 3849.50000 3849.50000   58.47150   26.13940    0.05900    2.09000
 3850.00000 3850.00000   57.88270   26.76680    0.06290    2.09110
 3850.50000 3850.50000   58.47150   27.19120    0.06260    2.10000
 3851.00000 3851.00000   60.11990   28.27970    0.06350    2.10000
 3851.50000 3851.50000   60.13800   31.16340    0.06170    2.09930
 3852.00000 3852.00000   57.78230   36.76730    0.05260    2.08880
 3852.50000 3852.50000   55.19100   47.00730    0.04220    2.06910
 3853.00000 3853.00000   54.58580   64.88190    0.03790    2.04970
 3853.50000 3853.50000   54.83760   84.18990    0.03500    2.04040
 3854.00000 3854.00000   55.19100   75.00400    0.03810    2.06010
 3854.50000 3854.50000   57.07550   46.83770    0.05090    2.07990
 3855.00000 3855.00000   60.82640   28.94290    0.07050    2.09960
 3855.50000 3855.50000   63.77010   20.85870    0.08930    2.12900
 3856.00000 3856.00000   64.35890   17.94190    0.09940    2.14910
 3856.50000 3856.50000   63.29910   18.25600    0.09800    2.15940
 3857.00000 3857.00000   61.78700   21.49440    0.08810    2.16000
 3857.50000 3857.50000   61.08030   27.59750    0.07260    2.14170
 3858.00000 3858.00000   61.53290   36.13530    0.05530    2.12190
 3858.50000 3858.50000   60.23770   47.42500    0.04100    2.09330
 3859.00000 3859.00000   57.88270   59.30960    0.03400    2.06360
 3859.50000 3859.50000   58.00050   58.49180    0.03450    2.05130
 3860.00000 3860.00000   60.82640   44.83960    0.04240    2.05000
 3860.50000 3860.50000   64.24110   32.92030    0.06000    2.08360
 3861.00000 3861.00000   68.12680   26.11850    0.07700    2.11480
 3861.50000 3861.50000   71.65920   22.94130    0.08690    2.13630
 3862.00000 3862.00000   73.66090   21.97860    0.09230    2.14800
 3862.50000 3862.50000   73.54320   22.24130    0.09520    2.15000
 3863.00000 3863.00000   73.30770   22.63020    0.10140    2.15780
 3863.50000 3863.50000   75.30940   21.97840    0.11090    2.16000
 3864.00000 3864.00000   78.95960   20.00820    0.11940    2.16750
 3864.50000 3864.50000   80.84360   17.56770    0.13100    2.19210
 3865.00000 3865.00000   81.31460   15.85290    0.13700    2.22180
 3865.50000 3865.50000   82.63520   15.53720    0.13230    2.23710
 3866.00000 3866.00000   82.18920   16.74470    0.12340    2.23300
 3866.50000 3866.50000   77.38200   19.52510    0.11290    2.20940
 3867.00000 3867.00000   72.50550   23.83590    0.09730    2.17980
 3867.50000 3867.50000   70.83500   28.64290    0.08100    2.15020
 3868.00000 3868.00000   70.50320   31.04570    0.07400    2.12700
 3868.50000 3868.50000   69.08970   28.87610    0.07850    2.10730
 3869.00000 3869.00000   69.08970   24.08780    0.09080    2.10620
 3869.50000 3869.50000   72.13020   20.19330    0.10580    2.12830
 3870.00000 3870.00000   75.68580   18.59020    0.11570    2.16390
 3870.50000 3870.50000   75.68580   19.36410    0.11440    2.19170
 3871.00000 3871.00000   72.85890   22.80640    0.10480    2.19430
 3871.50000 3871.50000   69.53980   29.47850    0.09490    2.17320
 3872.00000 3872.00000   67.53810   38.05300    0.08840    2.14910
 3872.50000 3872.50000   66.85180   40.88760    0.08550    2.13470
 3873.00000 3873.00000   67.36360   34.62590    0.08710    2.12480
 3873.50000 3873.50000   68.72230   27.59790    0.09400    2.12000
 3874.00000 3874.00000   70.39520   23.81970    0.10240    2.12990
 3874.50000 3874.50000   70.51320   23.34400    0.10260    2.14480
 3875.00000 3875.00000   68.36830   25.97640    0.08950    2.14060
 3875.50000 3875.50000   65.67450   30.88770    0.07400    2.11630
 3876.00000 3876.00000   63.43220   33.76790    0.06800    2.09110
 3876.50000 3876.50000   61.78000   31.06010    0.06820    2.08000
 3877.00000 3877.00000   60.93570   26.94170    0.06910    2.08000
 3877.50000 3877.50000   60.71790   25.06930    0.06830    2.08000
 3878.00000 3878.00000   60.38170   25.78750    0.06660    2.07610
 3878.50000 3878.50000   60.97200   28.53630    0.06750    2.07000
 3879.00000 3879.00000   62.62480   31.47440    0.07190    2.07370
 3879.50000 3879.50000   63.31420   30.81990    0.08200    2.08350
 3880.00000 3880.00000   63.05930   26.11100    0.09710    2.09680
 3880.50000 3880.50000   64.14030   21.54370    0.11010    2.11660
 3881.00000 3881.00000   67.70110   19.41630    0.11590    2.13630
 3881.50000 3881.50000   71.00660   20.10110    0.11210    2.15000
 3882.00000 3882.00000   71.00660   23.14140    0.10140    2.14710
 3882.50000 3882.50000   67.20870   25.02990    0.09300    2.13170
 3883.00000 3883.00000   62.82340   22.25210    0.09250    2.10470
 3883.50000 3883.50000   61.78000   18.39460    0.09890    2.08750
 3884.00000 3884.00000   63.56920   16.12300    0.10870    2.08240
 3884.50000 3884.50000   65.34000   15.32950    0.12310    2.09000
 3885.00000 3885.00000   66.04830   15.55790    0.15400    2.08790
 3885.50000 3885.50000   67.11080   16.17220    0.22340    2.07000
 3886.00000 3886.00000   68.78420   14.60500    0.32660    2.00740
 3886.50000 3886.50000   73.33770    9.58230    0.40010    1.88020
 3887.00000 3887.00000   84.60970    5.63230    0.44050    1.85000
 3887.50000 3887.50000  101.54840    3.78320    0.45000    1.85000
 3888.00000 3888.00000  115.65780    3.03290    0.44300    1.85000
 3888.50000 3888.50000  119.86850    2.88020    0.40720    1.89060
 3889.00000 3889.00000  116.71520    3.11610    0.36950    2.06910
 3889.50000 3889.50000  113.64600    3.56750    0.34140    2.18710
 3890.00000 3890.00000  112.32550    3.90650    0.31960    2.29000
 3890.50000 3890.50000  111.38110    3.98090    0.30690    2.38300
 3891.00000 3891.00000  111.14500    3.98090    0.30140    2.44790
 3891.50000 3891.50000  111.73530    4.01280    0.29620    2.49540
 3892.00000 3892.00000  111.49910    4.05520    0.29100    2.53250
 3892.50000 3892.50000  111.49910    4.06590    0.28730    2.55000
 3893.00000 3893.00000  112.20750    4.06590    0.28280    2.54530
 3893.50000 3893.50000  112.56160    4.04460    0.27620    2.52500
 3894.00000 3894.00000  112.79770    4.02340    0.27090    2.49940
 3894.50000 3894.50000  113.38800    4.00210    0.27120    2.48440
 3895.00000 3895.00000  113.27000    3.99150    0.27610    2.48000
 3895.50000 3895.50000  112.20750    3.98080    0.28160    2.48620
 3896.00000 3896.00000  112.20750    3.93830    0.28480    2.49000
 3896.50000 3896.50000  115.04080    3.83200    0.28420    2.49000
 3897.00000 3897.00000  118.58240    3.72560    0.28360    2.49700
 3897.50000 3897.50000  118.81850    3.67240    0.28660    2.51460
 3898.00000 3898.00000  117.51990    3.69370    0.28820    2.52760
 3898.50000 3898.50000  118.11020    3.77880    0.28550    2.52210
 3899.00000 3899.00000  118.70040    3.88510    0.28440    2.50360
 3899.50000 3899.50000  117.60150    3.94850    0.28590    2.49150
