~Version ---------------------------------------------------
VERS.   2.0 : CWLS log ASCII Standard -VERSION 2.0
WRAP.    NO : One line per depth step
DLM . SPACE : Column Data Section Delimiter
~Well ------------------------------------------------------
STRT  .m               13330.50000 : START DEPTH
STOP  .m               14166.50000 : STOP DEPTH
STEP  .m                   0.50000 : STEP
NULL  .                    -999.25 : NULL VALUE
COMP  .                            : COMPANY
WELL  .                       X3 : WELL
FLD   .                            : FIELD
LOC   .                            : LOCATION
PROV  .                            : PROVINCE
CNTY  .                            : COUNTY
STAT  .                            : STATE
CTRY  .                            : COUNTRY
SRVC  .                            : SERVICE COMPANY
DATE  . 2024-03-22 11:39:23.231881 : DATE
UWI   .                            : UNIQUE WELL ID
API   .                            : API NUMBER
LIC   .                            : 
LATI  .                            : 
LONG  .                            : 
NS    .                            : 
EW    .                            : 
XCOORD.                            : 
YCOORD.                            : 
GDAT  .                            : 
SECT  .                            : 
RANG  .                            : 
TOWN  .                            : 
~Curve Information -----------------------------------------
DEPT .m      : 
DEPTH.None   : None
GR   .GAPI   : None
RT   .ohm.m  : None
NPHI .v/v    : None
RHOB .g/cc   : None
PEF  .None   : None
DTC  .None   : None
~Params ----------------------------------------------------
EKB.      : 
EGL.      : 
KB .      : 
GL .      : 
TD .      : 
TDD.      : 
TDL.      : 
~Other -----------------------------------------------------
~ASCII -----------------------------------------------------
# ...
 13638.50000 13638.50000   30.82264  355.62073    0.20361    1.85685    4.01804  125.04123
 13639.00000 13639.00000   29.53122  357.54677    0.20976    1.86017    3.99747  125.50291
 13639.50000 13639.50000   28.06269  351.24745    0.21629    1.86357    3.97919  125.26729
 13640.00000 13640.00000   27.03433  347.16067    0.22074    1.86677    3.97495  124.17091
 13640.50000 13640.50000   26.23406  341.43813    0.22355    1.86845    3.98885  123.35905
 13641.00000 13641.00000   26.43848  345.78286    0.22380    1.86733    4.00228  123.01329
 13641.50000 13641.50000   26.83596  359.99414    0.22046    1.86535    3.99804  122.90731
 13642.00000 13642.00000   27.19668  372.90595    0.21536    1.86452    3.97770  122.13661
 13642.50000 13642.50000   27.98318  389.66552    0.21008    1.86432    3.95049  120.58023
 13643.00000 13643.00000   27.90530  399.02482    0.20663    1.86673    3.92937  118.25862
 13643.50000 13643.50000   26.96111  392.05536    0.20482    1.87567    3.92172  117.04570
 13644.00000 13644.00000   26.25519  387.07701    0.20512    1.88937    3.92907  116.75587
 13644.50000 13644.50000   26.29984  400.19463    0.20610    1.89952    3.94455  117.55632
 13645.00000 13645.00000   26.21089  418.21249    0.20547    1.90076    3.95149  118.83446
 13645.50000 13645.50000   25.73583  426.66182    0.20522    1.89537    3.93937  120.55717
 13646.00000 13646.00000   25.79217  432.84761    0.20765    1.88824    3.92142  121.50038
 13646.50000 13646.50000   26.30873  441.87315    0.20945    1.88182    3.92768  121.94276
 13647.00000 13647.00000   26.66661  426.54720    0.20980    1.87434    3.96520  121.71688
 13647.50000 13647.50000   26.40011  411.83006    0.21005    1.86447    3.99987  120.95977
 13648.00000 13648.00000   26.08259  405.35847    0.20888    1.86047    3.99209  120.13705
 13648.50000 13648.50000   27.44323  289.43941    0.20974    1.88668    3.93726  119.12802
 13649.00000 13649.00000   29.47614  212.54356    0.21237    1.91860    3.92079  118.04801
 13649.50000 13649.50000   31.13238  216.38699    0.21596    1.92827    3.95698  117.09020
 13650.00000 13650.00000   32.91804  214.15368    0.22334    1.93208    3.95618  116.58291
 13650.50000 13650.50000   34.57953  209.21875    0.22920    1.93071    3.90250  116.48796
 13651.00000 13651.00000   35.64003  208.72450    0.22970    1.92205    3.84676  116.12294
 13651.50000 13651.50000   35.09181  214.01364    0.22668    1.90915    3.85070  114.85736
 13652.00000 13652.00000   33.14807  223.55334    0.22376    1.90020    3.91271  113.04100
 13652.50000 13652.50000   31.51546  235.89866    0.22178    1.89902    3.97674  112.06815
 13653.00000 13653.00000   30.59204  253.65956    0.21971    1.90023    3.99586  111.78345
 13653.50000 13653.50000   29.44441  261.28442    0.21690    1.89788    3.97522  111.81102
 13654.00000 13654.00000   28.51318  240.25245    0.21388    1.89609    3.95389  111.08072
 13654.50000 13654.50000   28.89918  211.50816    0.20722    1.90123    3.94924  110.25074
 13655.00000 13655.00000   30.45317  202.81543    0.19903    1.90733    3.95773  109.65156
 13655.50000 13655.50000   32.14387  212.66441    0.19770    1.90679    3.98723  109.99944
 13656.00000 13656.00000   33.33920  216.04951    0.20052    1.90310    4.03301  111.29974
 13656.50000 13656.50000   33.66066  207.50505    0.20264    1.90227    4.06183  113.10012
 13657.00000 13657.00000   32.63447  194.44894    0.20627    1.90243    4.04899  115.39034
 13657.50000 13657.50000   30.97774  172.48761    0.21120    1.89698    3.99882  116.69014
 13658.00000 13658.00000   30.09663  152.08513    0.21046    1.88425    3.94021  117.03661
 13658.50000 13658.50000   29.52848  142.79729    0.20343    1.87276    3.90760  116.75617
 13659.00000 13659.00000   29.12656  140.96746    0.19908    1.87323    3.91771  115.14891
 13659.50000 13659.50000   30.21755  142.27643    0.19917    1.88684    3.96504  112.59320
 13660.00000 13660.00000   32.27360  141.21755    0.20055    1.90412    4.01757  110.38521
 13660.50000 13660.50000   33.96532  134.80747    0.20438    1.91666    4.04091  109.07118
 13661.00000 13661.00000   35.24097  124.78519    0.21116    1.92694    4.03945  108.77936
 13661.50000 13661.50000   35.74432  109.91332    0.22038    1.94400    4.04432  109.26552
 13662.00000 13662.00000   35.08952   92.89887    0.23225    1.96995    4.08067  110.13059
 13662.50000 13662.50000   34.17679   81.85207    0.24344    1.98787    4.14446  111.27907
 13663.00000 13663.00000   33.68735   78.84721    0.24813    1.98512    4.18910  111.94220
 13663.50000 13663.50000   33.13731   79.40134    0.24430    1.97278    4.16535  112.22764
 13664.00000 13664.00000   32.72889   80.87546    0.23559    1.96117    4.08949  111.77584
 13664.50000 13664.50000   33.56005   82.14056    0.22880    1.95208    4.02383  110.79377
 13665.00000 13665.00000   34.85947   79.05839    0.22797    1.94678    3.99850  109.19637
 13665.50000 13665.50000   34.70051   71.48681    0.23254    1.94600    4.00178  106.71028
 13666.00000 13666.00000   32.33805   64.18973    0.23936    1.94790    4.01068  104.63592
 13666.50000 13666.50000   29.79869   58.89653    0.24154    1.95103    4.00982  102.22510
 13667.00000 13667.00000   30.74581   56.50804    0.23351    1.95909    4.00338   99.90285
 13667.50000 13667.50000   35.74181   57.35301    0.21589    1.97568    4.00592   96.86157
 13668.00000 13668.00000   41.35935   58.52169    0.19357    2.00300    4.02827   94.39054
 13668.50000 13668.50000   44.77194   57.22964    0.17479    2.03962    4.07263   92.74565
 13669.00000 13669.00000   46.22181   54.62347    0.16521    2.07713    4.13536   91.82741
 13669.50000 13669.50000   46.58976   52.90149    0.16265    2.10993    4.19935   92.24148
 13670.00000 13670.00000   46.13123   51.66326    0.16606    2.13289    4.23346   94.38763
 13670.50000 13670.50000   46.26306   49.73251    0.17734    2.13412    4.23801   99.16611
 13671.00000 13671.00000   46.97000   46.15248    0.19626    2.10928    4.24778  103.50014
 13671.50000 13671.50000   45.02195   41.05783    0.21868    2.06892    4.26146  107.86915
 13672.00000 13672.00000   40.15484   38.19622    0.23656    2.02389    4.23793  111.22849
 13672.50000 13672.50000   35.43643   39.66380    0.24490    1.98126    4.17297  113.97623
 13673.00000 13673.00000   33.34046   42.81412    0.24422    1.95227    4.11874  114.40929
 13673.50000 13673.50000   34.65889   45.05912    0.23664    1.94252    4.11802  113.05856
 13674.00000 13674.00000   37.79384   46.25907    0.22682    1.94548    4.16096  110.12442
 13674.50000 13674.50000   40.40384   46.33230    0.22160    1.95413    4.20357  106.79290
 13675.00000 13675.00000   42.06383   45.70119    0.22244    1.96470    4.20955  104.36766
 13675.50000 13675.50000   43.76641   45.00753    0.22397    1.97279    4.17763  103.35622
 13676.00000 13676.00000   46.00544   43.75167    0.22266    1.97642    4.12819  103.14958
 13676.50000 13676.50000   48.25982   41.96629    0.21928    1.97753    4.08494  103.41095
 13677.00000 13677.00000   49.59411   40.69583    0.21917    1.97730    4.06965  103.95672
 13677.50000 13677.50000   49.84702   40.06231    0.22529    1.97431    4.08699  104.50431
 13678.00000 13678.00000   48.91229   39.19062    0.23192    1.96901    4.12084  104.05680
 13678.50000 13678.50000   46.87645   37.24982    0.23172    1.96890    4.15176  102.91560
 13679.00000 13679.00000   44.63905   34.57645    0.22354    1.98089    4.16615  101.64883
 13679.50000 13679.50000   42.91128   32.82300    0.21343    1.99845    4.16337  101.92375
 13680.00000 13680.00000   41.99276   32.46426    0.20987    2.01015    4.15417  103.65784
 13680.50000 13680.50000   42.15038   32.46319    0.21476    2.01171    4.14460  106.30673
 13681.00000 13681.00000   42.93038   32.15964    0.21987    2.00336    4.13708  107.68615
 13681.50000 13681.50000   42.76032   31.54348    0.21818    1.98955    4.13941  107.22701
 13682.00000 13682.00000   41.08058   30.65773    0.21243    1.98234    4.16096  106.17773
