~Version ---------------------------------------------------
VERS.   2.0 : CWLS log ASCII Standard -VERSION 2.0
WRAP.    NO : One line per depth step
DLM . SPACE : Column Data Section Delimiter
~Well ------------------------------------------------------
STRT  .m               13330.50000 : START DEPTH
STOP  .m               14166.50000 : STOP DEPTH
STEP  .m                   0.50000 : STEP
NULL  .                    -999.25 : NULL VALUE
COMP  .                            : COMPANY
WELL  .                       X3 : WELL
FLD   .                            : FIELD
LOC   .                            : LOCATION
PROV  .                            : PROVINCE
CNTY  .                            : COUNTY
STAT  .                            : STATE
CTRY  .                            : COUNTRY
SRVC  .                            : SERVICE COMPANY
DATE  . 2024-03-22 11:39:23.231881 : DATE
UWI   .                            : UNIQUE WELL ID
API   .                            : API NUMBER
LIC   .                            : 
LATI  .                            : 
LONG  .                            : 
NS    .                            : 
EW    .                            : 
XCOORD.                            : 
YCOORD.                            : 
GDAT  .                            : 
SECT  .                            : 
RANG  .                            : 
TOWN  .                            : 
~Curve Information -----------------------------------------
DEPT .m      : 
DEPTH.None   : None
GR   .GAPI   : None
RT   .ohm.m  : None
NPHI .v/v    : None
RHOB .g/cc   : None
PEF  .None   : None
DTC  .None   : None
~Params ----------------------------------------------------
EKB.      : 
EGL.      : 
KB .      : 
GL .      : 
TD .      : 
TDD.      : 
TDL.      : 
~Other -----------------------------------------------------
~ASCII -----------------------------------------------------
# ...
 13682.50000 13682.50000   39.32906   29.57543    0.20866    1.99449    4.20670  105.38262
 13683.00000 13683.00000   39.28098   28.25756    0.20554    2.02536    4.26696  105.50613
 13683.50000 13683.50000   41.08414   26.66844    0.19946    2.06065    4.31907  103.67688
 13684.00000 13684.00000   43.24091   25.33468    0.19188    2.08657    4.35388  101.24560
 13684.50000 13684.50000   44.30435   24.56609    0.18769    2.09838    4.37191   99.76241
 13685.00000 13685.00000   43.75568   23.91990    0.19126    2.09717    4.36133   99.80846
 13685.50000 13685.50000   42.91093   23.10964    0.20130    2.08660    4.31572  100.59692
 13686.00000 13686.00000   43.81875   22.30336    0.21116    2.07230    4.26086  101.24506
 13686.50000 13686.50000   46.31086   21.74829    0.21602    2.06282    4.23951  101.28719
 13687.00000 13687.00000   48.52842   21.02141    0.21665    2.06379    4.26056  101.11319
 13687.50000 13687.50000   49.97667   19.48678    0.21628    2.07288    4.29253  100.14541
 13688.00000 13688.00000   51.16589   17.95523    0.21231    2.08627    4.31375   98.78911
 13688.50000 13688.50000   51.06378   17.28330    0.20808    2.10076    4.31849   97.76224
 13689.00000 13689.00000   49.50256   17.24583    0.20868    2.10895    4.28902   97.79019
 13689.50000 13689.50000   48.93028   17.59058    0.20639    2.10380    4.23068   99.24075
 13690.00000 13690.00000   49.97350   18.27233    0.20384    2.08928    4.18729  100.88624
 13690.50000 13690.50000   50.40325   19.26151    0.21082    2.07375    4.18098  102.49078
 13691.00000 13691.00000   49.08138   20.44452    0.22423    2.05774    4.19296  103.66983
 13691.50000 13691.50000   46.98873   21.15064    0.23432    2.03661    4.19747  104.52362
 13692.00000 13692.00000   45.77816   21.25145    0.23608    2.01003    4.18952  105.04835
 13692.50000 13692.50000   45.88972   22.23397    0.23050    1.98596    4.17862  105.27852
 13693.00000 13693.00000   45.11770   24.60974    0.22174    1.97346    4.16951  105.08416
 13693.50000 13693.50000   42.80140   27.07936    0.21438    1.97118    4.16221  105.38112
 13694.00000 13694.00000   41.14628   28.65738    0.21174    1.96979    4.15627  104.90036
 13694.50000 13694.50000   40.36064   29.34954    0.21504    1.96471    4.14576  104.66275
 13695.00000 13695.00000   39.84041   29.47360    0.22162    1.95858    4.12821  104.91072
 13695.50000 13695.50000   40.93808   29.40039    0.22647    1.95471    4.11096  105.87407
 13696.00000 13696.00000   44.54043   29.68479    0.22750    1.95266    4.09556  106.70956
 13696.50000 13696.50000   49.36219   30.70771    0.22553    1.94800    4.07473  106.99381
 13697.00000 13697.00000   54.26677   31.97908    0.22310    1.93865    4.05069  106.88913
 13697.50000 13697.50000   58.83949   32.83075    0.22245    1.92720    4.03596  107.24639
 13698.00000 13698.00000   63.03974   33.21093    0.22123    1.91687    4.03590  108.11158
 13698.50000 13698.50000   67.41173   33.19721    0.21840    1.90899    4.04739  109.40828
 13699.00000 13699.00000   71.79066   32.69551    0.21553    1.90517    4.07063  111.78581
 13699.50000 13699.50000   75.01188   31.53180    0.21368    1.90593    4.10046  114.74387
 13700.00000 13700.00000   76.38933   29.85156    0.21466    1.90274    4.11248  118.96166
 13700.50000 13700.50000   74.67795   28.21944    0.22259    1.88321    4.09515  122.40065
 13701.00000 13701.00000   68.99265   26.61439    0.23934    1.85131    4.07189  125.56601
 13701.50000 13701.50000   62.78949   24.53243    0.25944    1.85000    4.06285  127.20785
 13702.00000 13702.00000   60.02528   22.27900    0.27500    1.85000    4.05252  125.95070
 13702.50000 13702.50000   59.41707   20.24771    0.27580    1.85000    3.99387  120.06093
 13703.00000 13703.00000   58.50637   18.03219    0.26443    1.85000    3.86802  111.31746
 13703.50000 13703.50000   59.76072   15.57604    0.24448    1.92338    3.76666   99.37653
 13704.00000 13704.00000   64.02929   13.34505    0.21297    2.03276    3.81423   90.26582
 13704.50000 13704.50000   63.89383   12.22218    0.18095    2.13504    3.99600   84.71596
 13705.00000 13705.00000   54.82986   12.76111    0.15890    2.21294    4.17949   83.25785
 13705.50000 13705.50000   41.74364   14.57280    0.15278    2.26206    4.26690   83.64733
 13706.00000 13706.00000   31.01606   16.95480    0.16160    2.27321    4.26262   85.48702
 13706.50000 13706.50000   25.45704   19.27127    0.17696    2.25395    4.23222   88.50937
 13707.00000 13707.00000   23.62238   21.27680    0.19368    2.22967    4.22829   92.14646
 13707.50000 13707.50000   22.96460   22.98504    0.20408    2.21952    4.26087   95.38767
 13708.00000 13708.00000   22.56153   24.08894    0.20366    2.22707    4.31011   95.57499
 13708.50000 13708.50000   22.55572   24.65254    0.19985    2.24415    4.35520   95.66732
 13709.00000 13709.00000   23.59188   25.81790    0.20370    2.25424    4.38979   96.14747
 13709.50000 13709.50000   25.47150   28.63745    0.21600    2.24015    4.40069   97.50952
 13710.00000 13710.00000   27.22339   32.81691    0.22530    2.20055    4.37711   99.44134
 13710.50000 13710.50000   27.92428   37.63486    0.22361    2.15452    4.33941  101.51477
 13711.00000 13711.00000   26.98294   43.70067    0.21644    2.12440    4.31694  102.73613
 13711.50000 13711.50000   25.27432   51.47649    0.20892    2.11337    4.32260  103.78389
 13712.00000 13712.00000   24.89017   59.65355    0.20176    2.10456    4.34903  105.05425
 13712.50000 13712.50000   26.59219   66.53118    0.19731    2.08326    4.36691  107.17966
 13713.00000 13713.00000   28.78473   70.56791    0.19603    2.05208    4.34382  109.03056
 13713.50000 13713.50000   29.40373   71.32786    0.19707    2.02276    4.28171  109.60519
 13714.00000 13714.00000   27.97234   70.52310    0.19917    2.00439    4.22037  108.23127
 13714.50000 13714.50000   26.16811   69.50606    0.20013    1.99751    4.19040  106.03056
 13715.00000 13715.00000   25.39085   67.50769    0.19738    1.99535    4.18977  104.19526
 13715.50000 13715.50000   25.24549   64.18485    0.19226    1.99450    4.20462  103.51509
 13716.00000 13716.00000   24.88557   59.61989    0.18990    1.99786    4.22213  104.61184
 13716.50000 13716.50000   23.82231   53.55915    0.19251    2.00604    4.23289  104.92412
 13717.00000 13717.00000   22.46086   47.11906    0.19931    2.01414    4.23675  104.98687
 13717.50000 13717.50000   21.49889   41.31007    0.20651    2.02006    4.24048  104.15008
 13718.00000 13718.00000   20.92976   35.90104    0.20985    2.02892    4.25160  101.92304
 13718.50000 13718.50000   20.64706   30.70814    0.20834    2.04659    4.27673   97.91593
 13719.00000 13719.00000   20.55487   26.03586    0.20316    2.07845    4.31489   94.88181
 13719.50000 13719.50000   20.35697   21.98690    0.19385    2.13386    4.35314   92.53677
 13720.00000 13720.00000   20.01237   18.39092    0.18110    2.20892    4.37875   89.74886
 13720.50000 13720.50000   19.83636   15.50155    0.16939    2.28310    4.39405   86.51942
 13721.00000 13721.00000   20.15121   13.39832    0.16243    2.34327    4.40450   82.83123
 13721.50000 13721.50000   21.21105   11.78287    0.16028    2.38167    4.39917   80.72192
 13722.00000 13722.00000   23.21391   10.60507    0.16155    2.39608    4.37254   79.42063
 13722.50000 13722.50000   25.38343    9.84098    0.16318    2.39663    4.34448   78.17448
 13723.00000 13723.00000   26.77058    9.32997    0.16228    2.39487    4.33074   77.58701
 13723.50000 13723.50000   27.46212    8.96988    0.16075    2.39535    4.32250   77.77177
 13724.00000 13724.00000   27.51078    8.71725    0.16150    2.39528    4.31196   78.58994
 13724.50000 13724.50000   26.81550    8.55779    0.16504    2.38888    4.31166   80.07073
 13725.00000 13725.00000   25.81104    8.51523    0.17200    2.37359    4.32882   82.00274
 13725.50000 13725.50000   25.19320    8.56700    0.18339    2.34938    4.34177   85.66194
 13726.00000 13726.00000   25.28674    8.67020    0.19852    2.31643    4.32525   90.30615
