~Version ---------------------------------------------------
VERS.   2.0 : CWLS log ASCII Standard -VERSION 2.0
WRAP.    NO : One line per depth step
DLM . SPACE : Column Data Section Delimiter
~Well ------------------------------------------------------
STRT  .m               13330.50000 : START DEPTH
STOP  .m               14166.50000 : STOP DEPTH
STEP  .m                   0.50000 : STEP
NULL  .                    -999.25 : NULL VALUE
COMP  .                            : COMPANY
WELL  .                       X3 : WELL
FLD   .                            : FIELD
LOC   .                            : LOCATION
PROV  .                            : PROVINCE
CNTY  .                            : COUNTY
STAT  .                            : STATE
CTRY  .                            : COUNTRY
SRVC  .                            : SERVICE COMPANY
DATE  . 2024-03-22 11:39:23.231881 : DATE
UWI   .                            : UNIQUE WELL ID
API   .                            : API NUMBER
LIC   .                            : 
LATI  .                            : 
LONG  .                            : 
NS    .                            : 
EW    .                            : 
XCOORD.                            : 
YCOORD.                            : 
GDAT  .                            : 
SECT  .                            : 
RANG  .                            : 
TOWN  .                            : 
~Curve Information -----------------------------------------
DEPT .m      : 
DEPTH.None   : None
GR   .GAPI   : None
RT   .ohm.m  : None
NPHI .v/v    : None
RHOB .g/cc   : None
PEF  .None   : None
DTC  .None   : None
~Params ----------------------------------------------------
EKB.      : 
EGL.      : 
KB .      : 
GL .      : 
TD .      : 
TDD.      : 
TDL.      : 
~Other -----------------------------------------------------
~ASCII -----------------------------------------------------
# ...
 13946.50000 13946.50000    3.32934    1.76789    0.37283    2.09760    3.98152  102.59877
 13947.00000 13947.00000    3.76009    1.73048    0.37206    2.09703    4.00112  102.63862
 13947.50000 13947.50000    4.60165    1.68752    0.37007    2.09677    4.02333  102.42492
 13948.00000 13948.00000    5.34002    1.64181    0.37130    2.09752    4.03045  101.85678
 13948.50000 13948.50000    5.76455    1.59480    0.37261    2.10034    4.01848  101.42497
 13949.00000 13949.00000    5.69270    1.54107    0.36762    2.10523    4.00863  100.98567
 13949.50000 13949.50000    5.21259    1.48564    0.35876    2.11281    4.02048  100.71539
 13950.00000 13950.00000    4.80207    1.44255    0.35340    2.12143    4.04078  100.29712
 13950.50000 13950.50000    4.65266    1.41772    0.35240    2.12762    4.04793   99.82254
 13951.00000 13951.00000    4.78867    1.40934    0.35206    2.13109    4.04436   99.07818
 13951.50000 13951.50000    5.36223    1.41268    0.34966    2.13357    4.04513   98.15265
 13952.00000 13952.00000    6.04806    1.41868    0.34521    2.13761    4.05836   96.90606
 13952.50000 13952.50000    6.28475    1.41948    0.34081    2.14548    4.07949   95.33869
 13953.00000 13953.00000    5.97819    1.41848    0.33830    2.15645    4.09561   94.16019
 13953.50000 13953.50000    5.51907    1.41440    0.33819    2.16532    4.10286   93.34581
 13954.00000 13954.00000    5.01484    1.40227    0.34076    2.16880    4.10598   92.69171
 13954.50000 13954.50000    4.38208    1.38977    0.34459    2.16753    4.09882   92.72818
 13955.00000 13955.00000    3.79106    1.38079    0.34810    2.16231    4.07286   93.47436
 13955.50000 13955.50000    3.29854    1.36930    0.35167    2.15367    4.04091   94.83991
 13956.00000 13956.00000    3.10922    1.36031    0.35447    2.14362    4.02414   96.09191
 13956.50000 13956.50000    3.25996    1.37007    0.35336    2.13558    4.03070   96.83667
 13957.00000 13957.00000    3.37312    1.40398    0.34761    2.13244    4.05474   97.61444
 13957.50000 13957.50000    3.45974    1.44998    0.34202    2.13583    4.08116   98.18022
 13958.00000 13958.00000    3.50440    1.49286    0.34182    2.14256    4.09572   98.66650
 13958.50000 13958.50000    3.40026    1.52639    0.34600    2.14509    4.09286   98.99360
 13959.00000 13959.00000    3.39680    1.55295    0.34863    2.14054    4.07867   99.14297
 13959.50000 13959.50000    3.38235    1.57845    0.34609    2.13522    4.06825   99.10993
 13960.00000 13960.00000    3.33604    1.59985    0.34275    2.13527    4.07044   99.08143
 13960.50000 13960.50000    3.43312    1.60871    0.34451    2.13768    4.07726   98.98065
 13961.00000 13961.00000    3.47420    1.60708    0.34985    2.13793    4.07350   98.78530
 13961.50000 13961.50000    3.47479    1.60738    0.35026    2.13749    4.06370   98.27850
 13962.00000 13962.00000    3.52102    1.61544    0.34090    2.14066    4.07150   97.25740
 13962.50000 13962.50000    3.45839    1.62155    0.32446    2.14898    4.10108   95.69670
 13963.00000 13963.00000    3.32822    1.62179    0.30718    2.16231    4.13457   93.63116
 13963.50000 13963.50000    3.21147    1.62546    0.29548    2.18074    4.16177   91.12704
 13964.00000 13964.00000    3.15999    1.63140    0.29237    2.20112    4.17708   88.73388
 13964.50000 13964.50000    3.30918    1.62751    0.29522    2.21614    4.17555   87.53463
 13965.00000 13965.00000    3.62723    1.61348    0.29758    2.22056    4.16477   87.09217
 13965.50000 13965.50000    3.94215    1.60195    0.29590    2.21569    4.16078   87.15951
 13966.00000 13966.00000    4.10598    1.59965    0.29285    2.20926    4.17154   87.44319
 13966.50000 13966.50000    4.13365    1.60235    0.29299    2.20735    4.18634   87.66583
 13967.00000 13967.00000    4.15512    1.60438    0.29495    2.20880    4.18323   87.45743
 13967.50000 13967.50000    4.29855    1.60182    0.29458    2.21005    4.15770   87.28075
 13968.00000 13968.00000    4.51434    1.59223    0.29037    2.21236    4.13672   87.09095
 13968.50000 13968.50000    4.64327    1.57914    0.28411    2.21960    4.14639   87.03520
 13969.00000 13969.00000    4.64125    1.56884    0.28117    2.23105    4.17932   86.98670
 13969.50000 13969.50000    4.63238    1.56335    0.28510    2.23731    4.20396   87.26849
 13970.00000 13970.00000    4.83832    1.56232    0.29522    2.22607    4.18843   88.30267
 13970.50000 13970.50000    5.33692    1.56325    0.30877    2.20040    4.13028   89.92844
 13971.00000 13971.00000    5.88715    1.56158    0.32415    2.17653    4.06595   91.96487
 13971.50000 13971.50000    6.44599    1.55552    0.33891    2.15866    4.03601   93.96372
 13972.00000 13972.00000    7.24300    1.54667    0.34685    2.14384    4.04438   95.73520
 13972.50000 13972.50000    7.90443    1.53826    0.34561    2.13483    4.06426   96.94280
 13973.00000 13973.00000    7.99093    1.53514    0.33991    2.13459    4.08299   97.93694
 13973.50000 13973.50000    7.69688    1.54371    0.33582    2.14178    4.09919   98.36865
 13974.00000 13974.00000    7.51362    1.56577    0.33483    2.15233    4.10210   98.36218
 13974.50000 13974.50000    7.46021    1.59782    0.33388    2.16219    4.09369   97.72993
 13975.00000 13975.00000    7.06544    1.63726    0.32956    2.16983    4.08885   96.57958
 13975.50000 13975.50000    6.40190    1.68325    0.32192    2.17738    4.09051   95.22973
 13976.00000 13976.00000    5.92666    1.72911    0.31332    2.18620    4.09863   94.19658
 13976.50000 13976.50000    5.94192    1.76233    0.30621    2.19478    4.12290   93.24384
 13977.00000 13977.00000    6.27000    1.78158    0.30227    2.20132    4.15748   92.47783
 13977.50000 13977.50000    6.42607    1.79345    0.30289    2.20503    4.17111   92.07215
 13978.00000 13978.00000    6.63141    1.79445    0.30752    2.20553    4.15076   92.06351
 13978.50000 13978.50000    7.45634    1.78432    0.31081    2.20488    4.12442   91.74096
 13979.00000 13979.00000    8.55174    1.77819    0.30762    2.20669    4.12017   90.83444
 13979.50000 13979.50000    9.22406    1.78749    0.29551    2.21317    4.13775   89.13404
 13980.00000 13980.00000    9.82814    1.80746    0.27591    2.22686    4.16694   87.38367
 13980.50000 13980.50000   10.84271    1.82308    0.25836    2.24756    4.19487   86.20494
 13981.00000 13981.00000   11.98024    1.81799    0.25341    2.26698    4.20646   85.29591
 13981.50000 13981.50000   13.31464    1.78361    0.26190    2.27489    4.20041   84.99356
 13982.00000 13982.00000   14.71691    1.72338    0.27716    2.26729    4.18034   85.32452
 13982.50000 13982.50000   15.98880    1.64547    0.29431    2.24783    4.14270   86.27405
 13983.00000 13983.00000   18.07668    1.55495    0.31201    2.22345    4.08737   87.81018
 13983.50000 13983.50000   21.34484    1.45850    0.32787    2.19844    4.03022   89.85010
 13984.00000 13984.00000   24.99615    1.37810    0.33864    2.17574    3.99802   91.61516
 13984.50000 13984.50000   28.53812    1.33246    0.34404    2.15889    4.00084   93.37212
 13985.00000 13985.00000   31.65416    1.31824    0.34500    2.14991    4.01945   95.30203
 13985.50000 13985.50000   33.71230    1.32563    0.34395    2.14765    4.03358   96.73729
 13986.00000 13986.00000   34.79710    1.34582    0.34341    2.14875    4.04290   97.53514
 13986.50000 13986.50000   35.59165    1.37171    0.34086    2.15127    4.05582   97.56665
 13987.00000 13987.00000   36.21204    1.40260    0.33399    2.15685    4.07366   97.38534
 13987.50000 13987.50000   36.27439    1.44043    0.32761    2.16787    4.08935   96.60971
 13988.00000 13988.00000   35.82720    1.48650    0.32546    2.18173    4.09781   95.17094
 13988.50000 13988.50000   35.72700    1.53529    0.32339    2.19401    4.10306   93.72322
 13989.00000 13989.00000   36.74044    1.58032    0.31776    2.20388    4.10999   92.60110
 13989.50000 13989.50000   38.12873    1.61890    0.31114    2.21136    4.11286   91.72380
 13990.00000 13990.00000   38.45600    1.64116    0.30588    2.21416    4.11133   91.26198
