~Version ---------------------------------------------------
VERS.   2.0 : CWLS log ASCII Standard -VERSION 2.0
WRAP.    NO : One line per depth step
DLM . SPACE : Column Data Section Delimiter
~Well ------------------------------------------------------
STRT  .m               13330.50000 : START DEPTH
STOP  .m               14166.50000 : STOP DEPTH
STEP  .m                   0.50000 : STEP
NULL  .                    -999.25 : NULL VALUE
COMP  .                            : COMPANY
WELL  .                       X3 : WELL
FLD   .                            : FIELD
LOC   .                            : LOCATION
PROV  .                            : PROVINCE
CNTY  .                            : COUNTY
STAT  .                            : STATE
CTRY  .                            : COUNTRY
SRVC  .                            : SERVICE COMPANY
DATE  . 2024-03-22 11:39:23.231881 : DATE
UWI   .                            : UNIQUE WELL ID
API   .                            : API NUMBER
LIC   .                            : 
LATI  .                            : 
LONG  .                            : 
NS    .                            : 
EW    .                            : 
XCOORD.                            : 
YCOORD.                            : 
GDAT  .                            : 
SECT  .                            : 
RANG  .                            : 
TOWN  .                            : 
~Curve Information -----------------------------------------
DEPT .m      : 
DEPTH.None   : None
GR   .GAPI   : None
RT   .ohm.m  : None
NPHI .v/v    : None
RHOB .g/cc   : None
PEF  .None   : None
DTC  .None   : None
~Params ----------------------------------------------------
EKB.      : 
EGL.      : 
KB .      : 
GL .      : 
TD .      : 
TDD.      : 
TDL.      : 
~Other -----------------------------------------------------
~ASCII -----------------------------------------------------
# ...
 14034.50000 14034.50000   19.77125    1.51931    0.34885    2.14839    4.05041    -999.25
 14035.00000 14035.00000   22.19984    1.53664    0.34693    2.13936    4.03285    -999.25
 14035.50000 14035.50000   27.69479    1.59777    0.34189    2.13685    4.02340    -999.25
 14036.00000 14036.00000   33.70093    1.68860    0.33103    2.13896    4.03780    -999.25
 14036.50000 14036.50000   36.46053    1.78825    0.31774    2.14891    4.07538    -999.25
 14037.00000 14037.00000   35.90979    1.86366    0.31002    2.16893    4.12209    -999.25
 14037.50000 14037.50000   35.23844    1.87398    0.31165    2.19242    4.16435    -999.25
 14038.00000 14038.00000   36.09376    1.81218    0.32169    2.20765    4.18230    -999.25
 14038.50000 14038.50000   37.73059    1.70278    0.33511    2.20626    4.16288    -999.25
 14039.00000 14039.00000   38.75362    1.59317    0.34276    2.18979    4.12578    -999.25
 14039.50000 14039.50000   38.71507    1.52648    0.33952    2.17112    4.09983    -999.25
 14040.00000 14040.00000   37.74721    1.49957    0.33024    2.16274    4.08874    -999.25
 14040.50000 14040.50000   35.54472    1.49274    0.32162    2.16676    4.08522    -999.25
 14041.00000 14041.00000   33.27020    1.49999    0.31310    2.17842    4.09320    -999.25
 14041.50000 14041.50000   32.83987    1.52386    0.30317    2.19309    4.12303    -999.25
 14042.00000 14042.00000   33.72804    1.55812    0.29508    2.20885    4.16923    -999.25
 14042.50000 14042.50000   33.03064    1.57729    0.29354    2.22189    4.19971    -999.25
 14043.00000 14043.00000   28.89192    1.56191    0.30053    2.22502    4.18485    -999.25
 14043.50000 14043.50000   23.65048    1.51955    0.31068    2.21605    4.13915    -999.25
 14044.00000 14044.00000   20.28452    1.47282    0.31627    2.20003    4.10740    -999.25
 14044.50000 14044.50000   18.48947    1.44155    0.31790    2.18362    4.10877    -999.25
 14045.00000 14045.00000   17.05746    1.43177    0.31972    2.17174    4.12582    -999.25
 14045.50000 14045.50000   15.68126    1.43894    0.32150    2.16672    4.14077    -999.25
 14046.00000 14046.00000   14.17122    1.45441    0.32329    2.16881    4.14145    -999.25
 14046.50000 14046.50000   12.72305    1.45794    0.32911    2.17383    4.11247    -999.25
 14047.00000 14047.00000   11.71526    1.43558    0.34080    2.17178    4.06484    -999.25
 14047.50000 14047.50000   11.06946    1.40738    0.35249    2.15766    4.03520    -999.25
 14048.00000 14048.00000   10.83947    1.39614    0.35502    2.14019    4.03338    -999.25
 14048.50000 14048.50000   11.02547    1.39765    0.34566    2.13078    4.04130    -999.25
 14049.00000 14049.00000   11.33501    1.39895    0.33103    2.13311    4.05706    -999.25
 14049.50000 14049.50000   11.49659    1.39593    0.32008    2.14566    4.09143    -999.25
 14050.00000 14050.00000   11.49030    1.39207    0.31685    2.16372    4.13638    -999.25
 14050.50000 14050.50000   11.54587    1.39361    0.31962    2.17958    4.16885    -999.25
 14051.00000 14051.00000   12.02256    1.40506    0.32640    2.18601    4.17728    -999.25
 14051.50000 14051.50000   12.93811    1.42153    0.33640    2.18304    4.17310    -999.25
 14052.00000 14052.00000   13.73296    1.43092    0.34469    2.17701    4.16913    -999.25
 14052.50000 14052.50000   14.48319    1.43321    0.34623    2.17286    4.16240    -999.25
 14053.00000 14053.00000   15.42588    1.43742    0.34423    2.17182    4.15067    -999.25
 14053.50000 14053.50000   16.66948    1.43999    0.34358    2.17223    4.13598    -999.25
 14054.00000 14054.00000   18.58520    1.43235    0.34442    2.17039    4.11541    -999.25
 14054.50000 14054.50000   20.47768    1.41655    0.34338    2.16390    4.08306    -999.25
 14055.00000 14055.00000   21.58210    1.40152    0.33978    2.15556    4.04236    -999.25
 14055.50000 14055.50000   22.08609    1.39042    0.33752    2.15087    4.01612    -999.25
 14056.00000 14056.00000   22.44195    1.37948    0.34046    2.15097    4.02088    -999.25
 14056.50000 14056.50000   22.61639    1.36660    0.34901    2.15238    4.04147    -999.25
 14057.00000 14057.00000   22.22278    1.35310    0.35897    2.15263    4.05196    -999.25
 14057.50000 14057.50000   21.33418    1.34658    0.36278    2.15135    4.04155    -999.25
 14058.00000 14058.00000   20.33348    1.35960    0.35528    2.14888    4.01613    -999.25
 14058.50000 14058.50000   19.51151    1.40013    0.34081    2.14861    3.99450    -999.25
 14059.00000 14059.00000   19.27968    1.45886    0.32665    2.15430    3.99986    -999.25
 14059.50000 14059.50000   19.55294    1.51727    0.31666    2.16430    4.03119    -999.25
 14060.00000 14060.00000   19.75199    1.56575    0.31280    2.17333    4.05500    -999.25
 14060.50000 14060.50000   19.45815    1.59805    0.31548    2.18003    4.05434    -999.25
 14061.00000 14061.00000   18.50259    1.60884    0.32227    2.18631    4.04895    -999.25
 14061.50000 14061.50000   17.78480    1.60334    0.32692    2.18914    4.05146    -999.25
 14062.00000 14062.00000   18.13545    1.59886    0.32513    2.18434    4.05703    -999.25
 14062.50000 14062.50000   19.48700    1.61239    0.32035    2.17544    4.06990    -999.25
 14063.00000 14063.00000   21.12223    1.64045    0.31849    2.16960    4.09114    -999.25
 14063.50000 14063.50000   22.63360    1.66257    0.32100    2.16992    4.10110    -999.25
 14064.00000 14064.00000   24.67536    1.66075    0.32375    2.17501    4.08685    -999.25
 14064.50000 14064.50000   26.95769    1.63034    0.32154    2.18062    4.06627    -999.25
 14065.00000 14065.00000   27.94552    1.58755    0.31608    2.18399    4.05826    -999.25
 14065.50000 14065.50000   27.45809    1.55123    0.31257    2.18553    4.05550    -999.25
 14066.00000 14066.00000   26.60811    1.52344    0.31384    2.18642    4.05470    -999.25
 14066.50000 14066.50000   25.49441    1.50209    0.31976    2.18767    4.07069    -999.25
 14067.00000 14067.00000   23.16198    1.48235    0.32682    2.18816    4.09807    -999.25
 14067.50000 14067.50000   19.53568    1.46013    0.33171    2.18541    4.10378    -999.25
 14068.00000 14068.00000   16.52559    1.44338    0.33716    2.17827    4.06963    -999.25
 14068.50000 14068.50000   15.30291    1.43840    0.34584    2.16748    4.01757    -999.25
 14069.00000 14069.00000   14.74633    1.43850    0.35366    2.15437    3.98829    -999.25
 14069.50000 14069.50000   14.28227    1.43541    0.35744    2.14244    3.99830    -999.25
 14070.00000 14070.00000   14.14697    1.42814    0.36116    2.13491    4.02286    -999.25
 14070.50000 14070.50000   13.87990    1.41667    0.36742    2.12989    4.02906    -999.25
 14071.00000 14071.00000   13.29700    1.40626    0.37232    2.12319    4.01356    -999.25
 14071.50000 14071.50000   12.69346    1.41363    0.36935    2.11769    3.99784    -999.25
 14072.00000 14072.00000   11.97805    1.43691    0.35636    2.12284    3.99081    -999.25
 14072.50000 14072.50000   11.36248    1.44986    0.34057    2.13919    3.98351    -999.25
 14073.00000 14073.00000   11.27335    1.44228    0.33156    2.15397    3.98207    -999.25
 14073.50000 14073.50000   11.78092    1.42466    0.32942    2.15867    4.00270    -999.25
 14074.00000 14074.00000   12.79997    1.40661    0.32985    2.15785    4.03477    -999.25
 14074.50000 14074.50000   13.83433    1.39282    0.33209    2.15705    4.04720    -999.25
 14075.00000 14075.00000   14.52593    1.38436    0.33472    2.15667    4.03741    -999.25
 14075.50000 14075.50000   15.02877    1.37687    0.33583    2.15590    4.03564    -999.25
 14076.00000 14076.00000   15.24856    1.36582    0.33575    2.15532    4.05196    -999.25
 14076.50000 14076.50000   15.13524    1.35548    0.33384    2.15483    4.06985    -999.25
 14077.00000 14077.00000   15.21505    1.35446    0.32959    2.15460    4.07907    -999.25
 14077.50000 14077.50000   15.63945    1.36522    0.32332    2.15547    4.08266    -999.25
 14078.00000 14078.00000   15.52156    1.38341    0.31614    2.15817    4.08830    -999.25
