~Version ---------------------------------------------------
VERS.   2.0 : CWLS log ASCII Standard -VERSION 2.0
WRAP.    NO : One line per depth step
DLM . SPACE : Column Data Section Delimiter
~Well ------------------------------------------------------
STRT  .m               13330.50000 : START DEPTH
STOP  .m               14166.50000 : STOP DEPTH
STEP  .m                   0.50000 : STEP
NULL  .                    -999.25 : NULL VALUE
COMP  .                            : COMPANY
WELL  .                       X3 : WELL
FLD   .                            : FIELD
LOC   .                            : LOCATION
PROV  .                            : PROVINCE
CNTY  .                            : COUNTY
STAT  .                            : STATE
CTRY  .                            : COUNTRY
SRVC  .                            : SERVICE COMPANY
DATE  . 2024-03-22 11:39:23.231881 : DATE
UWI   .                            : UNIQUE WELL ID
API   .                            : API NUMBER
LIC   .                            : 
LATI  .                            : 
LONG  .                            : 
NS    .                            : 
EW    .                            : 
XCOORD.                            : 
YCOORD.                            : 
GDAT  .                            : 
SECT  .                            : 
RANG  .                            : 
TOWN  .                            : 
~Curve Information -----------------------------------------
DEPT .m      : 
DEPTH.None   : None
GR   .GAPI   : None
RT   .ohm.m  : None
NPHI .v/v    : None
RHOB .g/cc   : None
PEF  .None   : None
DTC  .None   : None
~Params ----------------------------------------------------
EKB.      : 
EGL.      : 
KB .      : 
GL .      : 
TD .      : 
TDD.      : 
TDL.      : 
~Other -----------------------------------------------------
~ASCII -----------------------------------------------------
# ...
 13726.50000 13726.50000   25.87930    8.87608    0.21537    2.27681    4.28893   95.94839
 13727.00000 13727.00000   26.63361    9.19524    0.23227    2.23491    4.26940  100.38491
 13727.50000 13727.50000   27.26589    9.64809    0.24743    2.19540    4.28482  103.71915
 13728.00000 13728.00000   28.21174   10.31922    0.25799    2.16121    4.31101  105.52416
 13728.50000 13728.50000   30.26772   11.19431    0.26285    2.13208    4.31459  107.03482
 13729.00000 13729.00000   33.12778   12.49861    0.26132    2.10610    4.29687  108.60659
 13729.50000 13729.50000   35.45985   14.46961    0.25340    2.08200    4.27672  110.02947
 13730.00000 13730.00000   35.68017   16.54859    0.24484    2.06011    4.25418  111.16688
 13730.50000 13730.50000   33.87035   18.04980    0.24184    2.04275    4.23078  111.89785
 13731.00000 13731.00000   31.99372   19.17153    0.24285    2.03092    4.22147  112.42275
 13731.50000 13731.50000   31.04943   20.43339    0.24084    2.02065    4.22534  112.84796
 13732.00000 13732.00000   30.59297   22.00112    0.23331    2.00942    4.22708  112.74065
 13732.50000 13732.50000   30.11273   23.50417    0.22747    2.00200    4.22312  111.63755
 13733.00000 13733.00000   29.33019   24.24744    0.23314    2.00686    4.23085  109.97974
 13733.50000 13733.50000   28.29561   23.87086    0.24979    2.02416    4.25865  108.36045
 13734.00000 13734.00000   27.43893   22.87108    0.26255    2.04103    4.28165  108.69005
 13734.50000 13734.50000   27.27855   22.35820    0.26089    2.04599    4.27324  110.38872
 13735.00000 13735.00000   27.79527   22.96499    0.25286    2.03759    4.23878  112.22509
 13735.50000 13735.50000   28.62992   24.09041    0.24743    2.01986    4.20383  113.08939
 13736.00000 13736.00000   29.51860   24.55778    0.24684    2.00115    4.18909  113.32752
 13736.50000 13736.50000   30.09648   24.02923    0.25102    1.98979    4.19639  113.40560
 13737.00000 13737.00000   30.48077   23.15273    0.25278    1.98610    4.20938  113.30862
 13737.50000 13737.50000   31.00277   22.53794    0.24724    1.98527    4.21693  113.42611
 13738.00000 13738.00000   30.95749   22.11805    0.23911    1.98813    4.22951  114.24098
 13738.50000 13738.50000   29.54010   21.38700    0.23480    2.00267    4.25254  115.55917
 13739.00000 13739.00000   28.04400   20.18389    0.23611    2.02952    4.26886  116.09183
 13739.50000 13739.50000   28.14406   19.02095    0.24143    2.05485    4.27524  114.83131
 13740.00000 13740.00000   28.09231   18.25159    0.24981    2.06400    4.29505  113.65776
 13740.50000 13740.50000   25.64117   17.42067    0.26023    2.06175    4.33435  112.84074
 13741.00000 13741.00000   22.65196   16.09778    0.26728    2.06505    4.36394  111.96679
 13741.50000 13741.50000   21.43229   14.54175    0.26663    2.07770    4.36391  111.10143
 13742.00000 13742.00000   21.32900   13.22358    0.26356    2.09223    4.34291  110.38144
 13742.50000 13742.50000   21.45923   12.38261    0.26210    2.10401    4.31231  109.93994
 13743.00000 13743.00000   22.47244   11.98813    0.26023    2.10980    4.28701  110.59846
 13743.50000 13743.50000   24.67105   11.91644    0.25756    2.10714    4.28351  110.97462
 13744.00000 13744.00000   26.88842   11.97933    0.25263    2.09593    4.29315  111.68154
 13744.50000 13744.50000   28.04805   11.82922    0.24924    2.07749    4.29096  112.47192
 13745.00000 13745.00000   27.62713   11.27929    0.25290    2.05655    4.27282  113.56527
 13745.50000 13745.50000   25.75899   10.53307    0.26193    2.04388    4.25149  114.37569
 13746.00000 13746.00000   23.87758    9.87167    0.27123    2.04541    4.23032  114.66284
 13746.50000 13746.50000   23.29461    9.41026    0.27797    2.05530    4.21402  113.36611
 13747.00000 13747.00000   23.73930    9.04129    0.28142    2.06707    4.21807  111.77379
 13747.50000 13747.50000   24.65083    8.53878    0.28195    2.08245    4.24707  109.57852
 13748.00000 13748.00000   25.72219    7.78608    0.28162    2.10514    4.28659  107.44706
 13748.50000 13748.50000   26.26218    6.99072    0.28066    2.13243    4.31566  105.25194
 13749.00000 13749.00000   26.11033    6.45883    0.27726    2.15726    4.32371  103.48570
 13749.50000 13749.50000   26.09879    6.17293    0.27284    2.17654    4.31605  101.82504
 13750.00000 13750.00000   27.16361    5.93166    0.26799    2.19153    4.30851   99.86480
 13750.50000 13750.50000   28.51271    5.69547    0.26179    2.20243    4.31969   98.00554
 13751.00000 13751.00000   28.49638    5.51019    0.25865    2.21048    4.35349   96.57614
 13751.50000 13751.50000   27.58621    5.32984    0.26065    2.21945    4.38108   95.69182
 13752.00000 13752.00000   26.96277    5.13476    0.26220    2.22815    4.37785   95.83225
 13752.50000 13752.50000   26.32518    4.97869    0.26436    2.22984    4.36598   96.75978
 13753.00000 13753.00000   25.70022    4.90122    0.26731    2.22346    4.37783   98.40288
 13753.50000 13753.50000   26.03531    4.92104    0.26486    2.21820    4.41034   99.66005
 13754.00000 13754.00000   27.60120    5.04137    0.25851    2.22138    4.43728   99.95710
 13754.50000 13754.50000   30.01992    5.21819    0.25122    2.22760    4.44305   99.31108
 13755.00000 13755.00000   32.63262    5.37343    0.24296    2.22967    4.43343   98.86314
 13755.50000 13755.50000   34.63080    5.44341    0.23479    2.23118    4.42310   98.33493
 13756.00000 13756.00000   34.85899    5.42658    0.22956    2.23910    4.41985   97.48880
 13756.50000 13756.50000   32.93811    5.41189    0.22833    2.25150    4.41763   95.08945
 13757.00000 13757.00000   30.13747    5.46550    0.22729    2.26342    4.41340   93.17882
 13757.50000 13757.50000   27.61204    5.55433    0.22249    2.27602    4.42033   91.34197
 13758.00000 13758.00000   25.93776    5.62112    0.21484    2.29154    4.44494   89.99445
 13758.50000 13758.50000   25.15017    5.66661    0.20870    2.30533    4.47386   88.89557
 13759.00000 13759.00000   25.18473    5.72137    0.20724    2.31103    4.49130   89.24936
 13759.50000 13759.50000   26.03304    5.75595    0.21101    2.30774    4.48892   89.80678
 13760.00000 13760.00000   27.09442    5.76765    0.21776    2.29882    4.46211   89.93367
 13760.50000 13760.50000   28.37757    5.79014    0.22513    2.28919    4.41660   89.79641
 13761.00000 13761.00000   29.47884    5.80613    0.23132    2.28147    4.37296   89.79556
 13761.50000 13761.50000   29.16211    5.84566    0.23358    2.27434    4.34922   89.94915
 13762.00000 13762.00000   26.84494    5.98666    0.22849    2.26912    4.34361   90.32107
 13762.50000 13762.50000   22.44106    6.26108    0.22323    2.27029    4.35175   90.24917
 13763.00000 13763.00000   17.61090    6.69457    0.22047    2.27708    4.38175   89.72277
 13763.50000 13763.50000   14.62899    7.26769    0.21147    2.28533    4.41728   89.00271
 13764.00000 13764.00000   13.90665    7.80910    0.20079    2.29390    4.41682   87.80644
 13764.50000 13764.50000   14.87058    8.16094    0.19431    2.30253    4.38435   86.66362
 13765.00000 13765.00000   16.79423    8.33015    0.18839    2.30927    4.36669   85.78823
 13765.50000 13765.50000   18.71657    8.35854    0.18281    2.31326    4.37551   85.23410
 13766.00000 13766.00000   20.43440    8.23601    0.18030    2.31749    4.38473   85.06360
 13766.50000 13766.50000   21.97474    7.98293    0.18376    2.32264    4.38251   85.36616
 13767.00000 13767.00000   22.38216    7.68642    0.19213    2.32197    4.37729   86.02907
 13767.50000 13767.50000   21.39203    7.40069    0.19809    2.30988    4.37139   86.93290
 13768.00000 13768.00000   20.29056    7.12551    0.20067    2.29235    4.35968   87.50562
 13768.50000 13768.50000   20.23612    6.81878    0.20497    2.27728    4.34811   87.16464
 13769.00000 13769.00000   20.84560    6.44825    0.20978    2.26249    4.34520   85.89781
 13769.50000 13769.50000   20.73810    6.11266    0.20775    2.24766    4.34502   83.77371
 13770.00000 13770.00000   19.70765    5.91308    0.19503    2.24663    4.34677   81.11962
