~Version ---------------------------------------------------
VERS.   2.0 : CWLS log ASCII Standard -VERSION 2.0
WRAP.    NO : One line per depth step
DLM . SPACE : Column Data Section Delimiter
~Well ------------------------------------------------------
STRT  .m               13330.50000 : START DEPTH
STOP  .m               14166.50000 : STOP DEPTH
STEP  .m                   0.50000 : STEP
NULL  .                    -999.25 : NULL VALUE
COMP  .                            : COMPANY
WELL  .                       X3 : WELL
FLD   .                            : FIELD
LOC   .                            : LOCATION
PROV  .                            : PROVINCE
CNTY  .                            : COUNTY
STAT  .                            : STATE
CTRY  .                            : COUNTRY
SRVC  .                            : SERVICE COMPANY
DATE  . 2024-03-22 11:39:23.231881 : DATE
UWI   .                            : UNIQUE WELL ID
API   .                            : API NUMBER
LIC   .                            : 
LATI  .                            : 
LONG  .                            : 
NS    .                            : 
EW    .                            : 
XCOORD.                            : 
YCOORD.                            : 
GDAT  .                            : 
SECT  .                            : 
RANG  .                            : 
TOWN  .                            : 
~Curve Information -----------------------------------------
DEPT .m      : 
DEPTH.None   : None
GR   .GAPI   : None
RT   .ohm.m  : None
NPHI .v/v    : None
RHOB .g/cc   : None
PEF  .None   : None
DTC  .None   : None
~Params ----------------------------------------------------
EKB.      : 
EGL.      : 
KB .      : 
GL .      : 
TD .      : 
TDD.      : 
TDL.      : 
~Other -----------------------------------------------------
~ASCII -----------------------------------------------------
# ...
 13770.50000 13770.50000   19.02338    5.81194    0.17676    2.27221    4.36754   78.27013
 13771.00000 13771.00000   19.18032    5.74307    0.15923    2.31837    4.41531   75.42869
 13771.50000 13771.50000   19.44980    5.65562    0.14554    2.36786    4.47585   72.35433
 13772.00000 13772.00000   19.48072    5.49309    0.13823    2.41071    4.52304   70.45608
 13772.50000 13772.50000   19.80419    5.24438    0.13933    2.43878    4.53404   70.41199
 13773.00000 13773.00000   21.19192    4.92170    0.14858    2.44308    4.51502   71.35193
 13773.50000 13773.50000   22.86046    4.60474    0.16138    2.43008    4.49375   72.89199
 13774.00000 13774.00000   23.50961    4.34442    0.17286    2.41172    4.48184   74.27215
 13774.50000 13774.50000   24.05630    4.09884    0.18211    2.39218    4.46981   75.32072
 13775.00000 13775.00000   25.08214    3.88888    0.18728    2.37687    4.44849   75.93128
 13775.50000 13775.50000   25.77326    3.74323    0.18810    2.37040    4.41952   76.52508
 13776.00000 13776.00000   26.06253    3.64512    0.18775    2.37184    4.39841   77.58307
 13776.50000 13776.50000   26.21581    3.57314    0.18984    2.37695    4.39848   79.65463
 13777.00000 13777.00000   26.21030    3.51885    0.19996    2.37712    4.40736   82.99040
 13777.50000 13777.50000   25.40653    3.48070    0.22192    2.36052    4.39588   86.99346
 13778.00000 13778.00000   23.93853    3.44261    0.25042    2.31999    4.35184   90.87288
 13778.50000 13778.50000   24.12658    3.39898    0.27688    2.26490    4.29104   94.01607
 13779.00000 13779.00000   26.34165    3.35592    0.29663    2.21806    4.23360   96.47473
 13779.50000 13779.50000   27.69958    3.30410    0.30749    2.19294    4.18799   97.93808
 13780.00000 13780.00000   27.43140    3.23968    0.31189    2.18428    4.15806   98.34661
 13780.50000 13780.50000   27.91232    3.17611    0.31499    2.18185    4.14530   98.05853
 13781.00000 13781.00000   30.33673    3.12283    0.31897    2.17939    4.14950   97.44476
 13781.50000 13781.50000   33.64149    3.08819    0.32192    2.17519    4.16434   97.35577
 13782.00000 13782.00000   36.62708    3.06629    0.32230    2.17145    4.16769   96.84172
 13782.50000 13782.50000   39.10703    3.04228    0.32078    2.17052    4.14193   96.13180
 13783.00000 13783.00000   41.73719    3.01871    0.31704    2.17306    4.10454   94.87656
 13783.50000 13783.50000   44.74318    3.00057    0.30962    2.17960    4.09102   93.09914
 13784.00000 13784.00000   46.74440    2.98902    0.29907    2.19141    4.11483   90.82268
 13784.50000 13784.50000   46.96345    2.99496    0.28486    2.20960    4.16764   87.99255
 13785.00000 13785.00000   46.95219    3.03704    0.26579    2.23255    4.23574   84.80810
 13785.50000 13785.50000   47.85280    3.11831    0.24499    2.25785    4.29627   81.67083
 13786.00000 13786.00000   48.58739    3.21828    0.22464    2.28674    4.33057   78.80884
 13786.50000 13786.50000   48.27689    3.32220    0.20441    2.31787    4.34811   76.45299
 13787.00000 13787.00000   47.74165    3.43712    0.18710    2.34475    4.37224   74.48181
 13787.50000 13787.50000   46.60180    3.56628    0.17656    2.36661    4.40173   72.90894
 13788.00000 13788.00000   43.82355    3.68518    0.17369    2.38549    4.42115   71.72124
 13788.50000 13788.50000   40.85679    3.76443    0.17547    2.39871    4.43332   71.46307
 13789.00000 13789.00000   39.04271    3.80425    0.17730    2.40254    4.44758   71.77393
 13789.50000 13789.50000   38.78577    3.81457    0.17686    2.39801    4.45420   72.03967
 13790.00000 13790.00000   40.35438    3.79789    0.17396    2.39101    4.43878   71.90844
 13790.50000 13790.50000   42.84175    3.76901    0.16933    2.38896    4.41469   71.22299
 13791.00000 13791.00000   45.23524    3.75201    0.16358    2.39517    4.40733   69.99096
 13791.50000 13791.50000   46.96782    3.76262    0.15856    2.40749    4.41345   68.42443
 13792.00000 13792.00000   47.52821    3.80729    0.15665    2.42294    4.41756   67.62669
 13792.50000 13792.50000   46.05608    3.87667    0.15862    2.43744    4.42810   67.21666
 13793.00000 13793.00000   41.72805    3.92976    0.16287    2.44376    4.44840   67.22235
 13793.50000 13793.50000   36.00378    3.92804    0.16669    2.43742    4.45310   67.93082
 13794.00000 13794.00000   32.63711    3.87441    0.16934    2.42527    4.43873   68.67761
 13794.50000 13794.50000   32.87078    3.78554    0.17023    2.41892    4.43763   69.39461
 13795.00000 13795.00000   35.98793    3.67620    0.16813    2.42091    4.45996   69.70472
 13795.50000 13795.50000   41.40428    3.58184    0.16333    2.42656    4.48031   69.18800
 13796.00000 13796.00000   47.83317    3.54427    0.15788    2.43411    4.48744   68.39731
 13796.50000 13796.50000   54.47875    3.56359    0.15507    2.44500    4.49401   67.95248
 13797.00000 13797.00000   57.59321    3.58369    0.15766    2.45448    4.49501   68.41014
 13797.50000 13797.50000   55.64590    3.54318    0.16558    2.45265    4.46999   69.16107
 13798.00000 13798.00000   54.55926    3.45087    0.17509    2.43843    4.42567   69.46273
 13798.50000 13798.50000   56.02513    3.35259    0.18108    2.42113    4.39545   69.78879
 13799.00000 13799.00000   56.64339    3.27389    0.18053    2.41048    4.40089   69.93810
 13799.50000 13799.50000   55.51312    3.24355    0.17434    2.40931    4.42667   69.79618
 13800.00000 13800.00000   53.82920    3.29629    0.16626    2.41573    4.43710   68.98614
 13800.50000 13800.50000   53.31698    3.45154    0.15802    2.42809    4.42375   67.90219
 13801.00000 13801.00000   53.26735    3.67908    0.14812    2.44514    4.41822   66.56840
 13801.50000 13801.50000   52.04577    3.93173    0.13563    2.46444    4.44700   65.25651
 13802.00000 13802.00000   50.69926    4.19436    0.12332    2.48337    4.49414   63.97908
 13802.50000 13802.50000   50.23789    4.44756    0.11491    2.49925    4.51948   62.96372
 13803.00000 13803.00000   51.24638    4.65440    0.11257    2.50708    4.50203   62.41052
 13803.50000 13803.50000   52.94428    4.75990    0.11646    2.50417    4.46312   62.15932
 13804.00000 13804.00000   52.56327    4.75239    0.12210    2.49666    4.44182   62.06789
 13804.50000 13804.50000   49.52921    4.71263    0.12380    2.49150    4.44528   62.25609
 13805.00000 13805.00000   45.62086    4.69988    0.12205    2.48865    4.45156   62.77049
 13805.50000 13805.50000   42.28975    4.69511    0.12098    2.48666    4.44722   63.53459
 13806.00000 13806.00000   39.74521    4.65902    0.12261    2.48513    4.44008   64.20459
 13806.50000 13806.50000   37.53738    4.57269    0.12736    2.48249    4.45223   64.86370
 13807.00000 13807.00000   34.85633    4.42844    0.13518    2.47717    4.48982   65.45489
 13807.50000 13807.50000   32.14884    4.22688    0.14460    2.46900    4.51934   66.19373
 13808.00000 13808.00000   30.45318    3.99131    0.15408    2.45952    4.50378   67.12704
 13808.50000 13808.50000   28.26990    3.75181    0.16334    2.44987    4.44589   68.13092
 13809.00000 13809.00000   25.38846    3.53276    0.17147    2.43857    4.38064   69.01613
 13809.50000 13809.50000   23.85478    3.33704    0.17675    2.42553    4.34504   69.95492
 13810.00000 13810.00000   23.23526    3.16072    0.17954    2.41481    4.35278   70.66435
 13810.50000 13810.50000   22.15210    3.02013    0.18286    2.40963    4.39054   71.26987
 13811.00000 13811.00000   20.89674    2.92635    0.18627    2.40801    4.43247   71.40060
 13811.50000 13811.50000   20.23766    2.87086    0.18644    2.40589    4.45043   71.47673
 13812.00000 13812.00000   20.54175    2.84799    0.18211    2.40193    4.43496   71.16179
 13812.50000 13812.50000   21.68243    2.85596    0.17571    2.40027    4.40922   70.67896
 13813.00000 13813.00000   22.98577    2.88989    0.17004    2.40528    4.39867   69.85161
 13813.50000 13813.50000   23.90188    2.94462    0.16553    2.41560    4.40598   69.10892
 13814.00000 13814.00000   24.53675    3.00823    0.16088    2.42750    4.42852   68.43156
