~Version ---------------------------------------------------
VERS.   2.0 : CWLS log ASCII Standard -VERSION 2.0
WRAP.    NO : One line per depth step
DLM . SPACE : Column Data Section Delimiter
~Well ------------------------------------------------------
STRT  .m               13330.50000 : START DEPTH
STOP  .m               14166.50000 : STOP DEPTH
STEP  .m                   0.50000 : STEP
NULL  .                    -999.25 : NULL VALUE
COMP  .                            : COMPANY
WELL  .                       X3 : WELL
FLD   .                            : FIELD
LOC   .                            : LOCATION
PROV  .                            : PROVINCE
CNTY  .                            : COUNTY
STAT  .                            : STATE
CTRY  .                            : COUNTRY
SRVC  .                            : SERVICE COMPANY
DATE  . 2024-03-22 11:39:23.231881 : DATE
UWI   .                            : UNIQUE WELL ID
API   .                            : API NUMBER
LIC   .                            : 
LATI  .                            : 
LONG  .                            : 
NS    .                            : 
EW    .                            : 
XCOORD.                            : 
YCOORD.                            : 
GDAT  .                            : 
SECT  .                            : 
RANG  .                            : 
TOWN  .                            : 
~Curve Information -----------------------------------------
DEPT .m      : 
DEPTH.None   : None
GR   .GAPI   : None
RT   .ohm.m  : None
NPHI .v/v    : None
RHOB .g/cc   : None
PEF  .None   : None
DTC  .None   : None
~Params ----------------------------------------------------
EKB.      : 
EGL.      : 
KB .      : 
GL .      : 
TD .      : 
TDD.      : 
TDL.      : 
~Other -----------------------------------------------------
~ASCII -----------------------------------------------------
# ...
 13814.50000 13814.50000   25.86228    3.07068    0.15630    2.43901    4.45781   67.84089
 13815.00000 13815.00000   28.63842    3.13287    0.15377    2.44781    4.47042   67.21778
 13815.50000 13815.50000   32.64802    3.20142    0.15372    2.45182    4.45812   66.83234
 13816.00000 13816.00000   36.82632    3.27775    0.15433    2.45172    4.44046   66.78552
 13816.50000 13816.50000   38.71643    3.35680    0.15477    2.45090    4.44262   66.85463
 13817.00000 13817.00000   36.13629    3.43081    0.15679    2.45145    4.46936   67.11548
 13817.50000 13817.50000   29.84618    3.48518    0.16091    2.45096    4.49768   67.28475
 13818.00000 13818.00000   23.36580    3.50410    0.16464    2.44582    4.50497   67.39817
 13818.50000 13818.50000   19.26785    3.48682    0.16541    2.43736    4.49510   67.38879
 13819.00000 13819.00000   17.12039    3.45189    0.16268    2.43182    4.48084   67.46219
 13819.50000 13819.50000   15.42042    3.42132    0.15816    2.43342    4.46332   67.56176
 13820.00000 13820.00000   13.94873    3.41561    0.15618    2.43951    4.44505   67.66804
 13820.50000 13820.50000   13.71531    3.43367    0.15722    2.44502    4.43985   67.68934
 13821.00000 13821.00000   14.97077    3.44737    0.15770    2.44794    4.45618   67.65660
 13821.50000 13821.50000   16.21057    3.45069    0.15730    2.44990    4.47693   67.64081
 13822.00000 13822.00000   15.82542    3.45778    0.15793    2.45145    4.47184   67.64509
 13822.50000 13822.50000   14.43335    3.47354    0.15855    2.45160    4.44100   67.45998
 13823.00000 13823.00000   13.70385    3.50591    0.15820    2.45128    4.41594   67.35304
 13823.50000 13823.50000   14.26573    3.55526    0.15721    2.45260    4.41039   67.39919
 13824.00000 13824.00000   15.75973    3.62057    0.15367    2.45505    4.41818   67.55905
 13824.50000 13824.50000   16.96444    3.71464    0.14692    2.45809    4.44847   67.48908
 13825.00000 13825.00000   17.14678    3.83280    0.14050    2.46304    4.49676   67.15813
 13825.50000 13825.50000   17.91709    3.94588    0.13733    2.46922    4.52545   66.65371
 13826.00000 13826.00000   21.01193    4.04807    0.13616    2.47536    4.52066   66.11543
 13826.50000 13826.50000   25.10223    4.15332    0.13398    2.48159    4.50251   65.59046
 13827.00000 13827.00000   26.68357    4.23513    0.13122    2.48689    4.48487   65.24836
 13827.50000 13827.50000   24.01742    4.24109    0.13101    2.48813    4.47312   65.22998
 13828.00000 13828.00000   19.34437    4.15087    0.13581    2.48320    4.47296   65.56542
 13828.50000 13828.50000   16.08501    4.01373    0.14326    2.47323    4.47440   66.13731
 13829.00000 13829.00000   15.38529    3.89066    0.14832    2.46098    4.45747   66.39932
 13829.50000 13829.50000   15.80691    3.79955    0.14998    2.44956    4.42637   66.65452
 13830.00000 13830.00000   16.07397    3.73932    0.15048    2.44193    4.40918   66.78851
 13830.50000 13830.50000   16.28718    3.69551    0.15098    2.43999    4.41916   66.98969
 13831.00000 13831.00000   16.27360    3.65481    0.15143    2.44249    4.43876   67.13837
 13831.50000 13831.50000   15.73081    3.60986    0.15187    2.44567    4.44407   67.35888
 13832.00000 13832.00000   14.55616    3.54622    0.15422    2.44661    4.43191   67.78896
 13832.50000 13832.50000   13.10342    3.45399    0.16113    2.44337    4.41868   68.39965
 13833.00000 13833.00000   11.82176    3.34011    0.17218    2.43465    4.41794   69.23776
 13833.50000 13833.50000   10.49953    3.20450    0.18383    2.42133    4.42415   70.32869
 13834.00000 13834.00000    9.09318    3.05293    0.19485    2.40514    4.41701   72.30138
 13834.50000 13834.50000    7.97499    2.91325    0.20628    2.38722    4.38551   74.18255
 13835.00000 13835.00000    7.31501    2.80230    0.21612    2.36741    4.34460   75.89604
 13835.50000 13835.50000    7.00282    2.72012    0.22155    2.34663    4.32097   77.26510
 13836.00000 13836.00000    7.08288    2.66567    0.22394    2.33024    4.32400   78.55596
 13836.50000 13836.50000    7.55085    2.63509    0.22849    2.32082    4.33564   79.60640
 13837.00000 13837.00000    7.98519    2.61554    0.23676    2.31374    4.33952   80.38290
 13837.50000 13837.50000    8.20525    2.59251    0.24370    2.30671    4.34210   80.68543
 13838.00000 13838.00000    8.19616    2.56318    0.24373    2.30300    4.35091   80.66454
 13838.50000 13838.50000    7.77599    2.53419    0.23776    2.30506    4.35730   80.30720
 13839.00000 13839.00000    7.56842    2.51776    0.23106    2.31186    4.35249   79.67863
 13839.50000 13839.50000    7.94451    2.53368    0.22476    2.32155    4.34232   78.86657
 13840.00000 13840.00000    8.28683    2.58992    0.21826    2.33327    4.33611   78.17659
 13840.50000 13840.50000    8.71367    2.66660    0.21405    2.34500    4.33444   77.52101
 13841.00000 13841.00000    9.41367    2.72801    0.21447    2.35292    4.33553   77.11184
 13841.50000 13841.50000    9.63425    2.76152    0.21827    2.35496    4.33322   76.73678
 13842.00000 13842.00000    9.31301    2.78887    0.22038    2.35119    4.32179   76.74627
 13842.50000 13842.50000    9.17749    2.83103    0.21900    2.34511    4.31681   77.04039
 13843.00000 13843.00000    9.35799    2.89343    0.21765    2.34242    4.33785   77.52129
 13843.50000 13843.50000    9.63828    2.96494    0.21884    2.34353    4.37211   77.95850
 13844.00000 13844.00000   10.24520    3.02528    0.22167    2.34304    4.39124   78.39558
 13844.50000 13844.50000   10.87455    3.05751    0.22587    2.33876    4.39262   78.78053
 13845.00000 13845.00000   10.35242    3.06526    0.23089    2.33244    4.39498   79.02755
 13845.50000 13845.50000    8.51030    3.06003    0.23465    2.32544    4.40098   79.28737
 13846.00000 13846.00000    6.64422    3.03019    0.23632    2.31839    4.39695   79.47949
 13846.50000 13846.50000    5.71663    2.97172    0.23531    2.31470    4.38206   79.75801
 13847.00000 13847.00000    5.37784    2.91445    0.23144    2.31751    4.36627   79.40192
 13847.50000 13847.50000    5.17939    2.88570    0.22536    2.32568    4.35379   78.33185
 13848.00000 13848.00000    5.22671    2.89402    0.21672    2.33600    4.34772   76.54234
 13848.50000 13848.50000    5.59833    2.94607    0.20440    2.34886    4.35581   75.02230
 13849.00000 13849.00000    6.19816    3.04629    0.18955    2.36723    4.37752   73.52690
 13849.50000 13849.50000    6.79993    3.17834    0.17533    2.38940    4.40456   71.82902
 13850.00000 13850.00000    7.29312    3.30938    0.16366    2.41099    4.44019   69.95777
 13850.50000 13850.50000    7.62202    3.41521    0.15588    2.42984    4.48203   68.36688
 13851.00000 13851.00000    7.80411    3.47825    0.15300    2.44334    4.49885   67.21398
 13851.50000 13851.50000    8.03987    3.48101    0.15499    2.44709    4.46893   66.54794
 13852.00000 13852.00000    8.20478    3.43279    0.16160    2.44057    4.41544   66.48142
 13852.50000 13852.50000    8.12647    3.36267    0.17207    2.42790    4.37899   67.09028
 13853.00000 13853.00000    8.15144    3.28834    0.18457    2.41176    4.37200   68.47290
 13853.50000 13853.50000    8.59997    3.22022    0.19839    2.39172    4.37366   70.40706
 13854.00000 13854.00000    8.88192    3.16314    0.21374    2.36800    4.36740   72.65251
 13854.50000 13854.50000    8.40173    3.11769    0.22818    2.34472    4.35280   75.08403
 13855.00000 13855.00000    7.76909    3.09471    0.23837    2.32475    4.32599   77.63477
 13855.50000 13855.50000    7.84235    3.11242    0.24292    2.30935    4.29160   79.52276
 13856.00000 13856.00000    8.58210    3.16689    0.24430    2.29927    4.26650   80.80990
 13856.50000 13856.50000    9.23641    3.23248    0.24659    2.29034    4.25392   81.79397
 13857.00000 13857.00000    9.33951    3.28638    0.25171    2.27902    4.24797   82.75005
 13857.50000 13857.50000    9.08701    3.31973    0.25899    2.26699    4.24732   84.09532
 13858.00000 13858.00000    8.74210    3.34074    0.26668    2.25719    4.24538   85.83674
