~Version ---------------------------------------------------
VERS.   2.0 : CWLS log ASCII Standard -VERSION 2.0
WRAP.    NO : One line per depth step
DLM . SPACE : Column Data Section Delimiter
~Well ------------------------------------------------------
STRT  .m               13330.50000 : START DEPTH
STOP  .m               14166.50000 : STOP DEPTH
STEP  .m                   0.50000 : STEP
NULL  .                    -999.25 : NULL VALUE
COMP  .                            : COMPANY
WELL  .                       X3 : WELL
FLD   .                            : FIELD
LOC   .                            : LOCATION
PROV  .                            : PROVINCE
CNTY  .                            : COUNTY
STAT  .                            : STATE
CTRY  .                            : COUNTRY
SRVC  .                            : SERVICE COMPANY
DATE  . 2024-03-22 11:39:23.231881 : DATE
UWI   .                            : UNIQUE WELL ID
API   .                            : API NUMBER
LIC   .                            : 
LATI  .                            : 
LONG  .                            : 
NS    .                            : 
EW    .                            : 
XCOORD.                            : 
YCOORD.                            : 
GDAT  .                            : 
SECT  .                            : 
RANG  .                            : 
TOWN  .                            : 
~Curve Information -----------------------------------------
DEPT .m      : 
DEPTH.None   : None
GR   .GAPI   : None
RT   .ohm.m  : None
NPHI .v/v    : None
RHOB .g/cc   : None
PEF  .None   : None
DTC  .None   : None
~Params ----------------------------------------------------
EKB.      : 
EGL.      : 
KB .      : 
GL .      : 
TD .      : 
TDD.      : 
TDL.      : 
~Other -----------------------------------------------------
~ASCII -----------------------------------------------------
# ...
 13990.50000 13990.50000   37.44004    1.64540    0.30369    2.21086    4.12036   91.09171
 13991.00000 13991.00000   35.61745    1.64177    0.30631    2.20418    4.14017   91.19857
 13991.50000 13991.50000   33.51129    1.63494    0.30998    2.19848    4.15392   91.49878
 13992.00000 13992.00000   31.14803    1.62712    0.31098    2.19501    4.15495   91.91068
 13992.50000 13992.50000   28.95132    1.61673    0.31200    2.19268    4.14431   92.35755
 13993.00000 13993.00000   27.89017    1.60215    0.31623    2.18963    4.12701   92.76845
 13993.50000 13993.50000   27.67578    1.59276    0.32376    2.18312    4.11357   92.91074
 13994.00000 13994.00000   26.95794    1.59163    0.33206    2.17351    4.10723   92.86443
 13994.50000 13994.50000   25.30216    1.59338    0.33802    2.16693    4.10227   92.74773
 13995.00000 13995.00000   23.48925    1.60362    0.34217    2.16600    4.09500   92.71136
 13995.50000 13995.50000   22.21676    1.61565    0.34512    2.16432    4.08341   92.80471
 13996.00000 13996.00000   21.68844    1.61518    0.34494    2.15697    4.06320   92.80737
 13996.50000 13996.50000   21.90541    1.61246    0.33955    2.14918    4.03786   92.95584
 13997.00000 13997.00000   22.64265    1.61887    0.32960    2.14971    4.01944   92.97817
 13997.50000 13997.50000   23.11988    1.63340    0.31979    2.16002    4.01787   93.10014
 13998.00000 13998.00000   23.16586    1.65710    0.31543    2.17305    4.03701   93.25212
 13998.50000 13998.50000   23.82372    1.68531    0.31618    2.18146    4.07342   93.40460
 13999.00000 13999.00000   25.42878    1.70781    0.31558    2.18646    4.11508   93.38306
 13999.50000 13999.50000   27.20926    1.72710    0.30911    2.19468    4.15112   93.18412
 14000.00000 14000.00000   28.52521    1.75115    0.30181    2.20596    4.17327   92.91190
 14000.50000 14000.50000   30.18353    1.78008    0.30005    2.21359    4.17000   93.21918
 14001.00000 14001.00000   32.96437    1.81147    0.30011    2.21520    4.14194   95.17327
 14001.50000 14001.50000   35.67178    1.83639    0.29569    2.21357    4.11526   93.63170
 14002.00000 14002.00000   36.78094    1.83989    0.29063    2.21381    4.11464   94.61948
 14002.50000 14002.50000   36.37999    1.82342    0.29069    2.21961    4.12727   89.49546
 14003.00000 14003.00000   35.46329    1.81604    0.29235    2.22659    4.12527   88.62974
 14003.50000 14003.50000   34.03724    1.83441    0.29021    2.22930    4.11472   88.93010
 14004.00000 14004.00000   31.72039    1.85315    0.28498    2.23213    4.12608   89.04561
 14004.50000 14004.50000   28.94100    1.84823    0.28092    2.24028    4.16343   89.05073
 14005.00000 14005.00000   26.53037    1.82112    0.28206    2.24839    4.19527   88.87801
 14005.50000 14005.50000   24.94389    1.78401    0.28859    2.24869    4.19699   88.82176
 14006.00000 14006.00000   24.00376    1.75787    0.29564    2.24169    4.17879   88.94063
 14006.50000 14006.50000   23.63722    1.75009    0.29893    2.23314    4.16480   89.40489
 14007.00000 14007.00000   23.80079    1.74151    0.29997    2.22755    4.16675   90.54867
 14007.50000 14007.50000   23.80997    1.70673    0.30262    2.22567    4.18034   92.04586
 14008.00000 14008.00000   23.10712    1.64929    0.30778    2.22409    4.18367   93.96754
 14008.50000 14008.50000   21.97532    1.59145    0.31419    2.21770    4.15741   95.35553
 14009.00000 14009.00000   20.83952    1.54449    0.32049    2.20633    4.11631   96.54089
 14009.50000 14009.50000   19.78339    1.50978    0.32540    2.19510    4.09086   96.83661
 14010.00000 14010.00000   18.40774    1.48565    0.32802    2.18647    4.08822   97.13929
 14010.50000 14010.50000   16.79079    1.47516    0.32852    2.17931    4.09416   97.13561
 14011.00000 14011.00000   15.49178    1.48035    0.32766    2.17331    4.09948   96.97709
 14011.50000 14011.50000   14.52109    1.49119    0.32458    2.17074    4.10584   96.59690
 14012.00000 14012.00000   13.80898    1.49786    0.31936    2.17329    4.11192   96.33204
 14012.50000 14012.50000   13.35401    1.50417    0.31622    2.17830    4.11867   96.22516
 14013.00000 14013.00000   13.38879    1.52175    0.31615    2.18194    4.13308   96.26939
 14013.50000 14013.50000   13.82801    1.55067    0.31478    2.18685    4.15614   96.31070
 14014.00000 14014.00000   13.92230    1.57839    0.31165    2.19787    4.18369    -999.25
 14014.50000 14014.50000   13.54847    1.59934    0.31211    2.21059    4.19960    -999.25
 14015.00000 14015.00000   13.21253    1.61851    0.31553    2.21458    4.18353    -999.25
 14015.50000 14015.50000   13.17106    1.64020    0.31365    2.20892    4.14566    -999.25
 14016.00000 14016.00000   13.24759    1.66280    0.30372    2.20420    4.12424    -999.25
 14016.50000 14016.50000   12.99889    1.68449    0.29045    2.20953    4.14523    -999.25
 14017.00000 14017.00000   12.56267    1.69932    0.28048    2.22372    4.19332    -999.25
 14017.50000 14017.50000   12.44947    1.70089    0.28034    2.23811    4.22285    -999.25
 14018.00000 14018.00000   12.82601    1.69432    0.28910    2.24510    4.20672    -999.25
 14018.50000 14018.50000   13.86401    1.68442    0.29747    2.24446    4.16362    -999.25
 14019.00000 14019.00000   15.12925    1.67400    0.29946    2.24076    4.13384    -999.25
 14019.50000 14019.50000   15.84953    1.67654    0.29773    2.23763    4.14081    -999.25
 14020.00000 14020.00000   16.01727    1.69452    0.29772    2.23486    4.17303    -999.25
 14020.50000 14020.50000   16.35266    1.70974    0.29943    2.23265    4.20720    -999.25
 14021.00000 14021.00000   16.96596    1.71345    0.29968    2.23255    4.23431    -999.25
 14021.50000 14021.50000   16.91450    1.71444    0.29639    2.23317    4.25188    -999.25
 14022.00000 14022.00000   16.22411    1.71897    0.28896    2.23248    4.25733    -999.25
 14022.50000 14022.50000   15.68226    1.72419    0.28178    2.23321    4.25439    -999.25
 14023.00000 14023.00000   15.48903    1.72878    0.28372    2.23814    4.24536    -999.25
 14023.50000 14023.50000   15.72973    1.72695    0.29570    2.24226    4.21972    -999.25
 14024.00000 14024.00000   16.48654    1.70964    0.30573    2.23740    4.17007    -999.25
 14024.50000 14024.50000   17.67702    1.69194    0.30544    2.22447    4.11708    -999.25
 14025.00000 14025.00000   19.26128    1.69934    0.29999    2.21385    4.09023    -999.25
 14025.50000 14025.50000   21.03519    1.73266    0.29626    2.21144    4.08877    -999.25
 14026.00000 14026.00000   22.19054    1.77547    0.29493    2.21367    4.09648    -999.25
 14026.50000 14026.50000   22.52547    1.81029    0.29366    2.21747    4.12325    -999.25
 14027.00000 14027.00000   23.06264    1.82722    0.29053    2.22373    4.18661    -999.25
 14027.50000 14027.50000   23.95116    1.83032    0.28414    2.23271    4.26038    -999.25
 14028.00000 14028.00000   24.32917    1.83092    0.27519    2.24464    4.28728    -999.25
 14028.50000 14028.50000   24.20734    1.83206    0.26972    2.25831    4.25594    -999.25
 14029.00000 14029.00000   24.88300    1.81961    0.27450    2.26544    4.21121    -999.25
 14029.50000 14029.50000   26.56126    1.78687    0.28767    2.25821    4.18231    -999.25
 14030.00000 14030.00000   27.94832    1.74958    0.29986    2.24002    4.16942    -999.25
 14030.50000 14030.50000   29.01997    1.72135    0.30490    2.22100    4.17244    -999.25
 14031.00000 14031.00000   29.89895    1.69803    0.30719    2.20863    4.17325    -999.25
 14031.50000 14031.50000   29.46185    1.67159    0.31199    2.20335    4.14684    -999.25
 14032.00000 14032.00000   27.76734    1.63912    0.31702    2.20028    4.10551    -999.25
 14032.50000 14032.50000   25.84336    1.60413    0.32133    2.19496    4.08034    -999.25
 14033.00000 14033.00000   23.82151    1.58010    0.32935    2.18729    4.07542    -999.25
 14033.50000 14033.50000   21.72025    1.56395    0.34039    2.17750    4.07322    -999.25
 14034.00000 14034.00000   20.05792    1.53867    0.34760    2.16341    4.06465    -999.25
