~Version ---------------------------------------------------
VERS.   2.0 : CWLS log ASCII Standard -VERSION 2.0
WRAP.    NO : One line per depth step
DLM . SPACE : Column Data Section Delimiter
~Well ------------------------------------------------------
STRT  .m               13330.50000 : START DEPTH
STOP  .m               14166.50000 : STOP DEPTH
STEP  .m                   0.50000 : STEP
NULL  .                    -999.25 : NULL VALUE
COMP  .                            : COMPANY
WELL  .                       X3 : WELL
FLD   .                            : FIELD
LOC   .                            : LOCATION
PROV  .                            : PROVINCE
CNTY  .                            : COUNTY
STAT  .                            : STATE
CTRY  .                            : COUNTRY
SRVC  .                            : SERVICE COMPANY
DATE  . 2024-03-22 11:39:23.231881 : DATE
UWI   .                            : UNIQUE WELL ID
API   .                            : API NUMBER
LIC   .                            : 
LATI  .                            : 
LONG  .                            : 
NS    .                            : 
EW    .                            : 
XCOORD.                            : 
YCOORD.                            : 
GDAT  .                            : 
SECT  .                            : 
RANG  .                            : 
TOWN  .                            : 
~Curve Information -----------------------------------------
DEPT .m      : 
DEPTH.None   : None
GR   .GAPI   : None
RT   .ohm.m  : None
NPHI .v/v    : None
RHOB .g/cc   : None
PEF  .None   : None
DTC  .None   : None
~Params ----------------------------------------------------
EKB.      : 
EGL.      : 
KB .      : 
GL .      : 
TD .      : 
TDD.      : 
TDL.      : 
~Other -----------------------------------------------------
~ASCII -----------------------------------------------------
# ...
 14078.50000 14078.50000   14.38818    1.40128    0.31220    2.16400    4.10010    -999.25
 14079.00000 14079.00000   13.16431    1.41107    0.31493    2.17281    4.11252    -999.25
 14079.50000 14079.50000   12.76096    1.40885    0.32224    2.18051    4.11238    -999.25
 14080.00000 14080.00000   12.91789    1.39568    0.32919    2.18398    4.09406    -999.25
 14080.50000 14080.50000   12.72270    1.37758    0.33376    2.18289    4.06573    -999.25
 14081.00000 14081.00000   12.06959    1.35856    0.33808    2.17595    4.04361    -999.25
 14081.50000 14081.50000   11.63581    1.33714    0.34486    2.16445    4.04466    -999.25
 14082.00000 14082.00000   11.49766    1.31372    0.35324    2.15409    4.06447    -999.25
 14082.50000 14082.50000   11.11487    1.28770    0.35950    2.14706    4.07704    -999.25
 14083.00000 14083.00000   10.34199    1.26015    0.36294    2.14099    4.07207    -999.25
 14083.50000 14083.50000    9.70580    1.24004    0.36530    2.13618    4.06279    -999.25
 14084.00000 14084.00000    9.33458    1.23200    0.36612    2.13447    4.05954    -999.25
 14084.50000 14084.50000    8.80235    1.23097    0.36466    2.13335    4.06194    -999.25
 14085.00000 14085.00000    8.35767    1.23521    0.36143    2.13098    4.07062    -999.25
 14085.50000 14085.50000    8.50971    1.24910    0.35815    2.13119    4.08587    -999.25
 14086.00000 14086.00000    8.62597    1.27688    0.35523    2.13638    4.10148    -999.25
 14086.50000 14086.50000    8.05016    1.31159    0.35128    2.14349    4.11137    -999.25
 14087.00000 14087.00000    7.45916    1.33961    0.34837    2.14718    4.11262    -999.25
 14087.50000 14087.50000    7.43269    1.35332    0.34974    2.14524    4.10179    -999.25
 14088.00000 14088.00000    7.82466    1.35003    0.35233    2.14021    4.08477    -999.25
 14088.50000 14088.50000    8.60190    1.33632    0.35099    2.13585    4.07331    -999.25
 14089.00000 14089.00000    9.53788    1.32734    0.34442    2.13378    4.06895    -999.25
 14089.50000 14089.50000   10.27826    1.33511    0.33551    2.13630    4.07133    -999.25
 14090.00000 14090.00000   10.41493    1.35623    0.33002    2.14702    4.08531    -999.25
 14090.50000 14090.50000   10.21240    1.37054    0.33020    2.16293    4.10430    -999.25
 14091.00000 14091.00000   10.39364    1.35546    0.33409    2.17215    4.11490    -999.25
 14091.50000 14091.50000   10.45542    1.31520    0.33907    2.16885    4.11380    -999.25
 14092.00000 14092.00000   10.23189    1.28108    0.34140    2.16016    4.09902    -999.25
 14092.50000 14092.50000   10.35287    1.26986    0.33772    2.15518    4.07407    -999.25
 14093.00000 14093.00000   10.53738    1.27587    0.33116    2.15716    4.05743    -999.25
 14093.50000 14093.50000   10.41806    1.28949    0.32780    2.16332    4.05331    -999.25
 14094.00000 14094.00000   10.34824    1.30281    0.33029    2.16810    4.04913    -999.25
 14094.50000 14094.50000   10.55407    1.31176    0.33604    2.16890    4.05118    -999.25
 14095.00000 14095.00000   10.78390    1.32209    0.34050    2.16761    4.07195    -999.25
 14095.50000 14095.50000   10.76676    1.34165    0.34185    2.16590    4.09190    -999.25
 14096.00000 14096.00000   10.50987    1.36619    0.34051    2.16423    4.08854    -999.25
 14096.50000 14096.50000   10.55764    1.38568    0.33664    2.16358    4.07233    -999.25
 14097.00000 14097.00000   11.58417    1.39759    0.33130    2.16450    4.06106    -999.25
 14097.50000 14097.50000   12.97897    1.40266    0.32864    2.16386    4.05432    -999.25
 14098.00000 14098.00000   14.25673    1.39999    0.33122    2.16018    4.04482    -999.25
 14098.50000 14098.50000   15.76063    1.39465    0.33688    2.15822    4.03650    -999.25
 14099.00000 14099.00000   17.25187    1.39253    0.34294    2.16234    4.03833    -999.25
 14099.50000 14099.50000   18.42060    1.38991    0.34613    2.16757    4.05086    -999.25
 14100.00000 14100.00000   18.90605    1.38773    0.34247    2.16718    4.07336    -999.25
 14100.50000 14100.50000   18.86901    1.40208    0.33498    2.16355    4.10502    -999.25
 14101.00000 14101.00000   18.99819    1.43675    0.32986    2.16429    4.13188    -999.25
 14101.50000 14101.50000   18.82206    1.46915    0.32649    2.17024    4.13687    -999.25
 14102.00000 14102.00000   17.20204    1.47582    0.32223    2.17545    4.12112    -999.25
 14102.50000 14102.50000   14.15528    1.43817    0.31795    2.17478    4.09581    -999.25
 14103.00000 14103.00000   11.15485    1.37989    0.31612    2.16887    4.06984    -999.25
 14103.50000 14103.50000    9.24168    1.34668    0.31938    2.16091    4.05303    -999.25
 14104.00000 14104.00000    8.61986    1.32736    0.32617    2.15274    4.05118    -999.25
 14104.50000 14104.50000    9.28819    1.29848    0.33124    2.14586    4.06114    -999.25
 14105.00000 14105.00000   10.22910    1.27213    0.33260    2.14265    4.07578    -999.25
 14105.50000 14105.50000   10.56270    1.26227    0.33466    2.14190    4.08026    -999.25
 14106.00000 14106.00000   10.43476    1.26106    0.34146    2.13821    4.05607    -999.25
 14106.50000 14106.50000   10.15468    1.25756    0.34979    2.13178    4.01371    -999.25
 14107.00000 14107.00000    9.88695    1.25325    0.35149    2.13012    3.99364    -999.25
 14107.50000 14107.50000    9.95692    1.25317    0.34395    2.13641    4.01271    -999.25
 14108.00000 14108.00000   10.42852    1.25758    0.33618    2.14634    4.04663    -999.25
 14108.50000 14108.50000   10.67432    1.26424    0.33671    2.15377    4.06718    -999.25
 14109.00000 14109.00000   10.31357    1.27367    0.34317    2.15416    4.06558    -999.25
 14109.50000 14109.50000    9.68024    1.29200    0.34788    2.14900    4.05617    -999.25
 14110.00000 14110.00000    9.10902    1.31979    0.34616    2.14771    4.06300    -999.25
 14110.50000 14110.50000    8.59990    1.34804    0.33900    2.15545    4.08517    -999.25
 14111.00000 14111.00000    8.25081    1.36632    0.33096    2.16452    4.09507    -999.25
 14111.50000 14111.50000    8.09163    1.36834    0.32867    2.16571    4.08372    -999.25
 14112.00000 14112.00000    7.74759    1.35956    0.33397    2.16059    4.07285    -999.25
 14112.50000 14112.50000    7.08440    1.35548    0.33835    2.15754    4.07787    -999.25
 14113.00000 14113.00000    6.49579    1.36258    0.33435    2.16057    4.09424    -999.25
 14113.50000 14113.50000    6.14894    1.37239    0.32402    2.16515    4.10750    -999.25
 14114.00000 14114.00000    5.92597    1.37765    0.31511    2.16615    4.10722    -999.25
 14114.50000 14114.50000    5.87426    1.37962    0.31233    2.16508    4.10097    -999.25
 14115.00000 14115.00000    6.06386    1.38122    0.31290    2.16718    4.10229    -999.25
 14115.50000 14115.50000    6.28722    1.38363    0.31203    2.17480    4.10812    -999.25
 14116.00000 14116.00000    6.49493    1.37969    0.31060    2.18509    4.11547    -999.25
 14116.50000 14116.50000    6.59930    1.35913    0.31388    2.19222    4.13395    -999.25
 14117.00000 14117.00000    6.38779    1.32937    0.32111    2.19236    4.16091    -999.25
 14117.50000 14117.50000    6.18817    1.30670    -999.25    2.18639    4.17679    -999.25
 14118.00000 14118.00000    6.34131    1.29489    -999.25    2.17938    4.16753    -999.25
 14118.50000 14118.50000    6.39241    1.29042    -999.25    2.17845    4.14531    -999.25
 14119.00000 14119.00000    6.00422    1.29136    -999.25    2.19147    4.14511    -999.25
 14119.50000 14119.50000    5.57863    1.29610    -999.25    2.22138    4.17443    -999.25
 14120.00000 14120.00000    5.37616    1.29707    -999.25    2.25091    4.18604    -999.25
 14120.50000 14120.50000    5.59321    1.28804    -999.25    2.24991    4.14655    -999.25
 14121.00000 14121.00000    6.12650    1.28177    -999.25    2.21625    4.08924    -999.25
 14121.50000 14121.50000    6.35222    1.28902    -999.25    2.18118    4.06336    -999.25
 14122.00000 14122.00000    6.11375    1.30456    -999.25    2.16572    4.07555    -999.25
