~Version ---------------------------------------------------
VERS.   2.0 : CWLS log ASCII Standard -VERSION 2.0
WRAP.    NO : One line per depth step
DLM . SPACE : Column Data Section Delimiter
~Well ------------------------------------------------------
STRT  .m               13330.50000 : START DEPTH
STOP  .m               14166.50000 : STOP DEPTH
STEP  .m                   0.50000 : STEP
NULL  .                    -999.25 : NULL VALUE
COMP  .                            : COMPANY
WELL  .                       X3 : WELL
FLD   .                            : FIELD
LOC   .                            : LOCATION
PROV  .                            : PROVINCE
CNTY  .                            : COUNTY
STAT  .                            : STATE
CTRY  .                            : COUNTRY
SRVC  .                            : SERVICE COMPANY
DATE  . 2024-03-22 11:39:23.231881 : DATE
UWI   .                            : UNIQUE WELL ID
API   .                            : API NUMBER
LIC   .                            : 
LATI  .                            : 
LONG  .                            : 
NS    .                            : 
EW    .                            : 
XCOORD.                            : 
YCOORD.                            : 
GDAT  .                            : 
SECT  .                            : 
RANG  .                            : 
TOWN  .                            : 
~Curve Information -----------------------------------------
DEPT .m      : 
DEPTH.None   : None
GR   .GAPI   : None
RT   .ohm.m  : None
NPHI .v/v    : None
RHOB .g/cc   : None
PEF  .None   : None
DTC  .None   : None
~Params ----------------------------------------------------
EKB.      : 
EGL.      : 
KB .      : 
GL .      : 
TD .      : 
TDD.      : 
TDL.      : 
~Other -----------------------------------------------------
~ASCII -----------------------------------------------------
# ...
 13374.50000 13374.50000   15.23754    4.53205    -999.25    -999.25    -999.25  116.75912
 13375.00000 13375.00000   14.80071    3.58110    -999.25    -999.25    -999.25  120.12841
 13375.50000 13375.50000   14.32105    3.13177    -999.25    -999.25    -999.25  119.73207
 13376.00000 13376.00000   14.17646    4.34283    -999.25    -999.25    -999.25  117.74744
 13376.50000 13376.50000   14.33558    5.77986    -999.25    -999.25    -999.25  115.80511
 13377.00000 13377.00000   14.75240    5.21366    -999.25    -999.25    -999.25  116.74760
 13377.50000 13377.50000   14.72606    8.93892    -999.25    -999.25    -999.25  118.19934
 13378.00000 13378.00000   13.75388   34.49480    -999.25    -999.25    -999.25  119.86439
 13378.50000 13378.50000   12.44418   47.60958    -999.25    -999.25    -999.25  120.15186
 13379.00000 13379.00000   11.20246    4.06658    -999.25    -999.25    -999.25  119.93482
 13379.50000 13379.50000    9.31086    2.39095    -999.25    -999.25    -999.25  120.83702
 13380.00000 13380.00000    6.94826    2.05366    0.44971    -999.25    -999.25  121.59639
 13380.50000 13380.50000    5.17915    2.18875    0.42019    -999.25    -999.25  120.93115
 13381.00000 13381.00000    5.44511    2.63068    0.37893    -999.25    -999.25  119.47869
 13381.50000 13381.50000    9.62651    1.91754    0.35619    -999.25    -999.25  115.94992
 13382.00000 13382.00000   15.39305    1.89856    0.37878    -999.25    -999.25  111.43556
 13382.50000 13382.50000   19.31589    1.22021    0.44483    -999.25    -999.25  108.44109
 13383.00000 13383.00000   22.58365    0.24342    0.45000    1.85000    -999.25  108.67974
 13383.50000 13383.50000   27.13915    0.14837    0.45000    2.10145    -999.25  112.98291
 13384.00000 13384.00000   32.68959    0.70109    0.43937    2.12401    -999.25  115.96161
 13384.50000 13384.50000   37.64507    3.11489    0.36490    2.07001    -999.25  116.41147
 13385.00000 13385.00000   40.42811   14.56038    0.36393    2.03167    -999.25  115.92737
 13385.50000 13385.50000   40.84744   42.83808    0.36982    2.02767    -999.25  116.10301
 13386.00000 13386.00000   39.11787   54.03871    0.35554    2.03772    -999.25  117.58305
 13386.50000 13386.50000   35.27123   89.57857    0.32244    2.03252    3.31166  118.40842
 13387.00000 13387.00000   31.85030  140.34680    0.30238    2.00460    3.48792  118.32661
 13387.50000 13387.50000   30.89832  170.44895    0.28835    1.96685    3.67471  117.20548
 13388.00000 13388.00000   31.92491  174.85297    0.27783    1.94455    3.82486  117.45805
 13388.50000 13388.50000   32.19891  187.98599    0.27583    1.94803    3.92314  117.91343
 13389.00000 13389.00000   30.74150  205.54729    0.27534    1.95976    3.97492  118.92640
 13389.50000 13389.50000   29.26642  221.46373    0.27685    1.96149    3.99040  122.56037
 13390.00000 13390.00000   28.20718  277.56629    0.27684    1.95136    3.99634  124.65911
 13390.50000 13390.50000   27.96417  357.36325    0.28201    1.93570    4.01568  125.38178
 13391.00000 13391.00000   28.86622  417.22040    0.28974    1.92075    4.02129  124.38316
 13391.50000 13391.50000   30.01327  505.37286    0.28932    1.90835    3.98247  122.87807
 13392.00000 13392.00000   30.92633  626.93984    0.28037    1.89416    3.92178  123.30918
 13392.50000 13392.50000   31.73587  746.17537    0.27388    1.87666    3.87780  123.77665
 13393.00000 13393.00000   31.44503  742.10710    0.26912    1.86460    3.87488  124.53137
 13393.50000 13393.50000   30.74128  658.82697    0.26852    1.86737    3.91303  124.12687
 13394.00000 13394.00000   29.67625  676.90164    0.26884    1.88500    3.96066  123.28502
 13394.50000 13394.50000   27.79450  755.14735    0.26156    1.90700    3.98828  122.11692
 13395.00000 13395.00000   26.15764  877.01500    0.25611    1.92111    3.99212  122.68774
 13395.50000 13395.50000   24.59105  986.53051    0.25520    1.92376    3.98117  124.82633
 13396.00000 13396.00000   23.14026 1104.82984    0.25839    1.91807    3.95650  127.15940
 13396.50000 13396.50000   22.20814 1085.07425    0.26190    1.90897    3.91540  128.56161
 13397.00000 13397.00000   21.54275  877.96428    0.26050    1.89975    3.87118  127.80439
 13397.50000 13397.50000   21.03967  784.60119    0.25023    1.89056    3.84656  125.21852
 13398.00000 13398.00000   20.69852  784.89766    0.24726    1.88634    3.85519  120.97072
 13398.50000 13398.50000   20.38324  726.67764    0.25417    1.89391    3.88429  117.49722
 13399.00000 13399.00000   20.30620  530.11934    0.25280    1.91117    3.91292  115.45033
 13399.50000 13399.50000   20.58581  412.16769    0.23889    1.92686    3.94088  114.57839
 13400.00000 13400.00000   20.99512  509.16089    0.22334    1.93516    3.97710  114.83019
 13400.50000 13400.50000   21.66136  714.75342    0.22131    1.94183    4.00717  115.88922
 13401.00000 13401.00000   21.51173  785.04391    0.22911    1.94959    4.00065  117.84931
 13401.50000 13401.50000   20.17493  719.65753    0.24035    1.95271    3.96612  120.00483
 13402.00000 13402.00000   19.27424  627.32703    0.25219    1.95150    3.93040  120.71742
 13402.50000 13402.50000   18.53419  549.93297    0.25300    1.95359    3.88375  119.96129
 13403.00000 13403.00000   17.37924  545.07727    0.24107    1.96140    3.85893  118.64686
 13403.50000 13403.50000   16.76958  490.41828    0.25008    1.97642    3.90817  117.33530
 13404.00000 13404.00000   17.17215  347.09009    0.27038    1.99098    3.96230  116.79751
 13404.50000 13404.50000   17.55680  331.92649    0.26660    1.98057    3.93887  117.50128
 13405.00000 13405.00000   16.81938  419.03253    0.25766    1.94700    3.88492  118.31826
 13405.50000 13405.50000   15.20770  425.31094    0.25455    1.92259    3.86484  119.40108
 13406.00000 13406.00000   13.74254  394.43630    0.25178    1.91717    3.87268  118.95684
 13406.50000 13406.50000   12.58410  395.08768    0.24960    1.91710    3.88195  119.35194
 13407.00000 13407.00000   11.77071  368.01223    0.25286    1.91455    3.86474  120.41435
 13407.50000 13407.50000   12.00600  369.95961    0.26085    1.91165    3.80314  121.84258
 13408.00000 13408.00000   12.80683  419.59367    0.27187    1.91161    3.72081  123.56587
 13408.50000 13408.50000   12.45033  448.76267    0.28593    1.91619    3.65398  123.40314
 13409.00000 13409.00000   11.17166  422.75943    0.29905    1.92128    3.60577  124.45328
 13409.50000 13409.50000   10.39269  394.80503    0.30574    1.91743    3.59616  125.19747
 13410.00000 13410.00000   10.17159  412.66945    0.30117    1.90467    3.66694  125.99287
 13410.50000 13410.50000   10.41586  410.57262    0.30702    1.89913    3.75598  128.44484
 13411.00000 13411.00000   11.49040  393.25731    0.33224    1.91029    3.67965  130.03672
 13411.50000 13411.50000   13.21028  407.32451    0.32711    1.90970    3.45157  130.44543
 13412.00000 13412.00000   14.69798  354.20504    0.29103    1.87130    3.32567  128.74607
 13412.50000 13412.50000   16.46185  292.79838    0.27892    1.85000    3.39043  125.66228
 13413.00000 13413.00000   18.05925  349.65202    0.27508    1.85000    3.50099  122.76337
 13413.50000 13413.50000   18.46043  463.39185    0.25263    1.85000    3.55855  120.62898
 13414.00000 13414.00000   18.40740  493.91909    0.25442    1.88296    3.61385  120.70299
 13414.50000 13414.50000   19.06656  411.14851    0.27708    1.93329    3.68465  122.58559
 13415.00000 13415.00000   19.41466  289.95681    0.27313    1.95258    3.72012  124.62176
 13415.50000 13415.50000   19.38401  219.76085    0.25725    1.93503    3.74018  124.58449
 13416.00000 13416.00000   20.01140  211.59370    0.24705    1.92061    3.78600  122.31070
 13416.50000 13416.50000   20.29960  241.59569    0.23403    1.92583    3.82982  118.66190
 13417.00000 13417.00000   19.99845  265.27993    0.21747    1.93124    3.84233  116.06841
 13417.50000 13417.50000   18.98076  272.56811    0.20533    1.92607    3.83656  114.52975
 13418.00000 13418.00000   17.58464  244.99814    0.20299    1.91502    3.83341  113.54825
