~Version ---------------------------------------------------
VERS.   2.0 : CWLS log ASCII Standard -VERSION 2.0
WRAP.    NO : One line per depth step
DLM . SPACE : Column Data Section Delimiter
~Well ------------------------------------------------------
STRT  .m               13330.50000 : START DEPTH
STOP  .m               14166.50000 : STOP DEPTH
STEP  .m                   0.50000 : STEP
NULL  .                    -999.25 : NULL VALUE
COMP  .                            : COMPANY
WELL  .                       X3 : WELL
FLD   .                            : FIELD
LOC   .                            : LOCATION
PROV  .                            : PROVINCE
CNTY  .                            : COUNTY
STAT  .                            : STATE
CTRY  .                            : COUNTRY
SRVC  .                            : SERVICE COMPANY
DATE  . 2024-03-22 11:39:23.231881 : DATE
UWI   .                            : UNIQUE WELL ID
API   .                            : API NUMBER
LIC   .                            : 
LATI  .                            : 
LONG  .                            : 
NS    .                            : 
EW    .                            : 
XCOORD.                            : 
YCOORD.                            : 
GDAT  .                            : 
SECT  .                            : 
RANG  .                            : 
TOWN  .                            : 
~Curve Information -----------------------------------------
DEPT .m      : 
DEPTH.None   : None
GR   .GAPI   : None
RT   .ohm.m  : None
NPHI .v/v    : None
RHOB .g/cc   : None
PEF  .None   : None
DTC  .None   : None
~Params ----------------------------------------------------
EKB.      : 
EGL.      : 
KB .      : 
GL .      : 
TD .      : 
TDD.      : 
TDL.      : 
~Other -----------------------------------------------------
~ASCII -----------------------------------------------------
# ...
 13858.50000 13858.50000    8.46610    3.35276    0.27439    2.24926    4.23169   87.60993
 13859.00000 13859.00000    8.33526    3.34593    0.28219    2.24035    4.21152   88.95874
 13859.50000 13859.50000    7.88599    3.32157    0.28658    2.23039    4.20456   89.87463
 13860.00000 13860.00000    7.37777    3.30530    0.28598    2.22361    4.21637   90.34968
 13860.50000 13860.50000    7.60360    3.32446    0.28315    2.22259    4.22834   90.58667
 13861.00000 13861.00000    8.18753    3.37556    0.28225    2.22489    4.22065   90.71530
 13861.50000 13861.50000    8.77656    3.43665    0.28509    2.22665    4.19821   90.90449
 13862.00000 13862.00000    9.31183    3.49897    0.29218    2.22477    4.18434   91.05261
 13862.50000 13862.50000    9.30988    3.54768    0.30206    2.21708    4.18825   91.34956
 13863.00000 13863.00000    9.13964    3.56590    0.31076    2.20440    4.19685   92.07304
 13863.50000 13863.50000    9.77121    3.55903    0.31600    2.19229    4.19329   93.21321
 13864.00000 13864.00000   10.56813    3.52709    0.31867    2.18618    4.17215   94.67447
 13864.50000 13864.50000   10.52630    3.46223    0.31960    2.18580    4.14682   95.77193
 13865.00000 13865.00000   10.07316    3.38120    0.32044    2.18651    4.13911   97.00286
 13865.50000 13865.50000    9.80476    3.30678    0.32222    2.18419    4.14374   97.73526
 13866.00000 13866.00000    9.85101    3.24335    0.32260    2.17884    4.13691   98.23442
 13866.50000 13866.50000   10.16200    3.19216    0.32177    2.17423    4.12331   99.24986
 13867.00000 13867.00000   10.44781    3.14712    0.32339    2.17223    4.11915  100.41810
 13867.50000 13867.50000   10.60801    3.09332    0.32827    2.17105    4.11560  101.09408
 13868.00000 13868.00000   10.55205    3.02930    0.33362    2.16856    4.09943  100.93697
 13868.50000 13868.50000   10.00403    2.97010    0.33618    2.16362    4.06863  100.29293
 13869.00000 13869.00000    9.22895    2.93923    0.33571    2.15592    4.02759   99.83977
 13869.50000 13869.50000    8.59480    2.96288    0.33288    2.14868    4.00215   99.25050
 13870.00000 13870.00000    8.27380    3.03933    0.32659    2.14762    4.01985   98.23568
 13870.50000 13870.50000    8.19498    3.14161    0.31592    2.15497    4.07278   97.38945
 13871.00000 13871.00000    8.12849    3.26614    0.30273    2.16931    4.13541   96.05553
 13871.50000 13871.50000    8.25806    3.42801    0.28819    2.18828    4.19625   94.17447
 13872.00000 13872.00000    8.46311    3.63640    0.27076    2.20980    4.25683   91.34752
 13872.50000 13872.50000    8.86324    3.90114    0.24905    2.23293    4.31256   87.80369
 13873.00000 13873.00000    9.80852    4.21562    0.22433    2.26013    4.35096   83.66936
 13873.50000 13873.50000   10.69030    4.54376    0.20011    2.29576    4.37057   79.33733
 13874.00000 13874.00000   11.25541    4.84331    0.17991    2.33884    4.38787   75.53600
 13874.50000 13874.50000   11.73728    5.07408    0.16748    2.37939    4.41990   72.97921
 13875.00000 13875.00000   11.87216    5.21777    0.16595    2.40743    4.45667   71.98281
 13875.50000 13875.50000   10.87753    5.26715    0.17783    2.41739    4.46186   72.64283
 13876.00000 13876.00000    8.70797    5.19845    0.20470    2.40374    4.41044   74.96791
 13876.50000 13876.50000    6.73447    5.01191    0.23909    2.36780    4.33064   78.70109
 13877.00000 13877.00000    5.68559    4.76742    0.26814    2.32062    4.27642   82.72043
 13877.50000 13877.50000    5.10752    4.53179    0.28645    2.27405    4.25315   86.19484
 13878.00000 13878.00000    4.73286    4.32988    0.29619    2.23700    4.22527   89.35213
 13878.50000 13878.50000    4.74632    4.16940    0.30296    2.21062    4.17782   92.55054
 13879.00000 13879.00000    4.97904    4.04211    0.31091    2.18971    4.12835   95.50956
 13879.50000 13879.50000    4.93598    3.92403    0.31660    2.17180    4.09338   97.54875
 13880.00000 13880.00000    4.66508    3.80957    0.31313    2.16145    4.08203   97.70387
 13880.50000 13880.50000    4.47165    3.73142    0.30110    2.16444    4.11194   96.41386
 13881.00000 13881.00000    4.44713    3.71915    0.28799    2.18277    4.18571   94.26301
 13881.50000 13881.50000    4.59610    3.75777    0.27861    2.21112    4.26655   91.47369
 13882.00000 13882.00000    4.69575    3.81180    0.27403    2.23724    4.30832   88.70727
 13882.50000 13882.50000    4.56108    3.86411    0.27323    2.25125    4.30385   86.41524
 13883.00000 13883.00000    4.37100    3.92693    0.27318    2.25266    4.28019   85.38274
 13883.50000 13883.50000    4.47501    4.01870    0.27183    2.24773    4.26057   85.32013
 13884.00000 13884.00000    4.96450    4.13248    0.27099    2.24375    4.25156   85.96529
 13884.50000 13884.50000    5.43932    4.25958    0.27528    2.24256    4.24824   86.76840
 13885.00000 13885.00000    5.61620    4.41157    0.28727    2.23849    4.23995   87.85253
 13885.50000 13885.50000    5.78163    4.59281    0.30257    2.22583    4.22498   89.62752
 13886.00000 13886.00000    5.95335    4.79418    0.31369    2.20674    4.20923   91.99980
 13886.50000 13886.50000    5.83900    4.99308    0.31842    2.18753    4.17785   94.65496
 13887.00000 13887.00000    5.67838    5.17524    0.32044    2.17342    4.11502   96.48031
 13887.50000 13887.50000    5.55816    5.34524    0.32315    2.16598    4.04932   97.29370
 13888.00000 13888.00000    5.28947    5.52917    0.32635    2.16223    4.02205   97.65367
 13888.50000 13888.50000    5.08908    5.73171    0.32912    2.15777    4.03569   97.44086
 13889.00000 13889.00000    5.09803    5.90221    0.33212    2.15097    4.06072   97.07061
 13889.50000 13889.50000    4.95016    5.98846    0.33418    2.14431    4.07687   97.21978
 13890.00000 13890.00000    4.72513    5.94670    0.33376    2.14148    4.09185   98.11748
 13890.50000 13890.50000    4.92525    5.74610    0.33160    2.14232    4.11885   99.11621
 13891.00000 13891.00000    5.36451    5.41030    0.32824    2.14497    4.15210   99.57468
 13891.50000 13891.50000    5.67352    4.96782    0.32267    2.14856    4.17013   99.15049
 13892.00000 13892.00000    5.74095    4.40267    0.31496    2.15321    4.16316   97.98407
 13892.50000 13892.50000    5.25705    3.74793    0.30903    2.15894    4.14490   96.85477
 13893.00000 13893.00000    4.23265    3.13562    0.30787    2.16678    4.13000   95.69052
 13893.50000 13893.50000    3.48493    2.68459    0.30835    2.17693    4.12294   94.36158
 13894.00000 13894.00000    3.40753    2.41089    0.30566    2.18802    4.12841   92.97237
 13894.50000 13894.50000    3.40973    2.26646    0.29998    2.20055    4.15553   91.29598
 13895.00000 13895.00000    3.20495    2.19529    0.29354    2.21622    4.20792   89.45181
 13895.50000 13895.50000    3.23377    2.16272    0.28480    2.23421    4.27697   87.40190
 13896.00000 13896.00000    3.48891    2.15068    0.27310    2.25199    4.33990   85.29821
 13896.50000 13896.50000    3.59686    2.14784    0.26339    2.26916    4.36842   83.64458
 13897.00000 13897.00000    3.76554    2.15373    0.25938    2.28520    4.35400   82.36168
 13897.50000 13897.50000    4.22926    2.16692    0.25975    2.29453    4.31732   81.77777
 13898.00000 13898.00000    4.73986    2.17861    0.26262    2.29296    4.28073   81.85630
 13898.50000 13898.50000    5.22136    2.18608    0.26622    2.28557    4.25742   82.35052
 13899.00000 13899.00000    6.04021    2.19637    0.26966    2.27821    4.25000   83.41248
 13899.50000 13899.50000    7.25701    2.21649    0.27553    2.26977    4.23513   85.16659
 13900.00000 13900.00000    8.57035    2.25024    0.28572    2.25646    4.19066   87.46372
 13900.50000 13900.50000    9.44899    2.28908    0.29805    2.23632    4.13490   89.91506
 13901.00000 13901.00000    9.24177    2.30541    0.30824    2.21257    4.10126   92.20034
 13901.50000 13901.50000    8.13079    2.28037    0.31357    2.19366    4.09450   93.43285
 13902.00000 13902.00000    6.84330    2.23347    0.31388    2.18724    4.09687   93.56983
