~Version ---------------------------------------------------
VERS.   2.0 : CWLS log ASCII Standard -VERSION 2.0
WRAP.    NO : One line per depth step
DLM . SPACE : Column Data Section Delimiter
~Well ------------------------------------------------------
STRT  .m               13330.50000 : START DEPTH
STOP  .m               14166.50000 : STOP DEPTH
STEP  .m                   0.50000 : STEP
NULL  .                    -999.25 : NULL VALUE
COMP  .                            : COMPANY
WELL  .                       X3 : WELL
FLD   .                            : FIELD
LOC   .                            : LOCATION
PROV  .                            : PROVINCE
CNTY  .                            : COUNTY
STAT  .                            : STATE
CTRY  .                            : COUNTRY
SRVC  .                            : SERVICE COMPANY
DATE  . 2024-03-22 11:39:23.231881 : DATE
UWI   .                            : UNIQUE WELL ID
API   .                            : API NUMBER
LIC   .                            : 
LATI  .                            : 
LONG  .                            : 
NS    .                            : 
EW    .                            : 
XCOORD.                            : 
YCOORD.                            : 
GDAT  .                            : 
SECT  .                            : 
RANG  .                            : 
TOWN  .                            : 
~Curve Information -----------------------------------------
DEPT .m      : 
DEPTH.None   : None
GR   .GAPI   : None
RT   .ohm.m  : None
NPHI .v/v    : None
RHOB .g/cc   : None
PEF  .None   : None
DTC  .None   : None
~Params ----------------------------------------------------
EKB.      : 
EGL.      : 
KB .      : 
GL .      : 
TD .      : 
TDD.      : 
TDL.      : 
~Other -----------------------------------------------------
~ASCII -----------------------------------------------------
# ...
 13594.50000 13594.50000   18.97427  639.65055    0.21533    1.87900    4.01955  125.22559
 13595.00000 13595.00000   19.82798  630.35584    0.21465    1.86637    4.01772  124.78954
 13595.50000 13595.50000   20.03821  598.00678    0.21564    1.86109    4.00980  123.42755
 13596.00000 13596.00000   19.27382  543.94007    0.21687    1.86614    3.99314  120.88436
 13596.50000 13596.50000   18.86235  544.57824    0.21759    1.87140    3.97292  118.28782
 13597.00000 13597.00000   19.12710  597.47856    0.22069    1.86733    3.96534  116.24492
 13597.50000 13597.50000   19.00430  662.90644    0.22853    1.85492    3.96260  116.26304
 13598.00000 13598.00000   18.16736  679.23338    0.23990    1.85000    3.93438  117.89231
 13598.50000 13598.50000   17.06766  507.48915    0.25023    1.85097    3.88404  120.09506
 13599.00000 13599.00000   15.86039  298.97060    0.25886    1.87515    3.85337  121.23214
 13599.50000 13599.50000   15.06142  231.04644    0.26897    1.89733    3.85319  121.63072
 13600.00000 13600.00000   15.22780  232.37977    0.28265    1.91002    3.85327  121.41985
 13600.50000 13600.50000   15.25270  252.15447    0.29178    1.92287    3.83915  120.28435
 13601.00000 13601.00000   14.92550  277.62245    0.28655    1.93589    3.82813  118.79109
 13601.50000 13601.50000   14.77553  290.47849    0.26992    1.94045    3.84349  117.42674
 13602.00000 13602.00000   15.16781  328.16231    0.24895    1.92606    3.88916  117.81912
 13602.50000 13602.50000   15.78463  460.32501    0.22770    1.89439    3.94172  119.50084
 13603.00000 13603.00000   15.47109  643.35339    0.21334    1.86220    3.96600  120.68450
 13603.50000 13603.50000   14.62386  787.15786    0.20836    1.85000    3.95536  122.62132
 13604.00000 13604.00000   13.71468  909.47887    0.20752    1.85000    3.94224  124.31729
 13604.50000 13604.50000   13.11143  977.37536    0.20944    1.85000    3.94383  126.32578
 13605.00000 13605.00000   13.94179 1009.17176    0.21095    1.85000    3.93640  127.24845
 13605.50000 13605.50000   15.77241 1064.89529    0.21008    1.85000    3.90937  127.58171
 13606.00000 13606.00000   17.03423 1199.52957    0.21046    1.85000    3.88832  127.93126
 13606.50000 13606.50000   16.80423 1314.00820    0.21606    1.85000    3.88980  129.16349
 13607.00000 13607.00000   16.33455 1373.73577    0.22023    1.85000    3.89878  130.29938
 13607.50000 13607.50000   16.56894 2000.00000    0.21948    1.85000    3.89500  130.83784
 13608.00000 13608.00000   17.10815 2000.00000    0.21674    1.85000    3.88811  131.23106
 13608.50000 13608.50000   17.80042 1068.28603    0.21298    1.85000    3.90044  131.47681
 13609.00000 13609.00000   18.66786 1218.79732    0.20990    1.85000    3.92848  130.84192
 13609.50000 13609.50000   19.84529 1241.07187    0.20705    1.85000    3.94865  128.88573
 13610.00000 13610.00000   20.52348 1213.36064    0.20554    1.85000    3.94632  125.56786
 13610.50000 13610.50000   20.79049 1165.38767    0.20697    1.85000    3.93654  121.43984
 13611.00000 13611.00000   20.84128 1081.64909    0.20812    1.85000    3.94337  119.16810
 13611.50000 13611.50000   20.42980 1094.99695    0.20676    1.85000    3.97033  118.47218
 13612.00000 13612.00000   20.31395 1091.57902    0.20443    1.85000    4.00780  119.38400
 13612.50000 13612.50000   20.46315  980.39968    0.20350    1.85000    4.03916  120.13265
 13613.00000 13613.00000   20.73785  888.55197    0.20253    1.85000    4.03781  120.70088
 13613.50000 13613.50000   21.40430  769.64057    0.19970    1.85000    3.99259  121.42457
 13614.00000 13614.00000   22.62187  762.71925    0.19700    1.85000    3.93891  123.14925
 13614.50000 13614.50000   24.28384  872.81613    0.19624    1.85000    3.92419  125.77761
 13615.00000 13615.00000   25.92548  912.52718    0.19795    1.85000    3.93980  128.54372
 13615.50000 13615.50000   26.74835  868.21743    0.20088    1.85000    3.93529  130.76469
 13616.00000 13616.00000   26.67253  747.94422    0.20141    1.85000    3.90133  132.38643
 13616.50000 13616.50000   26.46946  650.46161    0.19868    1.85000    3.88387  132.32227
 13617.00000 13617.00000   26.31313  674.69507    0.19406    1.85000    3.90489  130.49412
 13617.50000 13617.50000   26.54377  920.24389    0.19217    1.85000    3.93293  127.99265
 13618.00000 13618.00000   26.64037 1528.98254    0.19852    1.85000    3.93992  125.45725
 13618.50000 13618.50000   26.25560 2000.00000    0.21454    1.85910    3.92345  123.94306
 13619.00000 13619.00000   25.12092 1361.63065    0.23155    1.93542    3.88636  123.09649
 13619.50000 13619.50000   22.12223  353.34635    0.22633    2.02376    3.86014  122.66717
 13620.00000 13620.00000   19.14697  159.11050    0.21428    2.06679    3.91134  122.93635
 13620.50000 13620.50000   18.81978  185.37204    0.21458    2.03503    4.01100  125.20830
 13621.00000 13621.00000   19.72731  820.47309    0.21027    1.95737    4.04854  127.28236
 13621.50000 13621.50000   19.86148 2000.00000    0.20420    1.87839    4.00857  127.88496
 13622.00000 13622.00000   19.72712 2000.00000    0.20455    1.85000    3.95335  126.15553
 13622.50000 13622.50000   20.13622 1897.23200    0.20625    1.85000    3.92192  124.18737
 13623.00000 13623.00000   20.84328  829.61738    0.20513    1.85000    3.91574  125.40129
 13623.50000 13623.50000   21.55275  612.86132    0.19971    1.85000    3.92370  125.78825
 13624.00000 13624.00000   23.46886  587.29773    0.19388    1.85000    3.93893  125.66703
 13624.50000 13624.50000   26.89380  607.62512    0.19173    1.85000    3.96336  124.07980
 13625.00000 13625.00000   29.34269  612.98501    0.19158    1.85000    3.99623  121.96850
 13625.50000 13625.50000   29.20246  600.44454    0.19268    1.85000    4.02933  119.96530
 13626.00000 13626.00000   28.15943  593.14935    0.19372    1.85000    4.05065  119.36320
 13626.50000 13626.50000   29.41959  561.61593    0.19452    1.85000    4.04887  119.88719
 13627.00000 13627.00000   35.03138  533.44001    0.19575    1.85000    4.02880  120.93432
 13627.50000 13627.50000   42.11995  508.21506    0.19692    1.85000    4.01792  121.42608
 13628.00000 13628.00000   45.76585  451.31837    0.19913    1.85000    4.03235  122.18657
 13628.50000 13628.50000   45.64797  410.96710    0.19941    1.85000    4.05783  122.97117
 13629.00000 13629.00000   43.73445  403.12111    0.19725    1.85000    4.07535  123.78573
 13629.50000 13629.50000   42.63908  411.11633    0.19600    1.85000    4.07526  123.85117
 13630.00000 13630.00000   44.25447  409.57188    0.19592    1.85000    4.05683  123.72342
 13630.50000 13630.50000   46.54628  396.23092    0.19511    1.85000    4.03376  124.35575
 13631.00000 13631.00000   46.15253  390.16424    0.19333    1.85000    4.02930  126.11156
 13631.50000 13631.50000   42.38410  390.94358    0.19516    1.85000    4.04535  127.80133
 13632.00000 13632.00000   37.55760  398.74868    0.20226    1.85000    4.05674  128.31149
 13632.50000 13632.50000   35.27960  409.87526    0.20982    1.85000    4.04269  127.95428
 13633.00000 13633.00000   35.65487  407.07348    0.21408    1.85000    4.01259  128.28975
 13633.50000 13633.50000   35.91971  391.33122    0.21483    1.85000    3.99336  129.30356
 13634.00000 13634.00000   36.09801  394.87160    0.21361    1.85000    3.99372  129.89603
 13634.50000 13634.50000   36.53927  396.55996    0.21078    1.85000    4.00672  129.79484
 13635.00000 13635.00000   36.85925  393.12970    0.20529    1.85000    4.02351  128.77216
 13635.50000 13635.50000   37.00043  392.42208    0.20082    1.85000    4.03198  127.47156
 13636.00000 13636.00000   36.52994  377.20657    0.20115    1.85000    4.02930  126.01455
 13636.50000 13636.50000   35.40050  366.50201    0.20227    1.85000    4.03108  124.77045
 13637.00000 13637.00000   33.64720  365.27399    0.20135    1.85000    4.04374  123.56063
 13637.50000 13637.50000   31.87977  360.81714    0.19995    1.85000    4.04864  123.23735
 13638.00000 13638.00000   31.16497  353.54864    0.19977    1.85272    4.03681  123.58768
