~Version ---------------------------------------------------
VERS.   2.0 : CWLS log ASCII Standard -VERSION 2.0
WRAP.    NO : One line per depth step
DLM . SPACE : Column Data Section Delimiter
~Well ------------------------------------------------------
STRT  .m               13330.50000 : START DEPTH
STOP  .m               14166.50000 : STOP DEPTH
STEP  .m                   0.50000 : STEP
NULL  .                    -999.25 : NULL VALUE
COMP  .                            : COMPANY
WELL  .                       X3 : WELL
FLD   .                            : FIELD
LOC   .                            : LOCATION
PROV  .                            : PROVINCE
CNTY  .                            : COUNTY
STAT  .                            : STATE
CTRY  .                            : COUNTRY
SRVC  .                            : SERVICE COMPANY
DATE  . 2024-03-22 11:39:23.231881 : DATE
UWI   .                            : UNIQUE WELL ID
API   .                            : API NUMBER
LIC   .                            : 
LATI  .                            : 
LONG  .                            : 
NS    .                            : 
EW    .                            : 
XCOORD.                            : 
YCOORD.                            : 
GDAT  .                            : 
SECT  .                            : 
RANG  .                            : 
TOWN  .                            : 
~Curve Information -----------------------------------------
DEPT .m      : 
DEPTH.None   : None
GR   .GAPI   : None
RT   .ohm.m  : None
NPHI .v/v    : None
RHOB .g/cc   : None
PEF  .None   : None
DTC  .None   : None
~Params ----------------------------------------------------
EKB.      : 
EGL.      : 
KB .      : 
GL .      : 
TD .      : 
TDD.      : 
TDL.      : 
~Other -----------------------------------------------------
~ASCII -----------------------------------------------------
# ...
 13550.50000 13550.50000   42.54666  508.02502    0.21399    1.85000    3.91561  122.49780
 13551.00000 13551.00000   39.58928  476.58305    0.20273    1.85000    3.94834  121.49236
 13551.50000 13551.50000   38.40705  430.51374    0.19086    1.87800    3.97873  121.55412
 13552.00000 13552.00000   38.70148  432.91564    0.18967    1.93299    3.99347  122.76413
 13552.50000 13552.50000   38.93833  484.42184    0.20254    1.94252    3.97207  124.99926
 13553.00000 13553.00000   37.72455  500.84099    0.22091    1.89107    3.90859  126.11964
 13553.50000 13553.50000   35.79488  493.04922    0.23603    1.85000    3.84357  126.19889
 13554.00000 13554.00000   35.10844  481.45099    0.24218    1.85000    3.82847  125.37068
 13554.50000 13554.50000   35.60374  453.12457    0.24221    1.85000    3.85467  125.16106
 13555.00000 13555.00000   36.37700  382.88440    0.24075    1.85000    3.85571  125.46459
 13555.50000 13555.50000   37.40038  303.89642    0.24493    1.85000    3.79769  126.25006
 13556.00000 13556.00000   38.54947  298.22072    0.25583    1.85000    3.73355  127.26548
 13556.50000 13556.50000   37.99784  332.96716    0.26171    1.85000    3.73296  128.54294
 13557.00000 13557.00000   35.79675  332.58491    0.25538    1.85000    3.79520  128.89755
 13557.50000 13557.50000   34.04478  302.92856    0.23675    1.85000    3.86676  127.89134
 13558.00000 13558.00000   32.15617  277.91937    0.21240    1.85000    3.92879  125.75489
 13558.50000 13558.50000   29.71856  253.30308    0.19140    1.85000    3.99985  123.28602
 13559.00000 13559.00000   27.69797  216.76256    0.18008    1.85984    4.07301  122.09152
 13559.50000 13559.50000   26.34383  179.20240    0.17862    1.89878    4.11003  121.93585
 13560.00000 13560.00000   25.69364  148.03008    0.18325    1.92065    4.08815  122.21601
 13560.50000 13560.50000   25.38749  120.80313    0.19288    1.92883    4.03562  124.65012
 13561.00000 13561.00000   25.41093  101.26757    0.20492    1.92690    3.97779  130.29504
 13561.50000 13561.50000   27.04225   85.08683    0.21760    1.91166    3.92341  126.31296
 13562.00000 13562.00000   31.41006   69.46160    0.22627    1.88103    3.89831  121.01213
 13562.50000 13562.50000   36.75871   57.85862    0.22696    1.85000    3.90514  128.64870
 13563.00000 13563.00000   38.74643   51.02894    0.22291    1.85000    3.90926  130.60008
 13563.50000 13563.50000   36.84413   45.65654    0.21810    1.85000    3.89136  130.41262
 13564.00000 13564.00000   37.71318   38.24018    0.21753    1.85000    3.85983  128.77978
 13564.50000 13564.50000   47.25898   27.98043    0.22867    1.85000    3.82565  126.50207
 13565.00000 13565.00000   62.08171   18.04687    0.25468    1.85000    3.75323  123.14406
 13565.50000 13565.50000   70.46706   13.51358    0.28613    1.91670    3.58097  120.27838
 13566.00000 13566.00000   66.00830   15.23538    0.29473    1.99132    3.40064  118.77799
 13566.50000 13566.50000   55.27034   20.78934    0.27543    2.02933    3.42269  118.80182
 13567.00000 13567.00000   46.42823   27.00579    0.24880    1.98840    3.65784  119.95915
 13567.50000 13567.50000   39.80388   33.49817    0.22722    1.90271    3.89151  121.46063
 13568.00000 13568.00000   34.56050   39.64174    0.21793    1.85000    3.98025  123.36414
 13568.50000 13568.50000   31.64880   44.89819    0.21526    1.85000    3.97390  124.95717
 13569.00000 13569.00000   30.48585   51.27416    0.21367    1.85000    3.94878  126.01987
 13569.50000 13569.50000   30.84012   61.65995    0.21405    1.85000    3.92124  126.23554
 13570.00000 13570.00000   31.84739   76.12234    0.21418    1.85000    3.90320  126.61455
 13570.50000 13570.50000   31.18098   91.74035    0.21331    1.85000    3.90679  127.69938
 13571.00000 13571.00000   29.02038  108.43703    0.21187    1.85000    3.92368  129.06468
 13571.50000 13571.50000   28.01970  130.53009    0.21214    1.85000    3.92953  129.74928
 13572.00000 13572.00000   27.80213  155.60288    0.21432    1.85000    3.91688  127.90638
 13572.50000 13572.50000   28.08498  176.05114    0.21257    1.85000    3.90438  124.71080
 13573.00000 13573.00000   28.85844  192.74594    0.20125    1.85000    3.92394  121.05278
 13573.50000 13573.50000   28.71442  216.51042    0.18951    1.85000    3.98325  122.27416
 13574.00000 13574.00000   27.92642  239.68622    0.18697    1.85000    4.04030  122.97167
 13574.50000 13574.50000   27.85632  252.45665    0.18934    1.85000    4.04584  122.96616
 13575.00000 13575.00000   28.74003  266.30652    0.19225    1.85000    4.01233  122.10840
 13575.50000 13575.50000   30.01712  285.31239    0.19362    1.85000    3.99055  121.49486
 13576.00000 13576.00000   31.47966  308.54645    0.19459    1.85000    3.99598  122.55280
 13576.50000 13576.50000   32.86579  329.53131    0.19685    1.85000    4.01993  124.27528
 13577.00000 13577.00000   33.35098  343.10763    0.19907    1.85231    4.05164  125.02451
 13577.50000 13577.50000   32.11036  303.60645    0.20271    1.86243    4.06576  124.37053
 13578.00000 13578.00000   30.47873  225.14866    0.21120    1.89027    4.05012  123.01587
 13578.50000 13578.50000   31.73320  218.32953    0.22224    1.93011    4.03228  121.69706
 13579.00000 13579.00000   33.54879  309.96210    0.22770    1.94277    4.03318  120.66124
 13579.50000 13579.50000   32.04266  423.93647    0.22552    1.91825    4.04122  119.54649
 13580.00000 13580.00000   29.51634  466.15367    0.21820    1.88388    4.04492  119.05080
 13580.50000 13580.50000   27.85264  474.51835    0.21003    1.85960    4.04555  119.07677
 13581.00000 13581.00000   27.49212  467.94148    0.20591    1.85000    4.04399  119.98809
 13581.50000 13581.50000   27.28403  452.59039    0.20386    1.85000    4.03100  120.65217
 13582.00000 13582.00000   26.20812  461.03430    0.19978    1.85000    4.00922  121.07473
 13582.50000 13582.50000   25.05763  474.56031    0.19470    1.85000    4.00192  121.27191
 13583.00000 13583.00000   24.40154  493.18233    0.19202    1.85000    4.01914  121.56117
 13583.50000 13583.50000   24.27569  526.38931    0.19098    1.85629    4.04450  121.43976
 13584.00000 13584.00000   24.46719  544.53460    0.19058    1.86275    4.05079  120.73744
 13584.50000 13584.50000   24.67861  546.98627    0.19194    1.86293    4.03127  119.76580
 13585.00000 13585.00000   23.98085  530.36911    0.19459    1.86309    4.00880  118.56042
 13585.50000 13585.50000   22.81305  495.23686    0.19737    1.86726    3.99885  118.08342
 13586.00000 13586.00000   21.99874  487.09678    0.19954    1.87909    3.99974  118.36713
 13586.50000 13586.50000   21.77205  557.13575    0.20180    1.89633    4.00574  120.32833
 13587.00000 13587.00000   21.72572  641.80633    0.20586    1.90331    4.00449  121.92103
 13587.50000 13587.50000   21.36861  672.97688    0.21219    1.88516    3.98625  123.60680
 13588.00000 13588.00000   20.58193  700.87955    0.21868    1.85616    3.96465  124.88214
 13588.50000 13588.50000   19.31043  637.23566    0.22499    1.85000    3.94864  125.52529
 13589.00000 13589.00000   17.98938  526.30805    0.22995    1.85938    3.92888  124.73516
 13589.50000 13589.50000   17.09120  471.41212    0.22876    1.88501    3.91651  122.55952
 13590.00000 13590.00000   16.73969  544.22728    0.21970    1.91978    3.94104  120.81209
 13590.50000 13590.50000   16.77419  690.66598    0.20958    1.94809    3.99218  119.24512
 13591.00000 13591.00000   17.07142  745.14973    0.20603    1.95309    4.02081  119.03392
 13591.50000 13591.50000   17.40743  708.44533    0.20627    1.94823    4.01682  119.52442
 13592.00000 13592.00000   17.67652  627.13252    0.20668    1.94616    4.00799  120.32517
 13592.50000 13592.50000   17.80620  604.45530    0.20745    1.94258    4.00083  121.43763
 13593.00000 13593.00000   18.13094  650.93678    0.20980    1.92694    3.98980  122.30558
 13593.50000 13593.50000   18.47448  695.85431    0.21327    1.90618    3.99139  123.71924
 13594.00000 13594.00000   18.50582  675.62941    0.21558    1.89120    4.00888  124.72011
