~Version ---------------------------------------------------
VERS.   2.0 : CWLS log ASCII Standard -VERSION 2.0
WRAP.    NO : One line per depth step
DLM . SPACE : Column Data Section Delimiter
~Well ------------------------------------------------------
STRT  .m               13330.50000 : START DEPTH
STOP  .m               14166.50000 : STOP DEPTH
STEP  .m                   0.50000 : STEP
NULL  .                    -999.25 : NULL VALUE
COMP  .                            : COMPANY
WELL  .                       X3 : WELL
FLD   .                            : FIELD
LOC   .                            : LOCATION
PROV  .                            : PROVINCE
CNTY  .                            : COUNTY
STAT  .                            : STATE
CTRY  .                            : COUNTRY
SRVC  .                            : SERVICE COMPANY
DATE  . 2024-03-22 11:39:23.231881 : DATE
UWI   .                            : UNIQUE WELL ID
API   .                            : API NUMBER
LIC   .                            : 
LATI  .                            : 
LONG  .                            : 
NS    .                            : 
EW    .                            : 
XCOORD.                            : 
YCOORD.                            : 
GDAT  .                            : 
SECT  .                            : 
RANG  .                            : 
TOWN  .                            : 
~Curve Information -----------------------------------------
DEPT .m      : 
DEPTH.None   : None
GR   .GAPI   : None
RT   .ohm.m  : None
NPHI .v/v    : None
RHOB .g/cc   : None
PEF  .None   : None
DTC  .None   : None
~Params ----------------------------------------------------
EKB.      : 
EGL.      : 
KB .      : 
GL .      : 
TD .      : 
TDD.      : 
TDL.      : 
~Other -----------------------------------------------------
~ASCII -----------------------------------------------------
# ...
 13462.50000 13462.50000   15.29082  664.04047    0.13577    2.02361    4.18411  100.04562
 13463.00000 13463.00000   15.08284  618.36923    0.13563    2.04381    4.19326   99.73806
 13463.50000 13463.50000   14.80424  566.37765    0.13578    2.07763    4.22636   99.65516
 13464.00000 13464.00000   14.85366  525.45354    0.13612    2.12256    4.24910  100.13298
 13464.50000 13464.50000   15.96450  462.78804    0.13933    2.16438    4.23175  100.03550
 13465.00000 13465.00000   18.69751  385.97614    0.14619    2.18061    4.20094   99.63892
 13465.50000 13465.50000   22.44801  328.15672    0.15341    2.15987    4.19916   98.34830
 13466.00000 13466.00000   24.77998  305.07351    0.15782    2.12739    4.22731   97.43282
 13466.50000 13466.50000   24.50042  314.10615    0.15995    2.11101    4.24243   96.67424
 13467.00000 13467.00000   22.93405  340.31715    0.15976    2.10299    4.22180   95.66764
 13467.50000 13467.50000   21.85798  393.56312    0.15765    2.08063    4.18058   94.32465
 13468.00000 13468.00000   21.61951  466.27960    0.15793    2.03805    4.14261   92.69960
 13468.50000 13468.50000   21.75318  533.79618    0.15765    1.99299    4.12740   91.29637
 13469.00000 13469.00000   21.76224  604.95831    0.15543    1.96539    4.13028   92.04777
 13469.50000 13469.50000   20.20336  697.75227    0.15568    1.95622    4.12646   93.86143
 13470.00000 13470.00000   18.18381  820.96335    0.15575    1.95627    4.10699   96.57196
 13470.50000 13470.50000   16.72501  907.25248    0.15398    1.96290    4.08976   97.47502
 13471.00000 13471.00000   15.74991  939.42028    0.15422    1.97288    4.09042   99.29691
 13471.50000 13471.50000   15.06861  920.87656    0.15615    1.97808    4.10608  101.29348
 13472.00000 13472.00000   14.01636  898.40299    0.15830    1.97705    4.13243  102.77211
 13472.50000 13472.50000   12.65428  908.87462    0.16077    1.97443    4.16395  103.82864
 13473.00000 13473.00000   10.81133  933.67894    0.16298    1.97147    4.17993  104.22641
 13473.50000 13473.50000    8.80963  969.86809    0.16164    1.96325    4.16585  103.74036
 13474.00000 13474.00000    7.46747 1025.57436    0.15738    1.94748    4.14882  103.62277
 13474.50000 13474.50000    7.34548 1179.07544    0.15512    1.93336    4.16318  104.07452
 13475.00000 13475.00000    9.14992 1377.71842    0.15759    1.92738    4.18171  104.58373
 13475.50000 13475.50000   12.64286 1387.98096    0.16271    1.92597    4.15554  105.11163
 13476.00000 13476.00000   16.39025 1338.57071    0.16667    1.92667    4.09587  105.14158
 13476.50000 13476.50000   18.95235 1322.58759    0.16895    1.92457    4.05366  105.17465
 13477.00000 13477.00000   19.14000 1119.60722    0.16810    1.91661    4.05197  104.94106
 13477.50000 13477.50000   17.46489 1009.44509    0.16468    1.91475    4.06947  104.58676
 13478.00000 13478.00000   16.95326 1041.67741    0.16226    1.93254    4.08668  104.11410
 13478.50000 13478.50000   19.64855 1003.00122    0.15973    1.96254    4.10832  103.72801
 13479.00000 13479.00000   23.64773  966.49533    0.15488    1.98668    4.13178  103.05047
 13479.50000 13479.50000   26.27075 1079.77008    0.15299    1.99221    4.13580  102.28489
 13480.00000 13480.00000   27.77971 1302.18839    0.15816    1.97336    4.11126  101.78204
 13480.50000 13480.50000   29.75912 1608.42668    0.16875    1.94598    4.07959  101.37425
 13481.00000 13481.00000   31.58580 1902.37479    0.17834    1.93583    4.06345  100.71767
 13481.50000 13481.50000   31.08781 1453.25269    0.18082    1.94821    4.06055   99.32159
 13482.00000 13482.00000   29.88009  944.89238    0.18230    1.96557    4.05258   98.16233
 13482.50000 13482.50000   29.25023  830.67210    0.18062    1.96830    4.06045   96.99271
 13483.00000 13483.00000   28.60157  923.56385    0.17420    1.95427    4.10197   96.04814
 13483.50000 13483.50000   27.86466 1115.27364    0.17138    1.93309    4.13863   96.06310
 13484.00000 13484.00000   26.72748 1257.90981    0.17245    1.91510    4.14625   97.62146
 13484.50000 13484.50000   25.68437 1318.16737    0.17275    1.90376    4.14439  100.52525
 13485.00000 13485.00000   25.02531 1373.05894    0.16990    1.89947    4.14598  103.04117
 13485.50000 13485.50000   25.20248 1498.52077    0.16646    1.90288    4.14517  105.09666
 13486.00000 13486.00000   26.52223 1344.64507    0.16428    1.91238    4.15073  106.25737
 13486.50000 13486.50000   28.01456 1138.46545    0.16405    1.92125    4.15752  106.85605
 13487.00000 13487.00000   28.78850 1092.19725    0.16266    1.92413    4.14285  107.26419
 13487.50000 13487.50000   28.41884 1014.11814    0.15878    1.92591    4.10930  107.39890
 13488.00000 13488.00000   27.30799  924.93416    0.15456    1.93363    4.08763  107.38830
 13488.50000 13488.50000   26.47227  906.58708    0.15111    1.94777    4.09868  107.40315
 13489.00000 13489.00000   25.14158  933.03010    0.15020    1.96575    4.13000  107.20370
 13489.50000 13489.50000   22.69402 1002.34867    0.15426    1.97962    4.15011  106.75271
 13490.00000 13490.00000   20.55158 1164.92805    0.16344    1.97697    4.14275  105.86374
 13490.50000 13490.50000   19.88954 1245.65059    0.17117    1.95237    4.12043  105.12356
 13491.00000 13491.00000   20.22127 1177.05071    0.17429    1.91674    4.10620  104.21914
 13491.50000 13491.50000   20.47464 1073.26358    0.17583    1.88789    4.10247  103.99904
 13492.00000 13492.00000   20.41841  995.54580    0.17638    1.87366    4.09485  104.46753
 13492.50000 13492.50000   20.69262  978.23047    0.17563    1.87291    4.08777  105.52959
 13493.00000 13493.00000   20.53931  965.13268    0.17470    1.87762    4.09120  106.60029
 13493.50000 13493.50000   19.51334 1005.12509    0.17388    1.87835    4.09299  107.72649
 13494.00000 13494.00000   18.49282 1072.42318    0.17279    1.87781    4.08576  108.86725
 13494.50000 13494.50000   17.20171 1043.08413    0.17710    1.88721    4.07891  110.18796
 13495.00000 13495.00000   15.95732  967.24402    0.18826    1.90576    4.07300  111.29900
 13495.50000 13495.50000   16.06965  822.23375    0.19675    1.91109    4.05514  111.91142
 13496.00000 13496.00000   18.86557  795.64376    0.19384    1.89341    4.02471  112.14037
 13496.50000 13496.50000   23.31254  949.64050    0.18427    1.87952    4.01166  111.91000
 13497.00000 13497.00000   26.51705  870.51021    0.17797    1.89854    4.03690  111.75951
 13497.50000 13497.50000   27.41897  641.38167    0.18032    1.93849    4.07272  111.91962
 13498.00000 13498.00000   26.80823  613.46404    0.18558    1.96509    4.08916  112.30031
 13498.50000 13498.50000   25.34606  666.79116    0.18637    1.97302    4.09566  112.40293
 13499.00000 13499.00000   22.87317  701.40062    0.18563    1.98112    4.10717  111.82973
 13499.50000 13499.50000   20.06591  728.85361    0.18554    2.00042    4.12463  111.09525
 13500.00000 13500.00000   18.01327  712.98684    0.18683    2.02479    4.14653  110.23923
 13500.50000 13500.50000   17.22318  751.55766    0.18690    2.03952    4.16459  109.72029
 13501.00000 13501.00000   17.64237  757.25395    0.18319    2.03752    4.16908  109.35902
 13501.50000 13501.50000   18.95465  638.46212    0.17936    2.02839    4.16116  108.97514
 13502.00000 13502.00000   20.10137  490.66378    0.17721    2.01965    4.13741  108.36078
 13502.50000 13502.50000   20.72435  448.62691    0.17435    2.00380    4.09379  107.32477
 13503.00000 13503.00000   21.27868  600.80120    0.17200    1.97450    4.05064  106.51545
 13503.50000 13503.50000   22.32191  828.25147    0.17202    1.93936    4.03466  106.88162
 13504.00000 13504.00000   23.67346 1027.74705    0.17636    1.90771    4.04000  108.14151
 13504.50000 13504.50000   24.45762 1015.48191    0.18747    1.88210    4.03294  110.00078
 13505.00000 13505.00000   24.36741  831.74043    0.20012    1.87336    4.00326  111.47874
 13505.50000 13505.50000   22.98603  715.04672    0.20393    1.89553    3.98050  113.04583
 13506.00000 13506.00000   21.15015  636.46017    0.19934    1.93239    3.98620  114.80282
