~Version ---------------------------------------------------
VERS.   2.0 : CWLS log ASCII Standard -VERSION 2.0
WRAP.    NO : One line per depth step
DLM . SPACE : Column Data Section Delimiter
~Well ------------------------------------------------------
STRT  .m               13330.50000 : START DEPTH
STOP  .m               14166.50000 : STOP DEPTH
STEP  .m                   0.50000 : STEP
NULL  .                    -999.25 : NULL VALUE
COMP  .                            : COMPANY
WELL  .                       X3 : WELL
FLD   .                            : FIELD
LOC   .                            : LOCATION
PROV  .                            : PROVINCE
CNTY  .                            : COUNTY
STAT  .                            : STATE
CTRY  .                            : COUNTRY
SRVC  .                            : SERVICE COMPANY
DATE  . 2024-03-22 11:39:23.231881 : DATE
UWI   .                            : UNIQUE WELL ID
API   .                            : API NUMBER
LIC   .                            : 
LATI  .                            : 
LONG  .                            : 
NS    .                            : 
EW    .                            : 
XCOORD.                            : 
YCOORD.                            : 
GDAT  .                            : 
SECT  .                            : 
RANG  .                            : 
TOWN  .                            : 
~Curve Information -----------------------------------------
DEPT .m      : 
DEPTH.None   : None
GR   .GAPI   : None
RT   .ohm.m  : None
NPHI .v/v    : None
RHOB .g/cc   : None
PEF  .None   : None
DTC  .None   : None
~Params ----------------------------------------------------
EKB.      : 
EGL.      : 
KB .      : 
GL .      : 
TD .      : 
TDD.      : 
TDL.      : 
~Other -----------------------------------------------------
~ASCII -----------------------------------------------------
# ...
 13418.50000 13418.50000   17.10756  204.37083    0.20673    1.91099    3.84485  110.76368
 13419.00000 13419.00000   18.28358  172.83309    0.21409    1.93830    3.86952  106.81929
 13419.50000 13419.50000   22.22371  139.97951    0.21734    2.00762    3.90374  102.73253
 13420.00000 13420.00000   30.09456  115.86536    0.21353    2.09121    3.95726  101.85675
 13420.50000 13420.50000   37.91402   96.92141    0.20951    2.14019    4.00486  104.89288
 13421.00000 13421.00000   40.09576   93.82677    0.20194    2.11612    3.99042  111.48968
 13421.50000 13421.50000   37.58527   98.84160    0.19325    2.01619    3.92833  117.07839
 13422.00000 13422.00000   33.20793  109.95610    0.19303    1.90184    3.88009  122.25054
 13422.50000 13422.50000   27.96554  139.96073    0.20696    1.85000    3.84940  124.38454
 13423.00000 13423.00000   24.17354  189.12363    0.22914    1.85000    3.82911  124.61899
 13423.50000 13423.50000   22.70989  252.72890    0.24425    1.85000    3.84159  122.07022
 13424.00000 13424.00000   22.34427  312.53130    0.24114    1.85000    3.86578  119.38486
 13424.50000 13424.50000   21.54347  359.69416    0.22030    1.86620    3.85930  118.27593
 13425.00000 13425.00000   20.35563  414.82185    0.19760    1.85000    3.84233  119.41680
 13425.50000 13425.50000   19.91528  463.93922    0.18919    1.85000    3.86243  121.27999
 13426.00000 13426.00000   20.12166  439.18381    0.19617    1.85000    3.90915  122.97115
 13426.50000 13426.50000   21.33036  454.06485    0.20924    1.85000    3.92692  124.33630
 13427.00000 13427.00000   23.40279  490.50312    0.22658    1.85000    3.89826  124.86414
 13427.50000 13427.50000   26.32190  477.85542    0.24468    1.85000    3.85648  124.59139
 13428.00000 13428.00000   30.02485  593.03093    0.25319    1.85000    3.83099  124.96888
 13428.50000 13428.50000   30.43494  938.72895    0.24772    1.86134    3.82616  127.08994
 13429.00000 13429.00000   27.00985 1596.35982    0.23916    1.88563    3.82974  128.44204
 13429.50000 13429.50000   23.61267 2000.00000    0.23083    1.89064    3.83167  128.49866
 13430.00000 13430.00000   21.13050 2000.00000    0.21726    1.88001    3.83623  127.34301
 13430.50000 13430.50000   19.64058 1579.16351    0.20051    1.86367    3.85964  125.92630
 13431.00000 13431.00000   18.23290  668.91641    0.18614    1.85252    3.90302  125.09035
 13431.50000 13431.50000   16.75378  562.07831    0.18102    1.85000    3.93654  125.05072
 13432.00000 13432.00000   15.66285  733.25850    0.18189    1.85000    3.94297  125.13824
 13432.50000 13432.50000   14.41414 1210.22759    0.18382    1.85000    3.94811  124.89604
 13433.00000 13433.00000   12.50703 1740.03109    0.18684    1.85079    3.97212  124.61293
 13433.50000 13433.50000   10.35550 1605.12085    0.18880    1.86938    4.00121  123.91659
 13434.00000 13434.00000    8.92612 1319.76495    0.18787    1.88179    4.02227  122.62368
 13434.50000 13434.50000    8.80307 1450.83818    0.18938    1.88838    4.03627  121.06423
 13435.00000 13435.00000   11.11841 1463.26308    0.19629    1.89637    4.03773  119.23949
 13435.50000 13435.50000   15.57478 1398.84006    0.20084    1.90987    4.02356  117.99362
 13436.00000 13436.00000   20.52691 1265.26385    0.19448    1.92686    4.01358  117.45115
 13436.50000 13436.50000   24.42203 1121.52757    0.18329    1.94864    4.03169  117.94053
 13437.00000 13437.00000   26.24925 1209.84869    0.18009    1.98631    4.07967  118.96892
 13437.50000 13437.50000   26.74094 1361.48588    0.18100    2.04460    4.13032  119.11856
 13438.00000 13438.00000   27.15637 1575.37872    0.17761    2.09844    4.14994  118.14932
 13438.50000 13438.50000   27.27330 1533.93381    0.17271    2.10882    4.14222  116.43220
 13439.00000 13439.00000   27.48239 1560.13065    0.17022    2.07015    4.13446  114.69590
 13439.50000 13439.50000   27.61675 1757.80106    0.16998    2.02872    4.13405  112.66331
 13440.00000 13440.00000   26.64126 1695.75227    0.17149    2.02293    4.14965  110.31495
 13440.50000 13440.50000   25.48440 1249.64457    0.17499    2.03263    4.19164  107.65918
 13441.00000 13441.00000   24.75704  633.18383    0.17817    2.02781    4.22866  105.37474
 13441.50000 13441.50000   24.63487  615.79338    0.17921    2.00920    4.21900  104.07037
 13442.00000 13442.00000   25.69992 1756.81953    0.17748    1.98672    4.17236  103.44272
 13442.50000 13442.50000   27.97949 2000.00000    0.17595    1.96694    4.13684  103.19817
 13443.00000 13443.00000   29.93485 2000.00000    0.17628    1.96041    4.13761  103.58750
 13443.50000 13443.50000   30.96887 1497.23914    0.17660    1.96758    4.16234  104.60808
 13444.00000 13444.00000   31.66277 1444.94090    0.17570    1.97219    4.18753  106.03872
 13444.50000 13444.50000   32.35745 1252.99775    0.17326    1.96339    4.18984  107.15726
 13445.00000 13445.00000   32.11430 1100.28256    0.17097    1.94759    4.16645  107.61415
 13445.50000 13445.50000   30.51137 1452.56647    0.17018    1.93790    4.14142  107.59740
 13446.00000 13446.00000   28.79413 1598.14302    0.16967    1.93767    4.13563  106.95850
 13446.50000 13446.50000   26.83830 1342.88936    0.17018    1.94200    4.14290  105.83354
 13447.00000 13447.00000   25.17179 1178.06460    0.17117    1.94452    4.13796  104.60832
 13447.50000 13447.50000   24.29982 1303.79128    0.17168    1.94517    4.11920  104.06283
 13448.00000 13448.00000   23.64176 1380.90138    0.17275    1.94913    4.11176  104.20031
 13448.50000 13448.50000   23.10212 1285.93958    0.17340    1.95510    4.11635  104.92216
 13449.00000 13449.00000   22.35060 1305.71178    0.17278    1.95661    4.11363  105.80746
 13449.50000 13449.50000   20.99791 1234.10845    0.17233    1.95400    4.10269  106.75101
 13450.00000 13450.00000   20.15869 1201.36673    0.17317    1.95382    4.09944  107.39652
 13450.50000 13450.50000   20.23156 1172.20794    0.17425    1.95948    4.11819  108.05818
 13451.00000 13451.00000   20.21141 1128.43720    0.17563    1.96886    4.14630  109.02541
 13451.50000 13451.50000   19.32500 1202.07624    0.17623    1.97712    4.15849  109.89598
 13452.00000 13452.00000   18.41778 1238.53972    0.17568    1.97938    4.16282  110.53822
 13452.50000 13452.50000   18.26636 1203.26314    0.17425    1.97906    4.18175  109.95693
 13453.00000 13453.00000   18.27635 1178.51628    0.17230    1.98769    4.20360  109.05557
 13453.50000 13453.50000   18.13224 1232.31434    0.17130    1.99915    4.19590  108.37679
 13454.00000 13454.00000   18.10282 1304.43857    0.17088    1.99428    4.15432  107.76877
 13454.50000 13454.50000   18.41962 1189.34477    0.16828    1.97665    4.10806  107.44263
 13455.00000 13455.00000   18.49500  975.75276    0.16568    1.96613    4.08408  107.07410
 13455.50000 13455.50000   18.35238  950.70838    0.16599    1.96697    4.08264  106.72697
 13456.00000 13456.00000   18.17078  992.05199    0.16773    1.96683    4.08943  106.32026
 13456.50000 13456.50000   18.19377 1022.84236    0.16603    1.96168    4.09634  105.52331
 13457.00000 13457.00000   18.19884 1050.30515    0.16115    1.96123    4.10572  104.78478
 13457.50000 13457.50000   17.94150 1051.10804    0.15837    1.96776    4.12167  103.86255
 13458.00000 13458.00000   17.96688 1074.64425    0.15803    1.97270    4.13247  102.95410
 13458.50000 13458.50000   17.97120 1068.95739    0.15661    1.97483    4.12187  102.00461
 13459.00000 13459.00000   17.82121 1036.15622    0.15341    1.98329    4.10472  101.04761
 13459.50000 13459.50000   17.61042 1007.93906    0.15217    1.99978    4.11095  100.27957
 13460.00000 13460.00000   17.29923  904.31163    0.15266    2.01033    4.13840   99.81846
 13460.50000 13460.50000   16.66175  744.28514    0.15045    2.00803    4.16324   99.64966
 13461.00000 13461.00000   16.39747  689.34174    0.14699    2.00327    4.18060   99.78661
 13461.50000 13461.50000   16.55663  664.26509    0.14258    2.00462    4.19207  100.09369
 13462.00000 13462.00000   15.87300  659.71822    0.13763    2.01153    4.19089  100.24973
