~Version ---------------------------------------------------
VERS.   2.0 : CWLS log ASCII Standard -VERSION 2.0
WRAP.    NO : One line per depth step
DLM . SPACE : Column Data Section Delimiter
~Well ------------------------------------------------------
STRT  .m               13330.50000 : START DEPTH
STOP  .m               14166.50000 : STOP DEPTH
STEP  .m                   0.50000 : STEP
NULL  .                    -999.25 : NULL VALUE
COMP  .                            : COMPANY
WELL  .                       X3 : WELL
FLD   .                            : FIELD
LOC   .                            : LOCATION
PROV  .                            : PROVINCE
CNTY  .                            : COUNTY
STAT  .                            : STATE
CTRY  .                            : COUNTRY
SRVC  .                            : SERVICE COMPANY
DATE  . 2024-03-22 11:39:23.231881 : DATE
UWI   .                            : UNIQUE WELL ID
API   .                            : API NUMBER
LIC   .                            : 
LATI  .                            : 
LONG  .                            : 
NS    .                            : 
EW    .                            : 
XCOORD.                            : 
YCOORD.                            : 
GDAT  .                            : 
SECT  .                            : 
RANG  .                            : 
TOWN  .                            : 
~Curve Information -----------------------------------------
DEPT .m      : 
DEPTH.None   : None
GR   .GAPI   : None
RT   .ohm.m  : None
NPHI .v/v    : None
RHOB .g/cc   : None
PEF  .None   : None
DTC  .None   : None
~Params ----------------------------------------------------
EKB.      : 
EGL.      : 
KB .      : 
GL .      : 
TD .      : 
TDD.      : 
TDL.      : 
~Other -----------------------------------------------------
~ASCII -----------------------------------------------------
 13330.50000 13330.50000    -999.25    0.43225    0.45000    2.39009    -999.25  119.89810
 13331.00000 13331.00000    -999.25    0.44272    0.45000    2.39490    -999.25  120.85163
 13331.50000 13331.50000    -999.25    0.43463    0.45000    2.39609    -999.25  122.43456
 13332.00000 13332.00000    -999.25    0.42500    0.45000    2.39037    -999.25  124.30350
 13332.50000 13332.50000    -999.25    0.44442    0.45000    2.38009    -999.25  124.90379
 13333.00000 13333.00000    -999.25    0.48830    0.45000    2.36896    -999.25  124.38986
 13333.50000 13333.50000    -999.25    0.40279    0.45000    2.35224    -999.25  122.43953
 13334.00000 13334.00000    -999.25    0.29579    0.45000    2.31962    -999.25  119.13418
 13334.50000 13334.50000    -999.25    0.26328    0.45000    2.23802    -999.25  115.80450
 13335.00000 13335.00000    -999.25    0.28738    0.45000    2.19130    -999.25  113.65845
 13335.50000 13335.50000    -999.25    0.30114    -999.25    -999.25    -999.25  113.19427
 13336.00000 13336.00000    -999.25    0.32213    -999.25    -999.25    -999.25  113.53480
 13336.50000 13336.50000    -999.25    0.57480    -999.25    -999.25    -999.25  113.29846
 13337.00000 13337.00000   14.81458    0.94155    -999.25    -999.25    -999.25  112.91792
 13337.50000 13337.50000   13.32320    0.83820    -999.25    -999.25    -999.25  111.44556
 13338.00000 13338.00000   12.23654    0.55950    -999.25    -999.25    -999.25  110.68213
 13338.50000 13338.50000   11.30295    0.40827    -999.25    -999.25    -999.25  110.15506
 13339.00000 13339.00000   11.51926    0.34519    -999.25    -999.25    -999.25  109.70649
 13339.50000 13339.50000   12.90976    0.36944    -999.25    -999.25    -999.25  109.21546
 13340.00000 13340.00000   13.12110    0.79370    -999.25    -999.25    -999.25  109.07528
 13340.50000 13340.50000   11.57150    2.36610    -999.25    -999.25    -999.25  110.32367
 13341.00000 13341.00000   10.69467    5.28301    -999.25    -999.25    -999.25  110.79037
 13341.50000 13341.50000   12.02916    8.11633    -999.25    -999.25    -999.25  108.78738
 13342.00000 13342.00000   13.64114    9.11852    -999.25    -999.25    -999.25  104.42641
 13342.50000 13342.50000   13.04050    2.19003    -999.25    -999.25    -999.25  103.72303
 13343.00000 13343.00000   11.34000    0.47279    -999.25    -999.25    -999.25  103.04601
 13343.50000 13343.50000   11.23772    0.46131    -999.25    -999.25    -999.25  102.15082
 13344.00000 13344.00000   12.92298    0.44368    -999.25    -999.25    -999.25  100.00595
 13344.50000 13344.50000   14.61834    0.45515    -999.25    -999.25    -999.25   94.67216
 13345.00000 13345.00000   15.19857    0.51778    -999.25    -999.25    -999.25   95.12615
 13345.50000 13345.50000   15.15220    0.50032    -999.25    -999.25    -999.25   99.34549
 13346.00000 13346.00000   15.56339    0.46189    -999.25    -999.25    -999.25  103.58298
 13346.50000 13346.50000   15.50793    0.45596    -999.25    -999.25    -999.25  107.03496
 13347.00000 13347.00000   15.03722    0.46261    -999.25    -999.25    -999.25  109.12386
 13347.50000 13347.50000   15.24979    0.47037    -999.25    -999.25    -999.25  109.94089
 13348.00000 13348.00000   15.49972    0.47638    -999.25    -999.25    -999.25  109.46791
 13348.50000 13348.50000   15.85091    0.49382    -999.25    -999.25    -999.25  107.39014
 13349.00000 13349.00000   14.81427    0.52974    -999.25    -999.25    -999.25  103.90662
 13349.50000 13349.50000   13.30270    0.55057    -999.25    -999.25    -999.25  100.54707
 13350.00000 13350.00000   13.62671    0.58483    -999.25    -999.25    -999.25  101.93894
 13350.50000 13350.50000   14.34880    0.62720    -999.25    -999.25    -999.25  106.71807
 13351.00000 13351.00000   14.38003    0.75878    -999.25    -999.25    -999.25  108.59272
 13351.50000 13351.50000   14.47252    1.68464    -999.25    -999.25    -999.25  107.21616
 13352.00000 13352.00000   15.60632    3.50796    -999.25    -999.25    -999.25  104.20130
 13352.50000 13352.50000   16.37752    5.13333    -999.25    -999.25    -999.25  101.37966
 13353.00000 13353.00000   15.26515    7.99246    -999.25    -999.25    -999.25   99.03000
 13353.50000 13353.50000   13.89881    7.30812    -999.25    -999.25    -999.25   97.72927
 13354.00000 13354.00000   13.36519    4.48287    -999.25    -999.25    -999.25   97.73315
 13354.50000 13354.50000   13.14547    3.41927    -999.25    -999.25    -999.25   97.62458
 13355.00000 13355.00000   12.81369    2.76949    -999.25    -999.25    -999.25   96.89485
 13355.50000 13355.50000   12.31004    3.09704    -999.25    -999.25    -999.25   96.06325
 13356.00000 13356.00000   12.87474    4.54166    -999.25    -999.25    -999.25   95.68454
 13356.50000 13356.50000   14.52725    6.67146    -999.25    -999.25    -999.25   95.24705
 13357.00000 13357.00000   15.28607    7.68367    -999.25    -999.25    -999.25   93.76364
 13357.50000 13357.50000   15.73047    5.49465    -999.25    -999.25    -999.25   92.35784
 13358.00000 13358.00000   15.40048    3.38529    -999.25    -999.25    -999.25   92.54882
 13358.50000 13358.50000   13.97877    2.86132    -999.25    -999.25    -999.25   94.86104
 13359.00000 13359.00000   13.91923    2.93076    -999.25    -999.25    -999.25   98.08258
 13359.50000 13359.50000   14.90591    4.02414    -999.25    -999.25    -999.25  100.82312
 13360.00000 13360.00000   15.27972    5.65891    -999.25    -999.25    -999.25  101.45113
 13360.50000 13360.50000   14.37087    6.59115    -999.25    -999.25    -999.25  100.25823
 13361.00000 13361.00000   12.72312    7.84228    -999.25    -999.25    -999.25   98.49294
 13361.50000 13361.50000   11.49622    6.67702    -999.25    -999.25    -999.25   96.93803
 13362.00000 13362.00000   11.33281    4.23942    -999.25    -999.25    -999.25   95.39120
 13362.50000 13362.50000   11.85363    3.18746    -999.25    -999.25    -999.25   93.98230
 13363.00000 13363.00000   11.91340    3.54707    -999.25    -999.25    -999.25   92.20395
 13363.50000 13363.50000   11.40411    4.91794    -999.25    -999.25    -999.25   91.71378
 13364.00000 13364.00000   10.71704   10.11381    -999.25    -999.25    -999.25   91.64386
 13364.50000 13364.50000   10.27393   18.41553    -999.25    -999.25    -999.25   92.65765
 13365.00000 13365.00000   10.41786   10.86741    -999.25    -999.25    -999.25   93.94981
 13365.50000 13365.50000   10.65980    5.54605    -999.25    -999.25    -999.25   96.37409
 13366.00000 13366.00000   10.10516    7.96974    -999.25    -999.25    -999.25  101.12334
 13366.50000 13366.50000    8.90519    6.35913    -999.25    -999.25    -999.25  108.12154
 13367.00000 13367.00000    7.85442    4.65563    -999.25    -999.25    -999.25  115.66687
 13367.50000 13367.50000    6.95996    7.31572    -999.25    -999.25    -999.25  120.21342
 13368.00000 13368.00000    6.46924   11.59406    -999.25    -999.25    -999.25  120.32127
 13368.50000 13368.50000    6.66921    8.09485    -999.25    -999.25    -999.25  118.12343
 13369.00000 13369.00000    7.20217    8.73770    -999.25    -999.25    -999.25  116.67559
 13369.50000 13369.50000    7.69079   30.37300    -999.25    -999.25    -999.25  117.21520
 13370.00000 13370.00000    8.12999   20.08380    -999.25    -999.25    -999.25  116.04297
 13370.50000 13370.50000    8.95232    3.60396    -999.25    -999.25    -999.25  112.91587
 13371.00000 13371.00000   10.38062    4.83914    -999.25    -999.25    -999.25  108.41043
 13371.50000 13371.50000   12.20848    4.58342    -999.25    -999.25    -999.25  103.25071
 13372.00000 13372.00000   13.52456    4.22579    -999.25    -999.25    -999.25   99.59773
 13372.50000 13372.50000   13.99256    6.25742    -999.25    -999.25    -999.25   99.67533
 13373.00000 13373.00000   14.35597   10.24669    -999.25    -999.25    -999.25  102.96679
 13373.50000 13373.50000   14.68789   10.43028    -999.25    -999.25    -999.25  107.32953
 13374.00000 13374.00000   15.06638    6.50512    -999.25    -999.25    -999.25  112.39158
