# LAS format log file from PETREL
# Project units are specified as depth units
#==================================================================
~Version information
VERS.   2.0:
WRAP.   NO:
#==================================================================
~Well
STRT .ft        8380.0 :
STOP .ft        8628.0 :
STEP .ft        0.5    :
NULL .          -999.25  :
COMP.           : COMPANY
WELL.  HW-26    : WELL
FLD.   COSTA    : FIELD
LOC.            : LOCATION
SRVC.           : SERVICE COMPANY
DATE.  2018-02-06 14:55:42   : Log Export Date {yyyy-MM-dd HH:mm:ss}
PROV.           : PROVINCE
UWI.   HW-26    : UNIQUE WELL ID
API.            : API NUMBER
#==================================================================
~Curve
DEPT .ft                  : DEPTH
GR .gAPI                  : GR
RHOB .g/cm3               : RHOB
NPHI .ft3/ft3             : NPHI
DT .us/ft                 : DT
PHIE .ft3/ft3             : PHIE
RT .ohm.m                 : RT
SW .                      : SW
SO . 			  : SO
CORE_POR .ft3/ft3         : CORE_POR
CORE_PERM .mD             : CORE_PERM
~Parameter
#==================================================================
~Ascii
8456.0	63.73	2.73	0.05	-999.25	0.00	13.41	-999.25	-999.25	1.95	0.49
8456.5	67.34	2.73	0.04	-999.25	0.00	14.12	-999.25	-999.25	1.28	0.81
8457.0	56.06	2.75	0.03	-999.25	0.00	18.16	-999.25	-999.25	1.76	0.28
8457.5	46.96	2.75	0.03	-999.25	0.00	21.80	-999.25	-999.25	2.42	0.01
8458.0	41.90	2.75	0.03	-999.25	0.00	24.20	-999.25	-999.25	3.25	0.01
8458.5	40.70	2.73	0.03	-999.25	0.00	23.58	-999.25	-999.25	3.60	-999.25
8459.0	41.13	2.72	0.03	-999.25	0.00	21.34	-999.25	-999.25	3.00	-999.25
8459.5	41.60	2.72	0.03	-999.25	0.00	20.53	-999.25	-999.25	2.73	-999.25
8460.0	43.28	2.72	0.03	-999.25	0.00	20.07	-999.25	-999.25	2.63	-999.25
8460.5	43.30	2.72	0.03	-999.25	0.00	21.52	-999.25	-999.25	2.53	-999.25
8461.0	42.35	2.71	0.03	-999.25	0.00	23.19	-999.25	-999.25	2.85	-999.25
8461.5	41.57	2.72	0.03	-999.25	0.00	26.70	-999.25	-999.25	3.09	-999.25
8462.0	38.19	2.72	0.02	-999.25	0.00	30.99	-999.25	-999.25	1.80	-999.25
8462.5	33.42	2.73	0.02	-999.25	0.00	35.24	-999.25	-999.25	0.50	7.50
8463.0	31.78	2.73	0.02	-999.25	0.00	35.85	-999.25	-999.25	0.55	12.66
8463.5	36.51	2.73	0.02	-999.25	0.00	34.78	-999.25	-999.25	0.59	15.96
8464.0	39.36	2.73	0.02	-999.25	0.00	35.45	-999.25	-999.25	0.49	9.48
8464.5	36.72	2.71	0.02	-999.25	0.00	39.53	-999.25	-999.25	0.40	3.00
8465.0	32.47	2.70	0.01	-999.25	0.00	45.15	-999.25	-999.25	1.95	1.08
8465.5	27.61	2.70	0.01	-999.25	0.00	47.82	-999.25	-999.25	1.94	0.57
8466.0	27.60	2.72	0.02	-999.25	0.00	45.30	-999.25	-999.25	1.62	0.33
8466.5	34.56	2.73	0.02	-999.25	0.00	40.75	-999.25	-999.25	1.31	0.09
8467.0	38.46	2.73	0.02	-999.25	0.00	36.99	-999.25	-999.25	1.51	87.09
8467.5	39.38	2.72	0.01	-999.25	0.00	46.60	-999.25	-999.25	1.97	219.03
8468.0	35.07	2.71	0.01	-999.25	0.00	67.58	-999.25	-999.25	2.09	246.07
8468.5	36.55	2.71	0.01	-999.25	0.00	84.76	-999.25	-999.25	1.87	168.20
8469.0	39.49	2.70	0.00	-999.25	0.00	96.55	-999.25	-999.25	1.65	90.34
8469.5	36.38	2.70	0.01	-999.25	0.00	111.96	-999.25	-999.25	1.43	12.48
8470.0	33.20	2.70	0.00	-999.25	0.00	121.57	-999.25	-999.25	1.34	0.18
8470.5	32.47	2.71	0.01	-999.25	0.00	130.34	-999.25	-999.25	1.32	0.24
8471.0	34.95	2.71	0.00	-999.25	0.00	138.79	-999.25	-999.25	1.36	0.17
8471.5	36.87	2.71	0.00	-999.25	0.00	150.69	-999.25	-999.25	1.40	0.10
8472.0	34.47	2.71	0.00	-999.25	0.00	146.59	-999.25	-999.25	0.97	1.68
8472.5	34.46	2.70	0.00	-999.25	0.00	170.42	-999.25	-999.25	0.60	2.79
8473.0	35.67	2.70	0.00	-999.25	0.00	130.93	-999.25	-999.25	0.60	1.50
8473.5	35.86	2.69	0.00	-999.25	0.00	103.15	-999.25	-999.25	0.60	0.22
8474.0	33.85	2.68	0.01	-999.25	0.00	70.31	-999.25	-999.25	2.95	0.18
8474.5	28.80	2.64	0.03	-999.25	0.01	47.74	-999.25	-999.25	5.41	0.33
8475.0	26.34	2.61	0.05	-999.25	0.04	29.30	0.58	0.42	6.11	0.24
8475.5	23.70	2.58	0.07	-999.25	0.07	20.91	0.40	0.60	7.08	0.18
8476.0	23.45	2.56	0.08	-999.25	0.08	19.55	0.34	0.66	9.44	0.29
8476.5	25.02	2.55	0.08	-999.25	0.08	16.66	0.39	0.61	10.62	3.13
8477.0	23.58	2.57	0.07	-999.25	0.07	16.15	0.44	0.56	9.48	11.24
8477.5	22.13	2.61	0.04	-999.25	0.05	20.09	0.56	0.44	7.41	11.09
8478.0	18.09	2.65	0.02	-999.25	0.03	30.29	0.76	0.24	4.84	6.68
8478.5	18.34	2.69	0.01	-999.25	0.01	38.12	-999.25	-999.25	2.28	2.27
8479.0	19.96	2.70	0.01	-999.25	0.01	58.76	-999.25	-999.25	0.95	0.37
8479.5	20.14	2.71	0.01	-999.25	0.01	86.37	-999.25	-999.25	0.84	0.99
8480.0	19.65	2.71	0.00	-999.25	0.00	127.83	-999.25	-999.25	0.80	3.21
8480.5	22.57	2.71	0.00	-999.25	0.00	157.18	-999.25	-999.25	0.80	6.26
8481.0	21.85	2.71	0.00	-999.25	0.00	235.37	-999.25	-999.25	0.65	4.73
8481.5	20.88	2.72	0.00	-999.25	0.00	310.26	-999.25	-999.25	0.44	0.83
8482.0	18.28	2.73	0.00	-999.25	0.00	281.28	-999.25	-999.25	0.63	15.64
8482.5	19.24	2.74	0.00	-999.25	0.00	221.67	-999.25	-999.25	0.90	34.00
8483.0	19.58	2.74	0.01	-999.25	0.01	132.79	-999.25	-999.25	1.44	13.66
8483.5	15.73	2.71	0.03	-999.25	0.03	77.48	0.52	0.48	3.49	0.31
8484.0	15.31	2.66	0.06	-999.25	0.06	52.05	0.28	0.72	8.45	0.53
8484.5	15.21	2.58	0.10	-999.25	0.10	34.72	0.21	0.79	13.41	0.76
8485.0	16.89	2.51	0.12	-999.25	0.12	29.13	0.19	0.81	14.20	0.66
8485.5	14.65	2.48	0.10	-999.25	0.13	25.87	0.19	0.81	12.65	0.43
8486.0	12.97	2.49	0.09	-999.25	0.11	26.88	0.21	0.79	10.72	0.27
8486.5	11.05	2.50	0.09	-999.25	0.11	14.14	0.29	0.71	8.80	0.11
8487.0	9.86	2.49	0.11	-999.25	0.13	9.53	0.31	0.69	13.26	0.63
8487.5	10.74	2.45	0.14	-999.25	0.15	7.16	0.30	0.70	16.78	0.94
8488.0	11.94	2.42	0.15	-999.25	0.17	7.06	0.27	0.73	18.47	0.83
8488.5	14.47	2.40	0.15	-999.25	0.18	6.80	0.27	0.73	19.80	0.77
8489.0	12.87	2.41	0.13	-999.25	0.16	6.18	0.30	0.70	19.15	1.00
8489.5	12.99	2.43	0.11	-999.25	0.14	6.24	0.34	0.66	17.86	1.12
8490.0	15.26	2.47	0.10	-999.25	0.13	6.62	0.36	0.64	13.21	0.59
8490.5	16.70	2.50	0.11	-999.25	0.12	6.27	0.39	0.61	10.08	0.18
8491.0	16.93	2.50	0.13	-999.25	0.13	5.28	0.40	0.60	14.97	0.39
8491.5	13.08	2.47	0.14	-999.25	0.15	4.81	0.38	0.62	18.03	0.60
8492.0	12.84	2.44	0.14	-999.25	0.16	4.76	0.35	0.65	17.52	0.80
8492.5	12.84	2.43	0.14	-999.25	0.16	4.91	0.34	0.66	17.20	1.01
8493.0	14.04	2.42	0.14	-999.25	0.16	5.36	0.33	0.67	17.85	1.28
8493.5	13.56	2.42	0.14	-999.25	0.16	5.85	0.31	0.69	18.30	1.50
8494.0	12.66	2.42	0.14	-999.25	0.17	6.50	0.29	0.71	17.65	1.50
8494.5	12.42	2.42	0.15	-999.25	0.17	7.60	0.27	0.73	16.90	1.41
8495.0	11.95	2.43	0.14	-999.25	0.16	8.31	0.26	0.74	15.63	0.85
8495.5	11.32	2.44	0.13	-999.25	0.15	8.81	0.27	0.73	14.73	0.65
8496.0	9.88	2.44	0.12	-999.25	0.15	9.65	0.27	0.73	14.51	1.15
8496.5	11.55	2.45	0.12	-999.25	0.14	10.76	0.26	0.74	14.04	1.15
8497.0	12.86	2.47	0.12	-999.25	0.14	11.29	0.26	0.74	13.31	0.65
8497.5	15.50	2.48	0.12	-999.25	0.13	10.97	0.27	0.73	13.08	0.45
8498.0	13.57	2.47	0.12	-999.25	0.14	10.71	0.27	0.73	15.44	1.80
8498.5	13.80	2.46	0.12	-999.25	0.14	10.88	0.26	0.74	17.11	4.46
8499.0	13.80	2.45	0.13	-999.25	0.15	11.77	0.24	0.76	17.43	9.65
8499.5	16.93	2.45	0.12	-999.25	0.14	13.35	0.23	0.77	17.29	12.88
8500.0	17.83	2.45	0.11	-999.25	0.14	15.41	0.22	0.78	14.70	5.91
8500.5	18.55	2.46	0.11	-999.25	0.14	16.27	0.22	0.78	13.37	1.22
8501.0	18.06	2.46	0.12	-999.25	0.14	14.85	0.23	0.77	14.47	1.00
8501.5	17.84	2.46	0.12	-999.25	0.14	14.31	0.23	0.77	14.37	0.76
8502.0	16.16	2.47	0.12	-999.25	0.14	17.59	0.21	0.79	11.94	0.49
8502.5	13.99	2.46	0.12	-999.25	0.14	18.63	0.20	0.80	10.55	0.61
8503.0	11.08	2.46	0.13	-999.25	0.15	11.90	0.24	0.76	14.62	2.77
8503.5	9.15	2.45	0.14	-999.25	0.15	9.44	0.26	0.74	17.21	3.59
8504.0	10.60	2.45	0.13	-999.25	0.15	7.57	0.30	0.70	16.94	1.80
8504.5	11.71	2.45	0.13	-999.25	0.15	6.14	0.33	0.67	16.63	0.91
8505.0	15.08	2.45	0.13	-999.25	0.15	5.01	0.37	0.63	16.29	0.91
8505.5	13.87	2.45	0.12	-999.25	0.15	5.05	0.37	0.63	15.46	0.84
8506.0	14.18	2.47	0.10	-999.25	0.13	5.10	0.42	0.58	12.09	0.43
8506.5	13.45	2.52	0.08	-999.25	0.10	7.22	0.44	0.56	9.78	0.23
8507.0	16.11	2.57	0.07	-999.25	0.08	10.52	0.49	0.51	8.54	0.22
8507.5	15.58	2.61	0.06	-999.25	0.06	12.80	0.57	0.43	7.64	0.20
8508.0	15.82	2.61	0.05	-999.25	0.05	12.49	0.63	0.37	8.52	0.16
8508.5	13.90	2.60	0.05	-999.25	0.06	11.48	0.62	0.38	9.40	0.12
8509.0	14.13	2.58	0.06	-999.25	0.07	9.86	0.57	0.43	8.32	0.16
8509.5	14.12	2.57	0.07	-999.25	0.08	7.82	0.55	0.45	8.30	0.20
8510.0	15.41	2.54	0.09	-999.25	0.10	5.43	0.55	0.45	10.35	0.26
8510.5	15.47	2.50	0.11	-999.25	0.12	4.25	0.48	0.52	12.98	0.49
8511.0	14.42	2.44	0.14	-999.25	0.15	3.79	0.41	0.59	16.74	1.04
8511.5	13.38	2.40	0.18	-999.25	0.19	3.37	0.36	0.64	20.50	1.60
8512.0	11.94	2.36	0.20	-999.25	0.21	2.99	0.34	0.66	21.74	2.03
8512.5	9.93	2.34	0.19	-999.25	0.21	2.76	0.34	0.66	22.98	2.45
8513.0	9.20	2.34	0.18	-999.25	0.21	2.62	0.36	0.64	21.55	2.34
8513.5	10.89	2.35	0.17	-999.25	0.21	2.55	0.37	0.63	19.42	1.98
8514.0	11.54	2.34	0.19	-999.25	0.21	2.53	0.36	0.64	20.77	1.88
8514.5	11.73	2.34	0.17	-999.25	0.21	2.54	0.37	0.63	21.54	1.80
8515.0	10.29	2.36	0.16	-999.25	0.20	2.56	0.39	0.61	19.27	1.80
8515.5	12.10	2.38	0.15	-999.25	0.18	2.56	0.42	0.58	17.00	1.80
8516.0	12.15	2.38	0.16	-999.25	0.18	2.55	0.42	0.58	18.52	1.07
8516.5	12.63	2.37	0.17	-999.25	0.20	2.52	0.40	0.60	19.71	0.50
8517.0	12.75	2.36	0.18	-999.25	0.20	2.48	0.38	0.62	19.17	0.83
8517.5	12.24	2.36	0.18	-999.25	0.20	2.43	0.39	0.61	19.20	1.00
