# LAS format log file from PETREL
# Project units are specified as depth units
#==================================================================
~Version information
VERS.   2.0:
WRAP.   NO:
#==================================================================
~Well
STRT .ft        8330.0 :
STOP .ft        8727.0 :
STEP .ft        0.5    :
NULL .          -999.25  :
COMP.           : COMPANY
WELL.  HW-28    : WELL
FLD.   COSTA    : FIELD
LOC.            : LOCATION
SRVC.           : SERVICE COMPANY
DATE.  2018-02-06 14:55:42   : Log Export Date {yyyy-MM-dd HH:mm:ss}
PROV.           : PROVINCE
UWI.   HW-28    : UNIQUE WELL ID
API.            : API NUMBER
#==================================================================
~Curve
DEPT .ft                  : DEPTH
GR .gAPI                  : GR
RHOB .g/cm3               : RHOB
NPHI .ft3/ft3             : NPHI
DT .us/ft                 : DT
PHIE .ft3/ft3             : PHIE
RT .ohm.m                 : RT
SW .                      : SW
SO . 			  : SO
CORE_POR .ft3/ft3         : CORE_POR
CORE_PERM .mD             : CORE_PERM
~Parameter
#==================================================================
~Ascii
# ...
8647.0	11.20	2.28	0.27	81.73	0.26	0.17	-999.25	-999.25	24.17	3.37
8647.5	12.00	2.29	0.27	81.73	0.25	0.17	-999.25	-999.25	23.95	3.36
8648.0	11.59	2.31	0.26	81.73	0.25	0.17	-999.25	-999.25	23.73	3.34
8648.5	9.97	2.31	0.26	81.73	0.25	0.17	-999.25	-999.25	24.70	4.12
8649.0	9.15	2.30	0.26	82.13	0.25	0.17	-999.25	-999.25	25.32	4.58
8649.5	8.33	2.29	0.27	82.53	0.26	0.17	-999.25	-999.25	25.37	4.57
8650.0	8.32	2.29	0.28	82.93	0.26	0.17	-999.25	-999.25	25.42	4.56
8650.5	9.12	2.27	0.28	83.13	0.26	0.17	-999.25	-999.25	25.47	4.54
8651.0	11.11	2.27	0.26	83.33	0.26	0.17	-999.25	-999.25	25.52	4.53
8651.5	10.70	2.27	0.26	83.33	0.26	0.17	-999.25	-999.25	25.57	4.52
8652.0	10.28	2.29	0.26	83.32	0.26	0.17	-999.25	-999.25	25.61	4.50
8652.5	10.28	2.28	0.26	83.72	0.26	0.17	-999.25	-999.25	25.66	4.49
8653.0	10.66	2.27	0.27	83.72	0.26	0.17	-999.25	-999.25	25.71	4.47
8653.5	10.65	2.28	0.27	83.32	0.26	0.17	-999.25	-999.25	25.76	4.46
8654.0	9.84	2.29	0.27	82.92	0.26	0.17	-999.25	-999.25	25.21	4.15
8654.5	9.03	2.29	0.26	82.52	0.25	0.17	-999.25	-999.25	21.54	2.26
8655.0	10.61	2.29	0.26	82.12	0.25	0.17	-999.25	-999.25	19.58	1.28
8655.5	11.41	2.32	0.25	81.32	0.24	0.17	-999.25	-999.25	19.35	1.23
8656.0	12.20	2.35	0.25	80.52	0.23	0.17	-999.25	-999.25	19.12	1.18
8656.5	11.78	2.37	0.23	79.72	0.21	0.17	-999.25	-999.25	18.89	1.12
8657.0	11.57	2.38	0.21	78.12	0.20	0.19	-999.25	-999.25	18.66	1.07
8657.5	11.36	2.41	0.18	75.72	0.18	0.33	-999.25	-999.25	18.43	1.01
8658.0	12.55	2.43	0.16	72.52	0.16	0.74	0.90	0.10	18.20	0.96
8658.5	12.94	2.47	0.14	71.32	0.14	2.72	0.53	0.47	16.90	0.88
8659.0	12.93	2.50	0.13	67.72	0.12	5.66	0.42	0.58	15.61	0.79
8659.5	12.72	2.51	0.11	65.72	0.11	5.66	0.48	0.52	14.00	0.56
8660.0	12.51	2.53	0.11	64.11	0.10	5.66	0.54	0.46	12.61	0.33
8660.5	11.29	2.53	0.11	62.11	0.09	5.66	0.57	0.43	12.65	0.33
8661.0	10.07	2.52	0.12	61.31	0.10	5.66	0.53	0.47	12.69	0.33
8661.5	9.26	2.51	0.12	60.91	0.11	5.66	0.47	0.53	12.58	0.34
8662.0	10.05	2.51	0.12	60.91	0.12	5.66	0.43	0.57	12.45	0.35
8662.5	10.44	2.48	0.13	60.91	0.13	5.66	0.39	0.61	14.19	0.27
8663.0	10.43	2.44	0.15	62.91	0.15	2.83	0.49	0.51	16.90	0.14
8663.5	10.42	2.41	0.17	64.51	0.17	0.80	0.80	0.20	18.58	0.38
8664.0	10.41	2.39	0.20	67.71	0.19	0.37	-999.25	-999.25	20.14	0.65
8664.5	10.39	2.38	0.22	71.51	0.21	0.22	-999.25	-999.25	21.00	1.03
8665.0	10.39	2.36	0.24	72.91	0.22	0.19	-999.25	-999.25	21.87	1.42
8665.5	10.37	2.36	0.25	74.91	0.23	0.19	-999.25	-999.25	22.04	1.72
8666.0	9.96	2.34	0.25	76.11	0.23	0.19	-999.25	-999.25	21.80	2.04
8666.5	9.55	2.33	0.25	76.51	0.24	0.18	-999.25	-999.25	23.05	2.92
8667.0	9.13	2.33	0.26	78.50	0.24	0.18	-999.25	-999.25	24.14	3.53
8667.5	9.39	2.32	0.27	79.31	0.25	0.18	-999.25	-999.25	24.41	2.79
8668.0	9.64	2.32	0.27	79.70	0.25	0.18	-999.25	-999.25	24.67	2.04
8668.5	9.89	2.32	0.28	80.10	0.25	0.18	-999.25	-999.25	24.54	2.66
8669.0	10.29	2.32	0.28	80.10	0.25	0.18	-999.25	-999.25	24.19	3.95
8669.5	10.28	2.32	0.28	80.10	0.25	0.18	-999.25	-999.25	24.15	3.91
8670.0	9.06	2.32	0.27	80.10	0.25	0.18	-999.25	-999.25	24.11	3.87
8670.5	8.65	2.31	0.26	79.90	0.25	0.18	-999.25	-999.25	25.10	6.13
8671.0	9.44	2.31	0.26	79.70	0.24	0.18	-999.25	-999.25	25.24	6.21
8671.5	9.02	2.33	0.26	79.70	0.24	0.18	-999.25	-999.25	24.86	4.95
8672.0	8.21	2.33	0.26	79.70	0.24	0.18	-999.25	-999.25	24.41	4.16
8672.5	8.40	2.32	0.26	79.70	0.24	0.18	-999.25	-999.25	23.85	4.30
8673.0	8.59	2.32	0.26	79.43	0.24	0.18	-999.25	-999.25	23.28	4.44
8673.5	9.78	2.33	0.25	79.16	0.24	0.18	-999.25	-999.25	22.43	3.97
8674.0	9.77	2.33	0.25	78.90	0.24	0.19	-999.25	-999.25	21.30	2.89
8674.5	9.36	2.33	0.25	78.90	0.24	0.19	-999.25	-999.25	22.20	3.53
8675.0	8.95	2.34	0.26	78.90	0.24	0.19	-999.25	-999.25	23.09	4.17
8675.5	9.33	2.34	0.27	78.69	0.24	0.19	-999.25	-999.25	23.12	3.13
8676.0	9.72	2.34	0.26	78.49	0.24	0.19	-999.25	-999.25	22.70	1.22
8676.5	10.11	2.34	0.26	78.09	0.24	0.20	-999.25	-999.25	22.20	2.12
8677.0	9.70	2.35	0.26	77.69	0.24	0.20	-999.25	-999.25	21.70	3.02
8677.5	8.49	2.34	0.26	77.29	0.24	0.19	-999.25	-999.25	21.25	3.51
8678.0	8.07	2.34	0.25	76.89	0.23	0.19	-999.25	-999.25	20.80	4.01
8678.5	7.66	2.35	0.25	76.49	0.23	0.19	-999.25	-999.25	22.65	4.88
8679.0	7.45	2.34	0.24	76.09	0.23	0.19	-999.25	-999.25	24.13	5.28
8679.5	7.23	2.34	0.24	75.69	0.23	0.19	-999.25	-999.25	23.69	3.23
8680.0	7.62	2.34	0.25	75.69	0.23	0.18	-999.25	-999.25	23.54	2.15
8680.5	8.21	2.33	0.26	75.89	0.24	0.18	-999.25	-999.25	23.94	2.96
8681.0	8.81	2.33	0.26	76.09	0.24	0.18	-999.25	-999.25	24.34	3.77
8681.5	9.99	2.34	0.26	78.09	0.24	0.18	-999.25	-999.25	23.35	2.69
8682.0	9.98	2.34	0.26	78.89	0.24	0.18	-999.25	-999.25	22.10	1.24
8682.5	9.97	2.35	0.25	79.68	0.23	0.19	-999.25	-999.25	21.70	1.49
8683.0	10.36	2.36	0.24	78.48	0.22	0.22	-999.25	-999.25	21.30	1.74
8683.5	9.95	2.37	0.23	78.48	0.21	0.24	-999.25	-999.25	21.10	1.72
8684.0	9.53	2.39	0.22	77.68	0.20	0.26	-999.25	-999.25	20.90	1.70
8684.5	9.92	2.43	0.21	76.88	0.19	0.26	-999.25	-999.25	17.02	1.13
8685.0	11.51	2.44	0.19	75.68	0.18	0.26	-999.25	-999.25	15.83	1.02
8685.5	11.91	2.45	0.19	73.68	0.18	0.27	-999.25	-999.25	16.03	1.15
8686.0	11.90	2.43	0.20	70.48	0.19	0.27	-999.25	-999.25	16.66	1.19
8686.5	9.88	2.39	0.21	70.48	0.20	0.28	-999.25	-999.25	19.56	0.74
8687.0	9.06	2.37	0.22	70.88	0.21	0.27	-999.25	-999.25	22.08	0.50
8687.5	9.85	2.36	0.24	71.28	0.22	0.24	-999.25	-999.25	22.59	1.28
8688.0	10.24	2.35	0.24	73.28	0.23	0.22	-999.25	-999.25	23.10	2.06
8688.5	10.23	2.34	0.25	75.28	0.23	0.20	-999.25	-999.25	23.30	1.41
8689.0	10.22	2.34	0.25	77.68	0.24	0.19	-999.25	-999.25	23.50	0.77
8689.5	10.61	2.32	0.26	78.48	0.24	0.19	-999.25	-999.25	21.60	0.96
8690.0	11.00	2.32	0.26	78.48	0.24	0.19	-999.25	-999.25	19.70	1.16
8690.5	9.78	2.31	0.25	78.87	0.24	0.19	-999.25	-999.25	18.44	1.32
8691.0	8.97	2.31	0.24	78.87	0.24	0.20	-999.25	-999.25	20.59	1.34
8691.5	9.36	2.31	0.23	78.07	0.23	0.22	-999.25	-999.25	20.90	1.26
8692.0	9.75	2.32	0.23	77.67	0.23	0.23	-999.25	-999.25	19.89	1.21
8692.5	9.13	2.33	0.22	76.87	0.22	0.23	-999.25	-999.25	20.03	1.27
8693.0	8.93	2.35	0.23	75.67	0.22	0.23	-999.25	-999.25	20.41	1.32
8693.5	9.31	2.35	0.23	74.87	0.22	0.23	-999.25	-999.25	21.03	1.38
8694.0	10.10	2.35	0.23	74.07	0.22	0.22	-999.25	-999.25	21.65	1.42
8694.5	10.09	2.34	0.23	74.47	0.22	0.22	-999.25	-999.25	22.27	1.47
8695.0	10.08	2.34	0.23	74.87	0.23	0.23	-999.25	-999.25	22.89	1.52
8695.5	9.67	2.34	0.24	75.67	0.23	0.23	-999.25	-999.25	23.41	1.55
8696.0	8.45	2.32	0.25	76.07	0.24	0.22	-999.25	-999.25	23.83	1.55
8696.5	8.84	2.31	0.26	76.47	0.24	0.20	-999.25	-999.25	24.24	1.55
8697.0	9.63	2.31	0.28	77.67	0.25	0.19	-999.25	-999.25	24.66	1.55
8697.5	10.02	2.32	0.28	79.67	0.25	0.17	-999.25	-999.25	25.15	1.40
8698.0	9.61	2.32	0.27	80.46	0.25	0.17	-999.25	-999.25	25.27	1.38
8698.5	9.99	2.32	0.26	80.86	0.25	0.16	-999.25	-999.25	24.58	1.77
8699.0	10.39	2.30	0.26	80.86	0.25	0.16	-999.25	-999.25	24.02	2.10
8699.5	10.37	2.30	0.27	80.86	0.25	0.16	-999.25	-999.25	24.13	2.17
8700.0	9.96	2.29	0.27	80.86	0.25	0.16	-999.25	-999.25	24.08	2.22
8700.5	9.15	2.28	0.26	80.86	0.25	0.16	-999.25	-999.25	23.74	2.21
8701.0	9.14	2.31	0.26	80.86	0.25	0.16	-999.25	-999.25	23.40	2.21
8701.5	9.12	2.33	0.25	80.86	0.24	0.17	-999.25	-999.25	22.15	1.69
8702.0	9.51	2.34	0.25	80.86	0.23	0.18	-999.25	-999.25	20.98	1.23
8702.5	10.71	2.34	0.24	80.46	0.23	0.19	-999.25	-999.25	20.25	1.09
8703.0	11.50	2.34	0.24	80.46	0.23	0.21	-999.25	-999.25	19.52	0.94
8703.5	11.49	2.34	0.24	79.66	0.23	0.21	-999.25	-999.25	20.54	0.98
8704.0	11.08	2.33	0.23	78.86	0.23	0.21	-999.25	-999.25	21.90	1.06
8704.5	11.06	2.34	0.22	78.86	0.22	0.21	-999.25	-999.25	20.94	0.85
8705.0	11.05	2.35	0.22	78.86	0.22	0.22	-999.25	-999.25	20.49	0.85
8705.5	10.63	2.37	0.22	76.45	0.21	0.22	-999.25	-999.25	21.04	1.24
8706.0	10.22	2.38	0.23	75.25	0.21	0.22	-999.25	-999.25	21.60	1.64
8706.5	10.61	2.37	0.24	74.85	0.22	0.22	-999.25	-999.25	20.19	1.41
8707.0	11.00	2.34	0.24	75.65	0.23	0.21	-999.25	-999.25	18.84	1.19
8707.5	11.39	2.34	0.24	76.45	0.23	0.21	-999.25	-999.25	17.84	1.02
8708.0	10.57	2.34	0.23	77.25	0.22	0.21	-999.25	-999.25	16.84	0.84
8708.5	10.16	2.35	0.22	77.25	0.21	0.21	-999.25	-999.25	14.85	0.61
