# LAS format log file from PETREL
# Project units are specified as depth units
#==================================================================
~Version information
VERS.   2.0:
WRAP.   NO:
#==================================================================
~Well
STRT .ft        8380.0 :
STOP .ft        8628.0 :
STEP .ft        0.5    :
NULL .          -999.25  :
COMP.           : COMPANY
WELL.  HW-26    : WELL
FLD.   COSTA    : FIELD
LOC.            : LOCATION
SRVC.           : SERVICE COMPANY
DATE.  2018-02-06 14:55:42   : Log Export Date {yyyy-MM-dd HH:mm:ss}
PROV.           : PROVINCE
UWI.   HW-26    : UNIQUE WELL ID
API.            : API NUMBER
#==================================================================
~Curve
DEPT .ft                  : DEPTH
GR .gAPI                  : GR
RHOB .g/cm3               : RHOB
NPHI .ft3/ft3             : NPHI
DT .us/ft                 : DT
PHIE .ft3/ft3             : PHIE
RT .ohm.m                 : RT
SW .                      : SW
SO . 			  : SO
CORE_POR .ft3/ft3         : CORE_POR
CORE_PERM .mD             : CORE_PERM
~Parameter
#==================================================================
~Ascii
# ...
8582.5	29.73	2.43	0.14	-999.25	0.16	0.60	0.98	0.02	19.10	0.93
8583.0	28.46	2.47	0.12	-999.25	0.14	0.69	-999.25	-999.25	17.25	0.66
8583.5	28.64	2.50	0.10	-999.25	0.11	0.81	-999.25	-999.25	15.40	0.39
8584.0	29.58	2.53	0.09	-999.25	0.10	0.95	-999.25	-999.25	13.09	-999.25
8584.5	30.73	2.53	0.10	-999.25	0.11	1.07	-999.25	-999.25	10.70	-999.25
8585.0	30.73	2.51	0.12	-999.25	0.12	1.16	0.94	0.06	11.95	-999.25
8585.5	29.43	2.49	0.13	-999.25	0.13	1.21	0.84	0.16	13.12	0.21
8586.0	30.22	2.48	0.13	-999.25	0.14	1.21	0.82	0.18	13.89	0.24
8586.5	29.65	2.50	0.11	-999.25	0.12	1.19	0.91	0.09	13.64	0.23
8587.0	28.99	2.52	0.11	-999.25	0.11	1.14	-999.25	-999.25	11.41	0.13
8587.5	28.67	2.51	0.11	-999.25	0.12	1.09	1.00	0.00	11.35	0.14
8588.0	28.25	2.49	0.13	-999.25	0.13	1.04	0.90	0.10	13.44	0.25
8588.5	29.07	2.47	0.15	-999.25	0.15	1.00	0.82	0.18	15.26	0.34
8589.0	27.37	2.46	0.15	-999.25	0.15	0.99	0.81	0.19	15.61	0.37
8589.5	29.03	2.46	0.13	-999.25	0.15	0.99	0.84	0.16	15.59	0.38
8590.0	31.14	2.47	0.12	-999.25	0.14	1.01	0.90	0.10	13.66	0.24
8590.5	32.68	2.49	0.11	-999.25	0.13	1.03	0.96	0.04	12.80	0.17
8591.0	33.50	2.50	0.11	-999.25	0.12	1.03	0.99	0.01	13.00	0.18
8591.5	34.27	2.50	0.10	-999.25	0.12	1.02	-999.25	-999.25	13.20	0.19
8592.0	33.00	2.49	0.12	-999.25	0.13	0.98	0.97	0.03	12.98	0.27
8592.5	33.57	2.47	0.13	-999.25	0.14	0.93	0.89	0.11	13.22	0.37
8593.0	33.84	2.44	0.15	-999.25	0.16	0.88	0.81	0.19	15.86	0.54
8593.5	36.83	2.43	0.15	-999.25	0.16	0.85	0.81	0.19	18.50	0.71
8594.0	37.97	2.44	0.15	-999.25	0.15	0.86	0.86	0.14	17.96	0.67
8594.5	37.75	2.46	0.14	-999.25	0.14	0.88	0.93	0.07	17.18	0.60
8595.0	37.05	2.49	0.12	-999.25	0.13	0.94	-999.25	-999.25	15.93	0.46
8595.5	35.31	2.51	0.10	-999.25	0.11	1.01	-999.25	-999.25	14.34	0.33
8596.0	35.98	2.53	0.09	-999.25	0.10	1.09	-999.25	-999.25	12.42	0.20
8596.5	35.73	2.53	0.11	-999.25	0.11	1.16	-999.25	-999.25	10.50	0.07
8597.0	35.38	2.51	0.12	-999.25	0.12	1.21	0.91	0.09	12.42	0.16
8597.5	34.90	2.49	0.13	-999.25	0.13	1.24	0.82	0.18	14.34	0.25
8598.0	33.98	2.48	0.12	-999.25	0.13	1.27	0.81	0.19	15.24	0.30
8598.5	36.24	2.50	0.11	-999.25	0.12	1.32	0.88	0.12	15.12	0.33
8599.0	37.54	2.53	0.09	-999.25	0.09	1.39	-999.25	-999.25	13.05	0.23
8599.5	40.67	2.57	0.06	-999.25	0.08	1.49	-999.25	-999.25	10.60	0.10
8600.0	41.50	2.60	0.05	-999.25	0.06	1.60	-999.25	-999.25	7.76	0.07
8600.5	42.11	2.62	0.05	-999.25	0.05	1.69	-999.25	-999.25	7.25	-999.25
8601.0	42.64	2.62	0.05	-999.25	0.05	1.72	-999.25	-999.25	7.19	-999.25
8601.5	45.24	2.62	0.06	-999.25	0.06	1.67	-999.25	-999.25	7.13	-999.25
8602.0	47.99	2.61	0.06	-999.25	0.06	1.56	-999.25	-999.25	7.26	-999.25
8602.5	47.94	2.60	0.07	-999.25	0.07	1.42	-999.25	-999.25	7.59	-999.25
8603.0	44.68	2.59	0.09	-999.25	0.08	1.29	-999.25	-999.25	8.58	0.83
8603.5	46.59	2.61	0.09	-999.25	0.09	1.18	-999.25	-999.25	10.88	0.43
8604.0	48.15	2.64	0.09	-999.25	0.09	1.09	-999.25	-999.25	12.28	0.25
8604.5	51.29	2.66	0.09	-999.25	0.08	1.01	-999.25	-999.25	12.16	0.33
8605.0	48.95	2.63	0.09	-999.25	0.08	0.92	-999.25	-999.25	12.29	0.25
8605.5	51.93	2.58	0.10	-999.25	0.09	0.83	-999.25	-999.25	12.41	0.18
8606.0	53.70	2.53	0.11	-999.25	0.11	0.74	-999.25	-999.25	12.49	0.19
8606.5	56.62	2.50	0.13	-999.25	0.13	0.65	-999.25	-999.25	12.57	0.20
8607.0	57.38	2.46	0.15	-999.25	0.15	0.58	-999.25	-999.25	14.23	0.38
8607.5	56.89	2.43	0.16	-999.25	0.17	0.52	-999.25	-999.25	16.54	0.63
8608.0	57.26	2.41	0.17	-999.25	0.18	0.48	0.98	0.02	18.04	0.83
8608.5	56.26	2.40	0.17	-999.25	0.18	0.45	0.99	0.01	19.37	1.02
8609.0	56.46	2.40	0.17	-999.25	0.19	0.44	1.00	0.00	19.84	1.16
8609.5	55.60	2.40	0.17	-999.25	0.18	0.43	-999.25	-999.25	20.30	1.30
8610.0	58.25	2.40	0.17	-999.25	0.19	0.44	0.99	0.01	19.10	1.30
8610.5	60.25	2.40	0.17	-999.25	-999.25	0.46	-999.25	-999.25	18.38	1.27
8611.0	61.45	2.40	0.16	-999.25	-999.25	0.49	-999.25	-999.25	18.60	1.20
8611.5	62.06	2.40	0.14	-999.25	-999.25	0.53	-999.25	-999.25	18.82	1.13
8612.0	65.11	2.42	0.12	-999.25	-999.25	0.59	-999.25	-999.25	17.27	0.83
8612.5	68.66	2.45	0.10	-999.25	-999.25	0.66	-999.25	-999.25	14.80	0.43
8613.0	69.89	2.48	0.09	-999.25	-999.25	0.75	-999.25	-999.25	12.95	0.34
8613.5	69.89	2.49	0.09	-999.25	-999.25	0.85	-999.25	-999.25	11.50	0.27
8614.0	69.89	2.49	0.10	-999.25	-999.25	0.95	-999.25	-999.25	12.10	0.24
8614.5	69.89	2.49	0.10	-999.25	-999.25	1.06	-999.25	-999.25	12.24	0.21
8615.0	69.89	2.49	0.09	-999.25	-999.25	1.19	-999.25	-999.25	11.46	0.15
8615.5	69.89	2.52	0.07	-999.25	-999.25	1.36	-999.25	-999.25	10.36	0.13
8616.0	69.89	2.57	0.06	-999.25	-999.25	1.59	-999.25	-999.25	9.08	0.12
8616.5	69.89	2.60	0.05	-999.25	-999.25	1.91	-999.25	-999.25	7.80	0.11
8617.0	69.89	2.64	0.04	-999.25	-999.25	2.32	-999.25	-999.25	6.82	0.08
8617.5	69.89	2.65	0.04	-999.25	-999.25	2.80	-999.25	-999.25	5.90	0.05
8618.0	69.89	2.68	0.04	-999.25	-999.25	3.31	-999.25	-999.25	5.68	0.19
8618.5	69.89	2.68	0.04	-999.25	-999.25	3.77	-999.25	-999.25	5.50	0.48
8619.0	69.89	2.69	0.04	-999.25	-999.25	4.17	-999.25	-999.25	5.50	1.52
8619.5	69.89	2.70	0.04	-999.25	-999.25	4.69	-999.25	-999.25	5.46	2.25
8620.0	69.89	2.69	0.04	-999.25	-999.25	4.86	-999.25	-999.25	5.22	1.29
8620.5	69.89	2.66	0.04	-999.25	-999.25	4.45	-999.25	-999.25	4.98	0.34
8621.0	69.89	2.64	0.05	-999.25	-999.25	3.99	-999.25	-999.25	5.60	0.02
8621.5	69.89	2.63	0.05	-999.25	-999.25	3.75	-999.25	-999.25	6.40	0.03
8622.0	69.89	2.63	0.05	-999.25	-999.25	3.62	-999.25	-999.25	6.70	0.04
8622.5	69.89	2.64	0.06	-999.25	-999.25	3.60	-999.25	-999.25	6.87	0.05
8623.0	69.89	2.65	0.05	-999.25	-999.25	3.70	-999.25	-999.25	6.80	0.04
8623.5	69.89	2.66	0.05	-999.25	-999.25	3.94	-999.25	-999.25	6.73	0.03
8624.0	69.89	2.69	0.04	-999.25	-999.25	4.84	-999.25	-999.25	6.10	0.02
8624.5	69.89	2.71	0.04	-999.25	-999.25	6.30	-999.25	-999.25	5.20	0.01
8625.0	69.89	2.73	0.03	-999.25	-999.25	10.91	-999.25	-999.25	3.53	0.09
8625.5	69.89	2.73	0.03	-999.25	-999.25	15.53	-999.25	-999.25	2.30	0.11
8626.0	69.89	2.74	0.03	-999.25	-999.25	21.59	-999.25	-999.25	1.49	0.07
8626.5	69.89	2.75	0.02	-999.25	-999.25	32.53	-999.25	-999.25	0.68	0.02
8627.0	69.89	2.76	0.02	-999.25	-999.25	50.26	-999.25	-999.25	0.39	0.14
8627.5	69.89	2.76	0.01	-999.25	-999.25	71.80	-999.25	-999.25	0.38	0.34
8628.0	69.89	2.76	0.01	-999.25	-999.25	105.00	-999.25	-999.25	0.37	0.54
