# LAS format log file from PETREL
# Project units are specified as depth units
#==================================================================
~Version information
VERS.   2.0:
WRAP.   NO:
#==================================================================
~Well
STRT .ft        8475.0 :
STOP .ft        8825.0 :
STEP .ft        0.5    :
NULL .          -999.25  :
COMP.           : COMPANY
WELL.  HW-27    : WELL
FLD.   COSTA    : FIELD
LOC.            : LOCATION
SRVC.           : SERVICE COMPANY
DATE.  2018-02-06 14:55:42   : Log Export Date {yyyy-MM-dd HH:mm:ss}
PROV.           : PROVINCE
UWI.   HW-27    : UNIQUE WELL ID
API.            : API NUMBER
#==================================================================
~Curve
DEPT .ft                  : DEPTH
GR .gAPI                  : GR
RHOB .g/cm3               : RHOB
NPHI .ft3/ft3             : NPHI
DT .us/ft                 : DT
PHIE .ft3/ft3             : PHIE
RT .ohm.m                 : RT
SW .                      : SW
SO . 			  : SO
CORE_POR .ft3/ft3         : CORE_POR
CORE_PERM .mD             : CORE_PERM
~Parameter
#==================================================================
~Ascii
8621.0	27.37	2.64	0.05	55.85	0.03	22.43	-999.25	-999.25	1.15	-999.25
8621.5	27.42	2.63	0.05	55.47	0.03	22.77	-999.25	-999.25	1.13	-999.25
8622.0	27.50	2.61	0.05	55.68	0.01	23.16	-999.25	-999.25	1.12	-999.25
8622.5	29.10	2.61	0.05	55.68	0.01	23.64	-999.25	-999.25	1.10	-999.25
8623.0	30.36	2.63	0.05	55.26	0.01	24.48	-999.25	-999.25	1.08	-999.25
8623.5	29.62	2.65	0.05	54.72	0.01	25.16	-999.25	-999.25	1.07	-999.25
8624.0	26.55	2.67	0.05	54.06	0.01	25.43	-999.25	-999.25	1.05	-999.25
8624.5	24.41	2.69	0.05	54.20	0.01	25.16	-999.25	-999.25	1.03	-999.25
8625.0	24.14	2.70	0.05	54.91	0.01	24.80	-999.25	-999.25	1.02	-999.25
8625.5	24.95	2.67	0.06	55.25	0.01	25.00	-999.25	-999.25	1.00	-999.25
8626.0	26.12	2.64	0.06	55.61	0.01	23.63	-999.25	-999.25	0.98	-999.25
8626.5	29.10	2.61	0.07	55.48	0.01	22.00	-999.25	-999.25	0.97	-999.25
8627.0	32.06	2.60	0.07	55.97	0.01	23.23	-999.25	-999.25	0.95	-999.25
8627.5	30.47	2.62	0.06	55.68	0.01	22.89	-999.25	-999.25	0.93	-999.25
8628.0	27.61	2.63	0.06	55.41	0.01	22.12	-999.25	-999.25	0.92	-999.25
8628.5	26.82	2.63	0.05	54.93	0.01	21.93	-999.25	-999.25	0.90	-999.25
8629.0	28.80	2.63	0.05	54.17	0.01	22.11	-999.25	-999.25	0.88	-999.25
8629.5	30.33	2.65	0.05	54.00	0.01	22.58	-999.25	-999.25	0.87	-999.25
8630.0	29.52	2.67	0.04	53.96	0.01	23.22	-999.25	-999.25	0.85	-999.25
8630.5	28.39	2.68	0.04	54.01	0.01	23.01	-999.25	-999.25	0.83	-999.25
8631.0	26.83	2.69	0.04	53.77	0.01	22.16	-999.25	-999.25	0.82	-999.25
8631.5	25.76	2.69	0.04	53.17	0.01	20.48	-999.25	-999.25	0.80	-999.25
8632.0	27.52	2.68	0.05	54.50	0.01	18.22	-999.25	-999.25	1.10	-999.25
8632.5	31.15	2.65	0.05	55.85	0.01	15.65	-999.25	-999.25	1.40	0.47
8633.0	31.09	2.60	0.06	56.62	0.03	13.36	-999.25	-999.25	3.05	0.24
8633.5	28.19	2.56	0.08	57.39	0.05	11.05	-999.25	-999.25	4.70	0.02
8634.0	25.99	2.51	0.10	59.94	0.08	8.50	0.77	0.23	7.70	0.17
8634.5	25.53	2.46	0.11	60.49	0.11	7.16	0.60	0.40	10.70	0.32
8635.0	25.39	2.45	0.11	60.45	0.10	6.22	0.69	0.31	10.00	0.17
8635.5	23.12	2.47	0.10	60.09	0.09	5.76	0.78	0.22	9.30	0.02
8636.0	21.32	2.48	0.09	59.45	0.09	5.49	0.78	0.22	9.50	0.05
8636.5	20.98	2.52	0.08	58.68	0.10	6.24	0.71	0.29	9.70	0.07
8637.0	24.46	2.56	0.07	56.00	0.08	7.13	0.78	0.22	8.30	2.43
8637.5	26.17	2.61	0.06	53.70	0.07	8.08	0.88	0.12	6.90	4.79
8638.0	27.05	2.64	0.05	53.06	0.04	7.73	-999.25	-999.25	4.25	-999.25
8638.5	27.69	2.66	0.05	53.91	0.02	5.91	-999.25	-999.25	1.60	-999.25
8639.0	29.17	2.63	0.07	55.73	0.02	4.01	-999.25	-999.25	2.20	-999.25
8639.5	29.82	2.56	0.09	58.98	0.03	2.91	-999.25	-999.25	2.80	0.32
8640.0	28.64	2.48	0.12	62.53	0.08	1.77	-999.25	-999.25	7.55	0.98
8640.5	24.19	2.41	0.17	66.07	0.12	1.73	-999.25	-999.25	12.30	1.65
8641.0	19.33	2.35	0.19	69.04	0.15	1.29	-999.25	-999.25	15.25	3.87
8641.5	17.84	2.32	0.20	70.03	0.18	1.07	0.92	0.08	18.20	6.09
8642.0	16.76	2.32	0.21	70.52	0.18	0.86	-999.25	-999.25	18.40	3.95
8642.5	16.30	2.31	0.22	71.01	0.19	0.75	-999.25	-999.25	18.60	1.80
8643.0	16.30	2.31	0.23	71.46	0.19	0.65	-999.25	-999.25	19.25	2.14
8643.5	15.93	2.30	0.22	71.51	0.20	0.61	-999.25	-999.25	19.90	2.49
8644.0	15.50	2.30	0.21	70.29	0.19	0.65	-999.25	-999.25	18.85	1.62
8644.5	14.80	2.31	0.20	68.60	0.18	0.71	-999.25	-999.25	17.80	0.75
8645.0	14.88	2.32	0.19	66.72	0.17	0.77	-999.25	-999.25	17.45	0.79
8645.5	15.32	2.36	0.17	64.69	0.17	0.83	-999.25	-999.25	17.10	0.83
8646.0	15.63	2.39	0.15	62.67	0.15	0.94	-999.25	-999.25	15.35	0.50
8646.5	17.11	2.43	0.12	60.73	0.14	1.11	-999.25	-999.25	13.60	0.17
8647.0	18.90	2.47	0.10	59.18	0.09	1.21	-999.25	-999.25	8.85	-999.25
8647.5	20.81	2.50	0.08	58.71	0.04	1.20	-999.25	-999.25	4.10	-999.25
8648.0	23.03	2.47	0.09	59.81	0.06	1.02	-999.25	-999.25	5.80	-999.25
8648.5	23.89	2.40	0.11	61.74	0.08	0.91	-999.25	-999.25	7.50	0.32
8649.0	23.51	2.33	0.17	65.68	0.16	0.81	-999.25	-999.25	15.55	64.36
8649.5	20.94	2.26	0.23	73.80	0.24	0.80	0.82	0.18	23.60	128.39
8650.0	17.99	2.23	0.27	76.67	0.26	0.62	0.84	0.16	26.10	147.01
8650.5	16.85	2.23	0.28	78.66	0.29	0.44	0.91	0.09	28.60	165.63
8651.0	17.05	2.23	0.30	80.13	0.27	0.38	-999.25	-999.25	27.10	459.63
8651.5	17.81	2.23	0.31	80.78	0.26	0.34	-999.25	-999.25	25.60	753.62
8652.0	18.20	2.23	0.33	81.66	0.28	0.32	-999.25	-999.25	27.50	403.46
8652.5	17.70	2.22	0.32	82.47	0.29	0.31	-999.25	-999.25	29.40	53.30
8653.0	15.89	2.22	0.30	83.22	0.28	0.31	-999.25	-999.25	28.10	39.65
8653.5	14.22	2.22	0.30	83.97	0.27	0.29	-999.25	-999.25	26.80	25.99
8654.0	14.10	2.22	0.32	82.59	0.27	0.31	-999.25	-999.25	27.40	29.58
8654.5	14.53	2.22	0.34	82.53	0.28	0.31	-999.25	-999.25	28.00	33.16
8655.0	15.10	2.23	0.34	83.06	0.27	0.29	-999.25	-999.25	27.45	156.96
8655.5	15.52	2.23	0.33	82.74	0.27	0.24	-999.25	-999.25	26.90	280.77
8656.0	14.68	2.23	0.34	82.56	0.29	0.21	-999.25	-999.25	28.70	149.85
8656.5	13.80	2.22	0.33	83.04	0.31	0.19	-999.25	-999.25	30.50	18.94
8657.0	13.76	2.21	0.33	84.42	0.29	0.18	-999.25	-999.25	29.25	12.80
8657.5	14.42	2.20	0.32	85.76	0.28	0.17	-999.25	-999.25	28.00	6.67
8658.0	15.09	2.20	0.30	86.63	0.29	0.17	-999.25	-999.25	29.00	14.12
8658.5	15.13	2.19	0.30	86.91	0.30	0.17	-999.25	-999.25	30.00	21.57
8659.0	14.81	2.20	0.31	86.72	0.30	0.17	-999.25	-999.25	29.90	20.25
8659.5	14.88	2.20	0.30	86.20	0.30	0.17	-999.25	-999.25	29.80	18.94
8660.0	14.80	2.21	0.29	86.30	0.29	0.17	-999.25	-999.25	29.10	24.25
8660.5	13.23	2.21	0.28	85.96	0.28	0.17	-999.25	-999.25	28.40	29.56
8661.0	12.58	2.21	0.28	86.00	0.28	0.18	-999.25	-999.25	28.00	15.91
8661.5	12.65	2.21	0.27	86.04	0.28	0.18	-999.25	-999.25	27.60	2.26
8662.0	12.52	2.21	0.28	84.57	0.29	0.18	-999.25	-999.25	29.30	10.16
8662.5	13.03	2.20	0.30	85.29	0.31	0.17	-999.25	-999.25	31.00	18.06
8663.0	13.17	2.21	0.31	84.75	0.30	0.18	-999.25	-999.25	30.30	11.63
8663.5	12.53	2.21	0.31	84.51	0.30	0.18	-999.25	-999.25	29.60	5.20
8664.0	11.61	2.22	0.31	83.96	0.29	0.18	-999.25	-999.25	29.50	6.93
8664.5	11.39	2.21	0.31	83.96	0.29	0.17	-999.25	-999.25	29.40	8.66
8665.0	12.84	2.22	0.32	83.76	0.27	0.16	-999.25	-999.25	27.05	10.34
8665.5	13.61	2.22	0.32	83.27	0.25	0.15	-999.25	-999.25	24.70	12.03
8666.0	13.03	2.21	0.32	82.96	0.26	0.14	-999.25	-999.25	26.20	8.98
8666.5	12.64	2.22	0.32	82.89	0.28	0.14	-999.25	-999.25	27.70	5.93
8667.0	12.70	2.22	0.30	82.63	0.27	0.15	-999.25	-999.25	27.40	4.25
8667.5	12.76	2.22	0.29	82.33	0.27	0.15	-999.25	-999.25	27.10	2.57
8668.0	13.02	2.22	0.31	82.35	0.25	0.14	-999.25	-999.25	25.50	3.20
8668.5	13.64	2.22	0.31	82.42	0.24	0.16	-999.25	-999.25	23.90	3.83
8669.0	14.11	2.22	0.32	82.27	0.26	0.16	-999.25	-999.25	26.25	3.83
8669.5	14.23	2.22	0.31	82.05	0.29	0.15	-999.25	-999.25	28.60	3.83
8670.0	14.58	2.22	0.29	81.38	0.30	0.16	-999.25	-999.25	29.80	11.82
8670.5	14.95	2.22	0.29	80.33	0.31	0.18	-999.25	-999.25	31.00	19.81
8671.0	15.03	2.22	0.29	79.22	0.28	0.20	-999.25	-999.25	28.05	11.66
8671.5	14.92	2.23	0.28	78.38	0.25	0.21	-999.25	-999.25	25.10	3.51
8672.0	15.11	2.24	0.27	77.94	0.25	0.24	-999.25	-999.25	24.75	5.67
8672.5	14.73	2.26	0.27	77.17	0.24	0.28	-999.25	-999.25	24.40	7.82
8673.0	14.26	2.27	0.26	75.82	0.24	0.35	-999.25	-999.25	23.60	9.93
8673.5	14.15	2.26	0.25	74.31	0.23	0.41	-999.25	-999.25	22.80	12.03
8674.0	13.68	2.28	0.24	72.56	0.21	0.49	-999.25	-999.25	-999.25	-999.25
8674.5	14.10	2.31	0.23	69.96	0.25	0.55	0.94	0.06	25.00	2.57
8675.0	15.01	2.35	0.21	67.25	0.17	0.58	-999.25	-999.25	-999.25	-999.25
8675.5	16.31	2.37	0.20	65.87	0.18	0.62	-999.25	-999.25	18.40	0.40
8676.0	17.86	2.38	0.19	65.65	0.14	0.63	-999.25	-999.25	-999.25	-999.25
8676.5	19.46	2.35	0.19	66.76	0.13	0.58	-999.25	-999.25	12.60	0.12
8677.0	18.37	2.31	0.21	68.94	0.15	0.54	-999.25	-999.25	-999.25	-999.25
8677.5	16.60	2.28	0.24	71.61	0.22	0.44	-999.25	-999.25	21.60	42.25
8678.0	15.74	2.27	0.27	74.40	0.20	0.35	-999.25	-999.25	-999.25	-999.25
8678.5	15.45	2.25	0.28	76.85	0.23	0.28	-999.25	-999.25	23.20	25.10
8679.0	14.10	2.24	0.28	78.90	0.23	0.22	-999.25	-999.25	-999.25	-999.25
8679.5	12.30	2.23	0.28	80.40	0.26	0.18	-999.25	-999.25	25.80	4.15
8680.0	11.81	2.23	0.30	81.37	0.25	0.16	-999.25	-999.25	24.85	3.52
8680.5	12.49	2.23	0.30	81.81	0.24	0.15	-999.25	-999.25	23.90	2.88
8681.0	13.36	2.23	0.28	81.93	0.26	0.14	-999.25	-999.25	26.20	5.35
