# LAS format log file from PETREL
# Project units are specified as depth units
#==================================================================
~Version information
VERS.   2.0:
WRAP.   NO:
#==================================================================
~Well
STRT .ft        8140.0 :
STOP .ft        8440.0 :
STEP .ft        0.5    :
NULL .          -999.25  :
COMP.           : COMPANY
WELL.  HW-25    : WELL
FLD.   COSTA    : FIELD
LOC.            : LOCATION
SRVC.           : SERVICE COMPANY
DATE.  2018-02-06 14:55:41   : Log Export Date {yyyy-MM-dd HH:mm:ss}
PROV.           : PROVINCE
UWI.   HW-25    : UNIQUE WELL ID
API.            : API NUMBER
#==================================================================
~Curve
DEPT .ft                  : DEPTH
GR .gAPI                  : GR
RHOB .g/cm3               : RHOB
NPHI .ft3/ft3             : NPHI
DT .us/ft                 : DT
PHIE .ft3/ft3             : PHIE
RT .ohm.m                 : RT
SW .                      : SW
SO . 			  : SO
CORE_POR .ft3/ft3         : CORE_POR
CORE_PERM .mD             : CORE_PERM
~Parameter
#==================================================================
~Ascii
8234.0	30.32	2.67	0.01	-999.25	0.00	20.36	-999.25	-999.25	2.90	4.70
8234.5	38.50	2.69	0.02	-999.25	0.00	17.16	-999.25	-999.25	2.45	2.40
8235.0	44.57	2.69	0.03	-999.25	0.00	14.52	-999.25	-999.25	2.00	0.10
8235.5	48.66	2.70	0.05	-999.25	0.00	11.59	-999.25	-999.25	1.70	0.75
8236.0	47.47	2.70	0.05	-999.25	0.00	9.89	-999.25	-999.25	1.40	1.40
8236.5	40.99	2.71	0.05	-999.25	0.00	10.14	-999.25	-999.25	1.60	0.72
8237.0	36.41	2.71	0.03	-999.25	0.00	11.19	-999.25	-999.25	1.80	0.04
8237.5	35.47	2.71	0.03	-999.25	0.00	11.99	-999.25	-999.25	1.40	0.03
8238.0	33.96	2.71	0.03	-999.25	0.00	12.34	-999.25	-999.25	1.00	0.01
8238.5	33.14	2.71	0.03	-999.25	0.00	12.45	-999.25	-999.25	1.70	0.10
8239.0	36.33	2.72	0.03	-999.25	0.00	12.31	-999.25	-999.25	2.40	0.18
8239.5	39.57	2.71	0.04	-999.25	0.00	11.99	-999.25	-999.25	2.21	0.10
8240.0	39.95	2.71	0.05	-999.25	0.00	11.82	-999.25	-999.25	2.03	0.02
8240.5	38.72	2.71	0.05	-999.25	0.00	11.84	-999.25	-999.25	1.96	0.29
8241.0	37.39	2.71	0.05	-999.25	0.00	12.02	-999.25	-999.25	1.92	0.63
8241.5	35.57	2.71	0.04	-999.25	0.00	13.19	-999.25	-999.25	1.87	0.56
8242.0	33.08	2.71	0.03	-999.25	0.00	15.25	-999.25	-999.25	1.82	0.29
8242.5	31.64	2.71	0.02	-999.25	0.00	16.85	-999.25	-999.25	1.64	0.19
8243.0	32.60	2.71	0.02	-999.25	0.00	18.16	-999.25	-999.25	1.31	0.26
8243.5	34.00	2.72	0.02	-999.25	0.00	18.75	-999.25	-999.25	1.24	0.35
8244.0	34.65	2.72	0.02	-999.25	0.00	18.92	-999.25	-999.25	1.30	0.45
8244.5	34.25	2.72	0.02	-999.25	0.00	19.03	-999.25	-999.25	1.25	0.23
8245.0	33.00	2.72	0.02	-999.25	0.00	19.16	-999.25	-999.25	1.20	0.01
8245.5	31.36	2.72	0.02	-999.25	0.00	19.45	-999.25	-999.25	1.24	0.65
8246.0	29.48	2.72	0.02	-999.25	0.00	20.33	-999.25	-999.25	1.28	1.28
8246.5	28.30	2.72	0.02	-999.25	0.00	21.03	-999.25	-999.25	1.33	1.95
8247.0	28.20	2.72	0.01	-999.25	0.00	24.08	-999.25	-999.25	1.40	2.70
8247.5	29.34	2.72	0.01	-999.25	0.00	27.85	-999.25	-999.25	0.84	0.01
8248.0	30.55	2.72	0.01	-999.25	0.00	32.16	-999.25	-999.25	0.88	0.01
8248.5	29.80	2.73	0.00	-999.25	0.00	37.63	-999.25	-999.25	0.93	0.01
8249.0	26.26	2.72	0.00	-999.25	0.00	43.64	-999.25	-999.25	0.98	0.01
8249.5	26.10	2.72	0.00	-999.25	0.00	51.33	-999.25	-999.25	0.93	1.74
8250.0	27.08	2.72	0.00	-999.25	0.00	59.32	-999.25	-999.25	0.80	5.20
8250.5	24.71	2.72	-0.01	-999.25	0.00	67.49	-999.25	-999.25	1.05	2.62
8251.0	26.45	2.72	0.00	-999.25	0.00	75.35	-999.25	-999.25	1.30	0.04
8251.5	28.50	2.72	0.00	-999.25	0.00	78.66	-999.25	-999.25	1.85	0.13
8252.0	28.86	2.71	0.01	-999.25	0.00	79.86	-999.25	-999.25	2.40	0.22
8252.5	28.68	2.70	0.02	-999.25	0.00	81.17	-999.25	-999.25	5.09	0.24
8253.0	28.13	2.68	0.04	-999.25	0.00	82.58	-999.25	-999.25	7.77	0.26
8253.5	26.82	2.64	0.06	-999.25	0.02	84.61	0.57	0.43	12.86	2.15
8254.0	25.51	2.60	0.08	-999.25	0.05	86.39	0.25	0.75	18.40	4.40
8254.5	20.44	2.50	0.11	-999.25	0.12	90.62	0.10	0.90	19.35	3.20
8255.0	18.57	2.40	0.12	-999.25	0.18	96.93	0.07	0.93	20.30	2.00
8255.5	18.25	2.39	0.10	-999.25	0.19	102.85	0.06	0.94	19.60	1.35
8256.0	18.04	2.42	0.07	-999.25	0.17	108.88	0.07	0.93	18.90	0.70
8256.5	17.18	2.47	0.03	-999.25	0.14	115.12	0.08	0.92	14.64	0.44
8257.0	15.79	2.57	0.00	-999.25	0.08	120.90	0.14	0.86	10.38	0.18
8257.5	15.10	2.67	0.00	-999.25	0.03	124.65	0.44	0.56	6.54	0.13
8258.0	14.52	2.70	0.00	-999.25	0.01	127.39	-999.25	-999.25	2.78	0.11
8258.5	14.79	2.69	0.00	-999.25	0.01	131.04	-999.25	-999.25	2.37	0.07
8259.0	16.08	2.69	0.00	-999.25	0.01	136.64	-999.25	-999.25	3.70	0.01
8259.5	16.39	2.70	0.01	-999.25	0.01	142.33	-999.25	-999.25	3.00	0.20
8260.0	13.94	2.70	0.02	-999.25	0.01	147.92	-999.25	-999.25	2.30	0.38
8260.5	12.14	2.67	0.04	-999.25	0.02	153.14	0.41	0.59	1.79	0.21
8261.0	11.86	2.62	0.06	-999.25	0.05	155.08	0.19	0.81	1.28	0.04
8261.5	12.43	2.54	0.09	-999.25	0.10	153.20	0.10	0.90	2.89	0.01
8262.0	12.74	2.46	0.12	-999.25	0.15	148.33	0.07	0.93	4.90	0.02
8262.5	11.71	2.38	0.14	-999.25	0.19	140.78	0.05	0.95	8.50	0.51
8263.0	10.38	2.33	0.16	-999.25	0.22	131.85	0.05	0.95	12.10	1.00
8263.5	9.27	2.30	0.17	-999.25	0.24	123.81	0.05	0.95	14.09	1.14
8264.0	8.33	2.29	0.18	-999.25	0.25	117.22	0.05	0.95	16.08	1.28
8264.5	7.99	2.27	0.19	-999.25	0.26	112.07	0.05	0.95	20.01	2.94
8265.0	8.40	2.25	0.19	-999.25	0.27	107.92	0.04	0.96	24.31	4.89
8265.5	9.44	2.24	0.19	-999.25	0.28	104.23	0.04	0.96	25.18	3.83
8266.0	10.95	2.24	0.19	-999.25	0.28	100.92	0.04	0.96	25.40	2.20
8266.5	12.26	2.24	0.19	-999.25	0.28	97.76	0.04	0.96	25.08	2.66
8267.0	12.75	2.24	0.19	-999.25	0.27	94.15	0.05	0.95	24.75	3.13
8267.5	12.19	2.25	0.18	-999.25	0.27	89.57	0.05	0.95	25.09	2.59
8268.0	10.58	2.27	0.18	-999.25	0.26	85.27	0.05	0.95	25.56	1.86
8268.5	9.19	2.29	0.17	-999.25	0.25	82.42	0.05	0.95	25.43	1.57
8269.0	9.47	2.30	0.18	-999.25	0.24	80.72	0.06	0.94	24.70	1.70
8269.5	10.69	2.30	0.18	-999.25	0.24	80.17	0.06	0.94	24.85	2.60
8270.0	11.88	2.29	0.18	-999.25	0.25	80.24	0.06	0.94	25.00	3.50
8270.5	12.05	2.27	0.18	-999.25	0.26	80.86	0.05	0.95	24.45	2.45
8271.0	10.63	2.25	0.19	-999.25	0.27	84.46	0.05	0.95	23.90	1.40
8271.5	9.75	2.23	0.19	-999.25	0.28	88.33	0.05	0.95	25.57	2.56
8272.0	10.07	2.22	0.19	-999.25	0.28	91.99	0.04	0.96	-999.25	-999.25
8272.5	10.50	2.22	0.18	-999.25	0.28	94.25	0.04	0.96	-999.25	-999.25
8273.0	10.88	2.23	0.18	-999.25	0.28	95.18	0.04	0.96	-999.25	-999.25
8273.5	11.81	2.24	0.18	-999.25	0.28	96.19	0.05	0.95	-999.25	-999.25
8274.0	13.05	2.24	0.18	-999.25	0.27	99.44	0.04	0.96	-999.25	-999.25
8274.5	14.25	2.24	0.18	-999.25	0.27	103.76	0.04	0.96	-999.25	-999.25
8275.0	14.28	2.24	0.18	-999.25	0.28	107.84	0.04	0.96	-999.25	-999.25
8275.5	12.83	2.23	0.18	-999.25	0.28	111.61	0.04	0.96	-999.25	-999.25
8276.0	11.34	2.22	0.17	-999.25	0.29	114.88	0.04	0.96	-999.25	-999.25
8276.5	11.03	2.21	0.17	-999.25	0.29	117.86	0.04	0.96	-999.25	-999.25
8277.0	11.48	2.21	0.17	-999.25	0.29	120.84	0.04	0.96	-999.25	-999.25
8277.5	11.70	2.22	0.18	-999.25	0.29	123.68	0.04	0.96	-999.25	-999.25
8278.0	11.54	2.22	0.18	-999.25	0.29	126.30	0.04	0.96	-999.25	-999.25
8278.5	11.30	2.22	0.17	-999.25	0.29	128.63	0.04	0.96	-999.25	-999.25
8279.0	11.10	2.22	0.16	-999.25	0.29	130.38	0.04	0.96	-999.25	-999.25
8279.5	10.98	2.22	0.16	-999.25	0.28	131.55	0.04	0.96	-999.25	-999.25
8280.0	10.89	2.23	0.16	-999.25	0.28	132.36	0.04	0.96	-999.25	-999.25
8280.5	10.61	2.24	0.16	-999.25	0.27	132.74	0.04	0.96	-999.25	-999.25
8281.0	10.32	2.25	0.17	-999.25	0.27	132.39	0.04	0.96	-999.25	-999.25
8281.5	10.36	2.26	0.19	-999.25	0.26	131.04	0.04	0.96	-999.25	-999.25
8282.0	10.24	2.26	0.20	-999.25	0.27	128.76	0.04	0.96	-999.25	-999.25
8282.5	10.11	2.24	0.19	-999.25	0.27	125.84	0.04	0.96	-999.25	-999.25
8283.0	10.13	2.23	0.19	-999.25	0.28	122.62	0.04	0.96	-999.25	-999.25
8283.5	10.17	2.23	0.20	-999.25	0.28	118.87	0.04	0.96	-999.25	-999.25
8284.0	10.08	2.23	0.20	-999.25	0.28	114.72	0.04	0.96	-999.25	-999.25
8284.5	10.20	2.22	0.20	-999.25	0.28	110.02	0.04	0.96	-999.25	-999.25
8285.0	11.09	2.22	0.19	-999.25	0.29	104.31	0.04	0.96	-999.25	-999.25
8285.5	12.46	2.21	0.18	-999.25	0.29	97.77	0.04	0.96	-999.25	-999.25
8286.0	14.14	2.22	0.18	-999.25	0.29	90.97	0.04	0.96	-999.25	-999.25
8286.5	14.67	2.22	0.18	-999.25	0.28	84.89	0.05	0.95	-999.25	-999.25
8287.0	12.69	2.23	0.18	-999.25	0.28	80.06	0.05	0.95	-999.25	-999.25
8287.5	10.55	2.24	0.17	-999.25	0.27	77.09	0.05	0.95	-999.25	-999.25
8288.0	9.70	2.26	0.17	-999.25	0.26	75.54	0.05	0.95	-999.25	-999.25
8288.5	10.09	2.28	0.15	-999.25	0.25	74.24	0.06	0.94	-999.25	-999.25
8289.0	10.74	2.31	0.14	-999.25	0.24	72.61	0.06	0.94	-999.25	-999.25
8289.5	10.73	2.33	0.14	-999.25	0.22	70.30	0.07	0.93	-999.25	-999.25
8290.0	10.85	2.34	0.16	-999.25	0.22	67.70	0.07	0.93	-999.25	-999.25
8290.5	10.84	2.32	0.17	-999.25	0.23	65.64	0.07	0.93	-999.25	-999.25
8291.0	11.36	2.29	0.18	-999.25	0.25	64.99	0.06	0.94	-999.25	-999.25
8291.5	12.32	2.26	0.18	-999.25	0.26	65.48	0.06	0.94	23.50	7.15
8292.0	12.97	2.24	0.19	-999.25	0.27	66.37	0.06	0.94	24.60	6.20
8292.5	12.69	2.24	0.19	-999.25	0.28	67.26	0.05	0.95	27.05	12.10
8293.0	11.62	2.23	0.20	-999.25	0.28	67.83	0.05	0.95	29.50	18.00
8293.5	10.63	2.22	0.20	-999.25	0.29	67.98	0.05	0.95	28.85	17.50
