# LAS format log file from PETREL
# Project units are specified as depth units
#==================================================================
~Version information
VERS.   2.0:
WRAP.   NO:
#==================================================================
~Well
STRT .ft        8475.0 :
STOP .ft        8825.0 :
STEP .ft        0.5    :
NULL .          -999.25  :
COMP.           : COMPANY
WELL.  HW-27    : WELL
FLD.   COSTA    : FIELD
LOC.            : LOCATION
SRVC.           : SERVICE COMPANY
DATE.  2018-02-06 14:55:42   : Log Export Date {yyyy-MM-dd HH:mm:ss}
PROV.           : PROVINCE
UWI.   HW-27    : UNIQUE WELL ID
API.            : API NUMBER
#==================================================================
~Curve
DEPT .ft                  : DEPTH
GR .gAPI                  : GR
RHOB .g/cm3               : RHOB
NPHI .ft3/ft3             : NPHI
DT .us/ft                 : DT
PHIE .ft3/ft3             : PHIE
RT .ohm.m                 : RT
SW .                      : SW
SO . 			  : SO
CORE_POR .ft3/ft3         : CORE_POR
CORE_PERM .mD             : CORE_PERM
~Parameter
#==================================================================
~Ascii
# ...
8742.5	13.85	2.23	0.31	79.60	0.22	0.14	-999.25	-999.25	21.50	0.78
8743.0	14.25	2.23	0.28	79.46	0.21	0.15	-999.25	-999.25	21.25	0.72
8743.5	14.18	2.23	0.26	78.71	0.21	0.17	-999.25	-999.25	21.00	0.67
8744.0	13.37	2.24	0.26	77.74	0.21	0.19	-999.25	-999.25	20.75	0.61
8744.5	13.26	2.24	0.25	76.69	0.20	0.21	-999.25	-999.25	20.50	0.55
8745.0	13.15	2.25	0.26	75.35	0.20	0.24	-999.25	-999.25	20.25	0.49
8745.5	13.14	2.26	0.26	73.44	0.20	0.26	-999.25	-999.25	20.00	0.43
8746.0	13.41	2.28	0.24	71.38	0.20	0.30	-999.25	-999.25	19.75	0.38
8746.5	13.79	2.30	0.22	69.55	0.19	0.35	-999.25	-999.25	19.50	0.32
8747.0	14.49	2.32	0.20	68.17	0.19	0.44	-999.25	-999.25	19.38	0.32
8747.5	15.23	2.32	0.20	67.19	0.19	0.54	-999.25	-999.25	19.25	0.32
8748.0	14.01	2.32	0.21	66.71	0.19	0.65	-999.25	-999.25	19.13	0.32
8748.5	12.78	2.31	0.20	66.96	0.19	0.74	-999.25	-999.25	19.00	0.32
8749.0	11.95	2.31	0.20	67.15	0.18	0.81	-999.25	-999.25	18.30	0.20
8749.5	11.52	2.31	0.20	67.33	0.18	0.82	-999.25	-999.25	17.60	0.07
8750.0	12.11	2.31	0.20	66.69	0.18	0.76	-999.25	-999.25	17.95	0.09
8750.5	13.01	2.32	0.21	66.10	0.18	0.66	-999.25	-999.25	18.30	0.12
8751.0	13.62	2.33	0.21	66.69	0.17	0.55	-999.25	-999.25	17.20	0.14
8751.5	13.76	2.33	0.22	67.24	0.16	0.47	-999.25	-999.25	16.10	0.17
8752.0	13.99	2.31	0.24	68.58	0.19	0.40	-999.25	-999.25	19.35	0.35
8752.5	13.62	2.29	0.29	70.17	0.23	0.31	-999.25	-999.25	22.60	0.54
8753.0	12.64	2.27	0.29	72.27	0.23	0.22	-999.25	-999.25	22.65	0.64
8753.5	12.73	2.25	0.31	74.08	0.23	0.19	-999.25	-999.25	22.70	0.75
8754.0	13.34	2.24	0.32	75.58	0.24	0.15	-999.25	-999.25	23.85	0.82
8754.5	13.88	2.23	0.34	76.97	0.25	0.13	-999.25	-999.25	25.00	0.90
8755.0	13.88	2.22	0.34	78.35	0.25	0.11	-999.25	-999.25	25.30	1.08
8755.5	13.88	2.21	0.33	79.58	0.26	0.11	-999.25	-999.25	25.60	1.27
8756.0	12.47	2.21	0.32	80.68	0.26	0.11	-999.25	-999.25	25.80	1.46
8756.5	11.36	2.21	0.33	80.91	0.26	0.11	-999.25	-999.25	26.00	1.65
8757.0	11.54	2.21	0.33	81.76	0.27	0.11	-999.25	-999.25	26.90	1.68
8757.5	12.11	2.22	-999.25	82.68	0.28	0.11	-999.25	-999.25	27.80	1.72
8758.0	12.17	2.21	-999.25	83.57	0.28	0.11	-999.25	-999.25	27.60	1.80
8758.5	12.11	2.21	-999.25	83.41	0.27	0.12	-999.25	-999.25	27.40	1.87
8759.0	12.00	2.21	-999.25	83.56	0.27	0.12	-999.25	-999.25	26.85	1.50
8759.5	11.62	2.21	-999.25	83.49	0.26	0.12	-999.25	-999.25	26.30	1.12
8760.0	12.30	2.21	-999.25	83.38	0.27	0.13	-999.25	-999.25	26.65	1.38
8760.5	12.80	2.22	-999.25	83.44	0.27	0.13	-999.25	-999.25	27.00	1.65
8761.0	12.65	2.22	-999.25	83.01	0.26	0.13	-999.25	-999.25	26.25	1.76
8761.5	11.44	2.21	-999.25	82.11	0.25	0.14	-999.25	-999.25	25.50	1.87
8762.0	11.12	2.21	-999.25	82.39	0.26	0.15	-999.25	-999.25	26.25	1.99
8762.5	10.72	2.22	-999.25	82.19	0.27	0.17	-999.25	-999.25	27.00	2.10
8763.0	10.40	2.22	-999.25	81.38	0.27	0.19	-999.25	-999.25	27.45	2.03
8763.5	10.58	2.22	-999.25	80.48	0.28	0.18	-999.25	-999.25	27.90	1.95
8764.0	10.90	2.22	-999.25	79.74	0.28	0.17	-999.25	-999.25	27.80	2.89
8764.5	11.34	2.22	-999.25	79.73	0.28	0.17	-999.25	-999.25	27.70	3.83
8765.0	11.38	2.22	-999.25	79.72	0.28	0.17	-999.25	-999.25	27.50	2.97
8765.5	10.88	2.22	-999.25	80.17	0.27	0.15	-999.25	-999.25	27.30	2.10
8766.0	11.03	2.22	-999.25	81.25	0.28	0.15	-999.25	-999.25	27.65	2.38
8766.5	11.55	2.22	-999.25	81.54	0.28	0.14	-999.25	-999.25	28.00	2.65
8767.0	12.07	2.23	-999.25	81.27	0.26	0.15	-999.25	-999.25	26.35	2.03
8767.5	12.47	2.24	-999.25	80.69	0.25	0.15	-999.25	-999.25	24.70	1.42
8768.0	12.48	2.23	-999.25	80.37	0.26	0.16	-999.25	-999.25	25.90	1.57
8768.5	12.21	2.23	-999.25	80.15	0.27	0.18	-999.25	-999.25	27.10	1.72
8769.0	12.12	2.23	-999.25	79.27	0.26	0.20	-999.25	-999.25	26.40	1.42
8769.5	12.74	2.23	-999.25	78.59	0.26	0.21	-999.25	-999.25	25.70	1.12
8770.0	12.53	2.24	-999.25	78.10	0.26	0.22	-999.25	-999.25	25.55	1.19
8770.5	12.63	2.24	-999.25	77.15	0.25	0.24	-999.25	-999.25	25.40	1.27
8771.0	13.43	2.25	-999.25	75.91	0.24	0.25	-999.25	-999.25	24.45	1.01
8771.5	13.50	2.26	-999.25	75.32	0.23	0.25	-999.25	-999.25	23.50	0.75
8772.0	13.50	2.26	-999.25	75.01	0.24	0.26	-999.25	-999.25	23.95	0.90
8772.5	12.40	2.25	-999.25	75.10	0.24	0.28	-999.25	-999.25	24.40	1.05
8773.0	11.92	2.24	-999.25	75.45	0.25	0.26	-999.25	-999.25	24.60	1.01
8773.5	11.75	2.24	-999.25	76.32	0.25	0.22	-999.25	-999.25	24.80	0.97
8774.0	11.63	2.24	-999.25	77.34	0.25	0.19	-999.25	-999.25	25.10	1.27
8774.5	11.91	2.24	-999.25	78.55	0.25	0.13	-999.25	-999.25	25.40	1.57
8775.0	11.81	2.22	-999.25	79.61	0.25	0.12	-999.25	-999.25	25.20	1.42
8775.5	11.61	2.21	-999.25	80.64	0.25	0.11	-999.25	-999.25	25.00	1.27
8776.0	12.66	2.21	-999.25	81.88	0.25	0.11	-999.25	-999.25	25.30	1.34
8776.5	13.63	2.21	-999.25	82.52	0.26	0.11	-999.25	-999.25	25.60	1.42
8777.0	14.37	2.21	-999.25	82.79	0.26	0.10	-999.25	-999.25	26.20	1.57
8777.5	14.40	2.22	-999.25	83.27	0.27	0.10	-999.25	-999.25	26.80	1.72
8778.0	14.28	2.22	-999.25	83.67	0.27	0.10	-999.25	-999.25	27.05	1.91
8778.5	13.45	2.22	-999.25	83.72	0.27	0.10	-999.25	-999.25	27.30	2.10
8779.0	12.94	2.22	-999.25	83.64	0.27	0.10	-999.25	-999.25	27.45	1.72
8779.5	12.23	2.22	-999.25	83.52	0.28	0.10	-999.25	-999.25	27.60	1.34
8780.0	12.11	2.22	-999.25	83.74	0.27	0.11	-999.25	-999.25	27.15	1.46
8780.5	12.11	2.21	-999.25	83.45	0.27	0.12	-999.25	-999.25	26.70	1.57
8781.0	12.54	2.20	-999.25	83.51	0.26	0.14	-999.25	-999.25	25.70	1.46
8781.5	12.81	2.19	-999.25	83.53	0.25	0.17	-999.25	-999.25	24.70	1.34
8782.0	12.82	2.20	-999.25	82.85	0.25	0.24	-999.25	-999.25	25.15	1.38
8782.5	12.99	2.21	-999.25	82.73	0.26	0.25	-999.25	-999.25	25.60	1.42
8783.0	12.92	2.22	-999.25	80.78	0.26	0.25	-999.25	-999.25	25.95	1.42
8783.5	12.97	2.22	-999.25	79.45	0.26	0.26	-999.25	-999.25	26.30	1.42
8784.0	13.73	2.23	-999.25	77.73	0.25	0.25	-999.25	-999.25	24.70	1.23
8784.5	14.36	2.24	-999.25	76.27	0.23	0.23	-999.25	-999.25	23.10	1.05
8785.0	13.58	2.24	-999.25	75.42	0.22	0.23	-999.25	-999.25	22.15	0.83
8785.5	13.14	2.25	-999.25	74.99	0.21	0.21	-999.25	-999.25	21.20	0.61
8786.0	12.96	2.25	-999.25	74.84	0.22	0.18	-999.25	-999.25	22.40	0.79
8786.5	12.77	2.23	-999.25	75.16	0.24	0.16	-999.25	-999.25	23.60	0.97
8787.0	13.33	2.21	-999.25	76.03	0.23	0.15	-999.25	-999.25	23.05	0.68
8787.5	13.85	2.21	-999.25	77.07	0.22	0.13	-999.25	-999.25	22.50	0.40
8788.0	12.99	2.21	-999.25	78.59	0.24	0.13	-999.25	-999.25	23.75	0.91
8788.5	12.78	2.22	-999.25	80.15	0.25	0.13	-999.25	-999.25	25.00	1.42
8789.0	12.75	2.22	-999.25	80.46	0.25	0.14	-999.25	-999.25	25.08	1.36
8789.5	12.74	2.23	-999.25	80.64	0.25	0.15	-999.25	-999.25	25.15	1.31
8790.0	13.04	2.23	-999.25	80.09	0.25	0.15	-999.25	-999.25	25.23	1.25
8790.5	13.14	2.22	-999.25	80.46	0.25	0.15	-999.25	-999.25	25.30	1.19
8791.0	14.04	2.22	-999.25	80.34	0.25	0.16	-999.25	-999.25	25.35	1.31
8791.5	14.77	2.21	-999.25	79.57	0.25	0.17	-999.25	-999.25	25.40	1.42
8792.0	14.87	2.21	-999.25	79.05	0.25	0.18	-999.25	-999.25	24.95	1.42
8792.5	14.41	2.22	-999.25	78.31	0.25	0.19	-999.25	-999.25	24.50	1.42
8793.0	14.39	2.23	-999.25	77.56	0.24	0.18	-999.25	-999.25	24.15	1.31
8793.5	14.57	2.23	-999.25	77.03	0.24	0.17	-999.25	-999.25	23.80	1.19
8794.0	14.23	2.23	-999.25	76.84	0.23	0.17	-999.25	-999.25	23.30	1.16
8794.5	13.59	2.23	-999.25	76.92	0.23	0.16	-999.25	-999.25	22.80	1.12
8795.0	13.19	2.22	-999.25	77.21	0.24	0.14	-999.25	-999.25	24.10	1.27
8795.5	12.60	2.21	-999.25	77.78	0.25	0.13	-999.25	-999.25	25.40	1.42
8796.0	12.62	2.21	-999.25	78.77	0.26	0.14	-999.25	-999.25	26.10	1.42
8796.5	12.62	2.21	-999.25	80.23	0.27	0.14	-999.25	-999.25	26.80	1.42
8797.0	12.03	2.22	-999.25	81.43	0.26	0.13	-999.25	-999.25	26.00	1.72
8797.5	12.59	2.22	-999.25	82.00	0.25	0.13	-999.25	-999.25	25.20	2.03
8798.0	13.36	2.21	-999.25	82.15	0.26	0.13	-999.25	-999.25	26.50	2.22
8798.5	13.43	2.21	-999.25	82.19	0.28	0.14	-999.25	-999.25	27.80	2.41
8799.0	13.73	2.22	-999.25	82.09	0.27	0.15	-999.25	-999.25	27.20	1.92
8799.5	14.59	2.23	-999.25	82.00	0.27	0.16	-999.25	-999.25	26.60	1.42
8800.0	15.14	2.23	-999.25	82.05	0.26	0.17	-999.25	-999.25	25.70	1.34
8800.5	14.90	2.24	-999.25	81.93	0.25	0.18	-999.25	-999.25	24.80	1.27
8801.0	13.86	2.25	-999.25	81.59	0.24	0.18	-999.25	-999.25	24.00	1.01
