# LAS format log file from PETREL
# Project units are specified as depth units
#==================================================================
~Version information
VERS.   2.0:
WRAP.   NO:
#==================================================================
~Well
STRT .ft        8380.0 :
STOP .ft        8628.0 :
STEP .ft        0.5    :
NULL .          -999.25  :
COMP.           : COMPANY
WELL.  HW-26    : WELL
FLD.   COSTA    : FIELD
LOC.            : LOCATION
SRVC.           : SERVICE COMPANY
DATE.  2018-02-06 14:55:42   : Log Export Date {yyyy-MM-dd HH:mm:ss}
PROV.           : PROVINCE
UWI.   HW-26    : UNIQUE WELL ID
API.            : API NUMBER
#==================================================================
~Curve
DEPT .ft                  : DEPTH
GR .gAPI                  : GR
RHOB .g/cm3               : RHOB
NPHI .ft3/ft3             : NPHI
DT .us/ft                 : DT
PHIE .ft3/ft3             : PHIE
RT .ohm.m                 : RT
SW .                      : SW
SO . 			  : SO
CORE_POR .ft3/ft3         : CORE_POR
CORE_PERM .mD             : CORE_PERM
~Parameter
#==================================================================
~Ascii
# ...
8518.0	13.69	2.38	0.16	-999.25	0.19	2.38	0.43	0.57	19.80	1.00
8518.5	11.77	2.41	0.14	-999.25	0.17	2.32	0.48	0.52	19.26	0.92
8519.0	12.67	2.44	0.14	-999.25	0.16	2.24	0.52	0.48	16.51	0.67
8519.5	11.94	2.43	0.16	-999.25	0.17	2.16	0.50	0.50	14.71	0.63
8520.0	13.53	2.40	0.17	-999.25	0.18	2.10	0.46	0.54	17.91	1.72
8520.5	13.61	2.37	0.16	-999.25	0.19	2.08	0.44	0.56	21.10	2.80
8521.0	12.64	2.37	0.15	-999.25	0.19	2.12	0.45	0.55	19.09	1.57
8521.5	11.53	2.40	0.13	-999.25	0.17	2.19	0.49	0.51	17.27	0.51
8522.0	12.25	2.43	0.11	-999.25	0.15	2.26	0.55	0.45	16.44	0.39
8522.5	12.73	2.45	0.12	-999.25	0.14	2.30	0.56	0.44	15.61	0.28
8523.0	14.19	2.44	0.14	-999.25	0.16	2.31	0.51	0.49	16.07	0.45
8523.5	13.61	2.41	0.16	-999.25	0.18	2.30	0.46	0.54	17.80	0.92
8524.0	14.57	2.39	0.17	-999.25	0.18	2.31	0.44	0.56	18.18	1.07
8524.5	14.46	2.40	0.16	-999.25	0.18	2.38	0.45	0.55	18.36	1.13
8525.0	12.87	2.43	0.12	-999.25	0.15	2.54	0.50	0.50	17.46	0.71
8525.5	11.91	2.47	0.10	-999.25	0.13	2.79	0.58	0.42	16.43	0.36
8526.0	11.24	2.50	0.09	-999.25	0.11	3.13	0.62	0.38	14.75	0.35
8526.5	12.44	2.52	0.09	-999.25	0.11	3.55	0.60	0.40	13.07	0.35
8527.0	14.12	2.52	0.09	-999.25	0.10	4.03	0.59	0.41	11.45	0.28
8527.5	13.46	2.53	0.09	-999.25	0.10	4.55	0.56	0.44	11.38	0.25
8528.0	13.85	2.53	0.09	-999.25	0.10	5.02	0.53	0.47	12.12	0.25
8528.5	13.61	2.52	0.10	-999.25	0.11	5.50	0.47	0.53	13.05	0.29
8529.0	14.72	2.50	0.11	-999.25	0.12	5.13	0.45	0.55	14.38	0.41
8529.5	12.41	2.49	0.13	-999.25	0.13	4.65	0.43	0.57	15.52	0.60
8530.0	9.58	2.49	0.13	-999.25	0.13	4.16	0.45	0.55	15.64	1.13
8530.5	9.44	2.48	0.13	-999.25	0.14	3.73	0.46	0.54	15.68	1.20
8531.0	12.57	2.47	0.13	-999.25	0.14	3.37	0.47	0.53	15.64	0.80
8531.5	14.81	2.45	0.14	-999.25	0.15	3.07	0.46	0.54	15.66	0.50
8532.0	14.33	2.44	0.14	-999.25	0.16	2.85	0.47	0.53	16.06	0.68
8532.5	14.81	2.44	0.14	-999.25	0.16	2.73	0.48	0.52	16.35	0.80
8533.0	16.16	2.44	0.13	-999.25	0.15	2.71	0.49	0.51	16.02	0.61
8533.5	18.80	2.44	0.12	-999.25	0.15	2.78	0.50	0.50	15.65	0.44
8534.0	17.73	2.46	0.11	-999.25	0.14	2.95	0.52	0.48	15.20	0.33
8534.5	16.00	2.49	0.10	-999.25	0.12	3.18	0.57	0.43	13.85	0.22
8535.0	14.80	2.52	0.09	-999.25	0.10	3.40	0.65	0.35	10.75	0.13
8535.5	15.87	2.55	0.07	-999.25	0.08	3.48	0.78	0.22	8.96	0.08
8536.0	16.03	2.56	0.07	-999.25	0.08	3.25	0.82	0.18	8.47	0.06
8536.5	16.03	2.56	0.08	-999.25	0.09	2.77	0.85	0.15	8.91	0.07
8537.0	15.31	2.55	0.09	-999.25	0.09	2.22	0.87	0.13	9.83	0.10
8537.5	16.11	2.53	0.09	-999.25	0.10	1.75	0.91	0.09	11.05	0.13
8538.0	16.19	2.50	0.12	-999.25	0.12	1.38	0.84	0.16	13.85	0.22
8538.5	15.95	2.44	0.15	-999.25	0.16	1.12	0.74	0.26	16.65	0.30
8539.0	16.05	2.40	0.17	-999.25	0.18	0.93	0.69	0.31	18.25	0.66
8539.5	15.48	2.37	0.17	-999.25	0.20	0.81	0.69	0.31	19.50	1.03
8540.0	15.97	2.36	0.18	-999.25	0.20	0.72	0.71	0.29	20.10	1.21
8540.5	16.59	2.35	0.18	-999.25	0.21	0.68	0.72	0.28	20.38	1.32
8541.0	16.93	2.36	0.18	-999.25	0.20	0.66	0.74	0.26	20.33	1.37
8541.5	18.61	2.36	0.17	-999.25	0.20	0.67	0.75	0.25	20.30	1.36
8542.0	18.66	2.38	0.17	-999.25	0.19	0.69	0.76	0.24	20.30	1.25
8542.5	19.28	2.39	0.17	-999.25	0.18	0.72	0.78	0.22	20.24	1.14
8543.0	21.21	2.41	0.17	-999.25	0.18	0.76	0.78	0.22	20.12	1.03
8543.5	22.11	2.41	0.17	-999.25	0.18	0.80	0.78	0.22	20.00	0.91
8544.0	21.87	2.41	0.18	-999.25	0.18	0.83	0.73	0.27	20.14	1.37
8544.5	18.79	2.40	0.17	-999.25	0.18	0.85	0.73	0.27	20.28	1.83
8545.0	17.84	2.41	0.17	-999.25	0.18	0.87	0.72	0.28	20.49	2.21
8545.5	18.80	2.41	0.18	-999.25	0.18	0.90	0.71	0.29	20.21	2.81
8546.0	19.48	2.42	0.18	-999.25	0.18	0.94	0.69	0.31	19.42	3.64
8546.5	20.68	2.42	0.18	-999.25	0.18	1.00	0.68	0.32	18.63	4.47
8547.0	20.69	2.43	0.17	-999.25	0.17	1.09	0.67	0.33	18.55	4.95
8547.5	21.58	2.43	0.16	-999.25	0.16	1.22	0.67	0.33	18.27	4.92
8548.0	22.06	2.45	0.14	-999.25	0.15	1.37	0.70	0.30	16.18	2.58
8548.5	22.05	2.47	0.12	-999.25	0.13	1.56	0.73	0.27	14.10	0.23
8549.0	21.83	2.50	0.11	-999.25	0.12	1.76	0.78	0.22	13.83	0.20
8549.5	22.08	2.51	0.10	-999.25	0.11	1.94	0.81	0.19	13.49	0.18
8550.0	21.86	2.51	0.10	-999.25	0.11	2.08	0.76	0.24	12.79	0.16
8550.5	22.62	2.49	0.11	-999.25	0.12	2.17	0.68	0.32	12.40	0.16
8551.0	23.21	2.46	0.12	-999.25	0.13	2.23	0.61	0.39	13.65	0.20
8551.5	23.20	2.45	0.12	-999.25	0.14	2.29	0.58	0.42	14.57	-999.25
8552.0	20.31	2.47	0.11	-999.25	0.13	2.35	0.60	0.40	13.77	-999.25
8552.5	21.21	2.50	0.10	-999.25	0.12	2.41	0.67	0.33	12.98	-999.25
8553.0	23.37	2.52	0.09	-999.25	0.10	2.44	0.75	0.25	12.22	-999.25
8553.5	25.30	2.53	0.09	-999.25	0.10	2.39	0.78	0.22	11.46	-999.25
8554.0	23.95	2.53	0.09	-999.25	0.10	2.24	0.82	0.18	11.36	0.55
8554.5	22.75	2.54	0.09	-999.25	0.10	2.01	0.88	0.12	11.60	0.13
8555.0	22.94	2.53	0.10	-999.25	0.10	1.75	0.89	0.11	10.73	1.69
8555.5	25.20	2.51	0.12	-999.25	0.12	1.51	0.82	0.18	10.48	2.85
8556.0	24.93	2.47	0.15	-999.25	0.15	1.32	0.72	0.28	13.48	1.89
8556.5	23.78	2.43	0.16	-999.25	0.17	1.21	0.67	0.33	16.48	0.94
8557.0	21.85	2.42	0.16	-999.25	0.17	1.16	0.66	0.34	17.83	0.63
8557.5	21.40	2.43	0.15	-999.25	0.16	1.17	0.70	0.30	18.32	0.66
8558.0	23.32	2.46	0.12	-999.25	0.14	1.23	0.78	0.22	16.80	0.49
8558.5	24.76	2.49	0.10	-999.25	0.12	1.35	0.88	0.12	14.76	0.29
8559.0	28.13	2.51	0.09	-999.25	0.11	1.49	0.92	0.08	12.01	0.16
8559.5	29.83	2.52	0.09	-999.25	0.11	1.61	0.92	0.08	9.93	0.06
8560.0	25.27	2.51	0.10	-999.25	0.11	1.66	0.87	0.13	11.38	0.10
8560.5	23.10	2.50	0.11	-999.25	0.12	1.60	0.79	0.21	13.06	0.25
8561.0	21.08	2.47	0.13	-999.25	0.14	1.46	0.71	0.29	14.98	0.52
8561.5	21.32	2.44	0.15	-999.25	0.16	1.30	0.67	0.33	16.89	0.79
8562.0	20.60	2.41	0.16	-999.25	0.18	1.18	0.64	0.36	18.20	0.89
8562.5	18.58	2.40	0.17	-999.25	0.18	1.11	0.63	0.37	19.40	0.97
8563.0	22.91	2.40	0.16	-999.25	0.18	1.08	0.66	0.34	18.97	0.98
8563.5	24.35	2.43	0.14	-999.25	0.16	1.10	0.73	0.27	18.13	0.91
8564.0	26.93	2.46	0.11	-999.25	0.14	1.15	0.84	0.16	15.16	0.51
8564.5	25.15	2.49	0.10	-999.25	0.12	1.23	0.90	0.10	13.36	0.24
8565.0	26.36	2.49	0.10	-999.25	0.12	1.32	0.87	0.13	13.83	0.25
8565.5	25.64	2.47	0.12	-999.25	0.14	1.40	0.75	0.25	14.30	0.26
8566.0	25.42	2.46	0.14	-999.25	0.15	1.48	0.68	0.32	15.57	0.41
8566.5	21.83	2.45	0.14	-999.25	0.15	1.56	0.65	0.35	15.90	0.46
8567.0	21.11	2.48	0.12	-999.25	0.13	1.65	0.72	0.28	15.30	0.39
8567.5	24.02	2.53	0.10	-999.25	0.11	1.73	0.86	0.14	14.40	0.32
8568.0	24.47	2.55	0.09	-999.25	0.09	1.77	-999.25	-999.25	12.92	0.23
8568.5	22.79	2.56	0.08	-999.25	0.09	1.74	-999.25	-999.25	11.44	0.14
8569.0	21.01	2.53	0.09	-999.25	0.10	1.65	0.93	0.07	10.79	-999.25
8569.5	24.13	2.51	0.11	-999.25	0.12	1.51	0.85	0.15	11.70	-999.25
8570.0	26.02	2.48	0.13	-999.25	0.14	1.37	0.75	0.25	14.05	-999.25
8570.5	23.52	2.43	0.15	-999.25	0.16	1.25	0.67	0.33	15.96	0.44
8571.0	22.09	2.40	0.16	-999.25	0.18	1.17	0.64	0.36	17.01	0.66
8571.5	23.66	2.40	0.15	-999.25	0.18	1.14	0.64	0.36	17.54	0.78
8572.0	26.56	2.41	0.14	-999.25	0.17	1.16	0.68	0.32	17.07	0.71
8572.5	24.64	2.44	0.12	-999.25	0.15	1.22	0.75	0.25	16.60	0.65
8573.0	26.70	2.48	0.11	-999.25	0.13	1.32	0.84	0.16	14.87	0.38
8573.5	25.17	2.51	0.09	-999.25	0.11	1.46	0.94	0.06	13.36	0.21
8574.0	27.81	2.52	0.09	-999.25	0.11	1.58	0.91	0.09	12.08	0.16
8574.5	25.30	2.50	0.10	-999.25	0.12	1.65	0.82	0.18	10.80	0.11
8575.0	25.38	2.48	0.12	-999.25	0.13	1.61	0.74	0.26	12.75	0.24
8575.5	25.44	2.47	0.11	-999.25	0.13	1.48	0.76	0.24	15.30	0.40
8576.0	27.46	2.47	0.11	-999.25	0.13	1.29	0.81	0.19	14.32	0.31
8576.5	31.55	2.47	0.12	-999.25	0.14	1.08	0.86	0.14	13.80	0.27
8577.0	31.54	2.45	0.15	-999.25	0.16	0.90	0.83	0.17	15.67	0.46
8577.5	30.20	2.42	0.17	-999.25	0.18	0.75	0.81	0.19	17.27	0.70
8578.0	27.16	2.39	0.19	-999.25	0.20	0.64	0.78	0.22	18.37	1.06
8578.5	26.04	2.38	0.19	-999.25	0.20	0.56	0.81	0.19	19.47	1.41
8579.0	25.69	2.37	0.20	-999.25	0.20	0.50	0.84	0.16	20.57	1.77
8579.5	26.80	2.36	0.19	-999.25	0.20	0.47	0.87	0.13	21.43	1.94
8580.0	30.51	2.36	0.19	-999.25	0.21	0.45	0.89	0.11	21.81	1.78
8580.5	31.98	2.37	0.19	-999.25	0.20	0.45	0.90	0.10	21.86	1.72
8581.0	30.30	2.38	0.18	-999.25	0.20	0.46	0.91	0.09	21.58	1.76
8581.5	29.36	2.39	0.17	-999.25	0.19	0.49	0.94	0.06	21.30	1.80
8582.0	29.18	2.40	0.16	-999.25	0.18	0.53	0.94	0.06	20.27	1.35
