# LAS format log file from PETREL
# Project units are specified as depth units
#==================================================================
~Version information
VERS.   2.0:
WRAP.   NO:
#==================================================================
~Well
STRT .ft        8330.0 :
STOP .ft        8727.0 :
STEP .ft        0.5    :
NULL .          -999.25  :
COMP.           : COMPANY
WELL.  HW-28    : WELL
FLD.   COSTA    : FIELD
LOC.            : LOCATION
SRVC.           : SERVICE COMPANY
DATE.  2018-02-06 14:55:42   : Log Export Date {yyyy-MM-dd HH:mm:ss}
PROV.           : PROVINCE
UWI.   HW-28    : UNIQUE WELL ID
API.            : API NUMBER
#==================================================================
~Curve
DEPT .ft                  : DEPTH
GR .gAPI                  : GR
RHOB .g/cm3               : RHOB
NPHI .ft3/ft3             : NPHI
DT .us/ft                 : DT
PHIE .ft3/ft3             : PHIE
RT .ohm.m                 : RT
SW .                      : SW
SO . 			  : SO
CORE_POR .ft3/ft3         : CORE_POR
CORE_PERM .mD             : CORE_PERM
~Parameter
#==================================================================
~Ascii
# ...
8585.5	11.45	2.43	0.16	69.41	0.16	0.60	-999.25	-999.25	16.09	13.08
8586.0	12.24	2.44	0.16	67.41	0.16	0.60	-999.25	-999.25	17.31	10.56
8586.5	13.03	2.45	0.16	65.81	0.16	0.60	-999.25	-999.25	18.53	8.04
8587.0	14.22	2.47	0.17	65.41	0.16	0.60	0.99	0.01	19.75	5.51
8587.5	13.81	2.46	0.18	66.61	0.17	0.60	0.94	0.06	20.95	4.19
8588.0	12.19	2.41	0.20	69.01	0.18	0.54	0.91	0.09	21.75	21.74
8588.5	10.98	2.39	0.21	71.81	0.20	0.43	0.93	0.07	23.09	31.35
8589.0	11.77	2.35	0.23	75.41	0.21	0.35	0.96	0.04	24.85	34.73
8589.5	11.75	2.33	0.24	79.01	0.23	0.30	0.98	0.02	26.48	36.96
8590.0	10.94	2.29	0.25	80.61	0.24	0.29	0.95	0.05	26.15	21.10
8590.5	10.13	2.27	0.26	83.81	0.25	0.30	0.91	0.09	26.00	44.04
8591.0	10.51	2.26	0.27	83.81	0.25	0.29	0.89	0.11	26.40	189.83
8591.5	10.51	2.26	0.27	84.60	0.26	0.27	0.92	0.08	26.85	174.50
8592.0	10.90	2.28	0.26	85.00	0.26	0.24	0.98	0.02	27.32	102.55
8592.5	10.88	2.27	0.26	85.27	0.26	0.21	-999.25	-999.25	26.97	49.82
8593.0	10.87	2.27	0.26	85.54	0.26	0.19	-999.25	-999.25	25.39	25.94
8593.5	10.86	2.27	0.26	85.80	0.26	0.18	-999.25	-999.25	24.02	3.65
8594.0	10.05	2.27	0.26	85.80	0.26	0.18	-999.25	-999.25	25.94	6.49
8594.5	10.83	2.28	0.26	86.00	0.26	0.18	-999.25	-999.25	27.39	8.74
8595.0	11.23	2.29	0.27	86.20	0.26	0.18	-999.25	-999.25	27.33	9.15
8595.5	11.61	2.30	0.27	85.40	0.26	0.18	-999.25	-999.25	27.74	14.91
8596.0	12.01	2.29	0.28	85.00	0.26	0.18	-999.25	-999.25	28.84	28.72
8596.5	11.99	2.28	0.28	85.00	0.26	0.18	-999.25	-999.25	28.76	31.90
8597.0	11.58	2.27	0.28	84.60	0.27	0.18	-999.25	-999.25	26.91	19.14
8597.5	11.97	2.27	0.28	85.40	0.27	0.18	-999.25	-999.25	25.98	11.73
8598.0	12.76	2.28	0.28	85.80	0.27	0.19	-999.25	-999.25	26.42	12.35
8598.5	12.35	2.26	0.28	85.40	0.27	0.19	-999.25	-999.25	26.86	12.96
8599.0	11.13	2.26	0.27	86.59	0.27	0.19	-999.25	-999.25	28.59	13.62
8599.5	9.91	2.25	0.27	86.59	0.27	0.19	-999.25	-999.25	28.51	22.21
8600.0	9.50	2.24	0.28	86.59	0.27	0.19	-999.25	-999.25	28.42	30.80
8600.5	9.09	2.24	0.28	86.59	0.27	0.18	-999.25	-999.25	28.33	39.40
8601.0	9.47	2.25	0.27	85.39	0.27	0.18	-999.25	-999.25	28.25	47.99
8601.5	9.66	2.25	0.28	85.39	0.27	0.18	-999.25	-999.25	28.16	56.59
8602.0	9.86	2.27	0.28	84.99	0.27	0.17	-999.25	-999.25	27.98	54.61
8602.5	11.05	2.27	0.27	84.59	0.26	0.17	-999.25	-999.25	27.62	32.12
8603.0	12.24	2.27	0.27	84.19	0.26	0.16	-999.25	-999.25	27.26	9.63
8603.5	11.42	2.30	0.27	83.39	0.26	0.16	-999.25	-999.25	23.05	3.56
8604.0	10.61	2.29	0.27	83.19	0.26	0.16	-999.25	-999.25	19.67	1.79
8604.5	10.59	2.29	0.27	82.99	0.26	0.16	-999.25	-999.25	24.47	6.19
8605.0	10.98	2.29	0.27	82.59	0.26	0.16	-999.25	-999.25	28.42	9.74
8605.5	10.98	2.28	0.26	82.99	0.25	0.17	-999.25	-999.25	27.92	8.78
8606.0	11.36	2.30	0.25	81.79	0.24	0.19	-999.25	-999.25	27.38	7.89
8606.5	11.36	2.31	0.23	80.99	0.23	0.21	-999.25	-999.25	26.63	7.42
8607.0	11.34	2.32	0.23	78.98	0.23	0.23	-999.25	-999.25	25.88	6.95
8607.5	11.13	2.33	0.23	77.78	0.22	0.23	-999.25	-999.25	25.13	6.47
8608.0	10.92	2.34	0.23	76.58	0.22	0.22	-999.25	-999.25	24.38	6.00
8608.5	10.50	2.36	0.23	74.98	0.22	0.22	-999.25	-999.25	23.63	5.52
8609.0	10.89	2.37	0.24	74.98	0.23	0.22	-999.25	-999.25	22.88	5.05
8609.5	11.68	2.35	0.25	75.78	0.23	0.21	-999.25	-999.25	22.63	5.51
8610.0	12.08	2.35	0.26	77.38	0.23	0.21	-999.25	-999.25	22.90	6.91
8610.5	11.26	2.34	0.26	77.78	0.24	0.21	-999.25	-999.25	24.00	8.87
8611.0	10.85	2.34	0.26	78.58	0.24	0.22	-999.25	-999.25	25.10	10.82
8611.5	11.24	2.34	0.26	79.38	0.24	0.21	-999.25	-999.25	24.82	8.92
8612.0	11.63	2.35	0.27	80.18	0.24	0.20	-999.25	-999.25	24.54	7.01
8612.5	11.22	2.34	0.27	80.38	0.24	0.19	-999.25	-999.25	24.55	8.78
8613.0	10.80	2.33	0.27	80.58	0.25	0.18	-999.25	-999.25	24.60	11.24
8613.5	10.79	2.32	0.26	80.98	0.25	0.17	-999.25	-999.25	24.93	14.68
8614.0	10.77	2.31	0.26	81.38	0.25	0.17	-999.25	-999.25	25.27	16.84
8614.5	11.17	2.30	0.26	81.77	0.25	0.17	-999.25	-999.25	25.70	12.29
8615.0	11.56	2.32	0.26	82.57	0.25	0.16	-999.25	-999.25	26.13	7.74
8615.5	11.14	2.30	0.26	82.77	0.25	0.16	-999.25	-999.25	25.83	5.94
8616.0	10.73	2.30	0.26	82.97	0.25	0.16	-999.25	-999.25	25.40	4.66
8616.5	10.32	2.29	0.27	83.37	0.25	0.17	-999.25	-999.25	25.18	4.88
8617.0	10.30	2.28	0.26	83.77	0.26	0.17	-999.25	-999.25	24.97	5.01
8617.5	10.30	2.27	0.27	83.97	0.26	0.17	-999.25	-999.25	24.80	4.60
8618.0	10.28	2.24	0.27	84.17	0.26	0.17	-999.25	-999.25	24.63	4.19
8618.5	9.87	2.24	0.27	84.37	0.27	0.17	-999.25	-999.25	24.05	4.59
8619.0	10.66	2.25	0.27	84.57	0.27	0.17	-999.25	-999.25	23.48	4.95
8619.5	11.45	2.26	0.28	84.57	0.27	0.16	-999.25	-999.25	23.34	4.42
8620.0	12.24	2.27	0.28	84.57	0.26	0.16	-999.25	-999.25	23.20	3.88
8620.5	12.23	2.29	0.27	84.57	0.26	0.17	-999.25	-999.25	24.50	4.44
8621.0	12.22	2.30	0.27	82.97	0.26	0.17	-999.25	-999.25	25.80	5.00
8621.5	12.20	2.29	0.26	82.76	0.25	0.17	-999.25	-999.25	25.55	5.13
8622.0	11.79	2.29	0.25	82.56	0.25	0.17	-999.25	-999.25	25.30	5.26
8622.5	12.18	2.30	0.25	82.16	0.25	0.17	-999.25	-999.25	25.85	6.90
8623.0	12.57	2.31	0.25	82.56	0.24	0.17	-999.25	-999.25	26.40	8.55
8623.5	12.56	2.31	0.25	82.16	0.24	0.17	-999.25	-999.25	25.64	6.24
8624.0	12.15	2.31	0.25	81.76	0.24	0.17	-999.25	-999.25	25.02	4.32
8624.5	11.53	2.29	0.26	81.76	0.25	0.17	-999.25	-999.25	25.14	4.45
8625.0	11.32	2.28	0.26	81.96	0.25	0.17	-999.25	-999.25	25.32	4.27
8625.5	10.51	2.28	0.26	82.16	0.25	0.17	-999.25	-999.25	25.56	3.80
8626.0	9.49	2.31	0.26	82.96	0.25	0.17	-999.25	-999.25	25.80	3.33
8626.5	9.28	2.30	0.26	83.36	0.25	0.16	-999.25	-999.25	25.74	3.67
8627.0	9.67	2.29	0.28	83.16	0.26	0.16	-999.25	-999.25	25.56	3.92
8627.5	9.25	2.29	0.29	82.96	0.26	0.16	-999.25	-999.25	25.16	4.01
8628.0	8.44	2.30	0.29	82.96	0.26	0.16	-999.25	-999.25	24.76	4.11
8628.5	8.23	2.30	0.28	82.56	0.26	0.16	-999.25	-999.25	24.52	4.12
8629.0	8.02	2.30	0.27	82.35	0.26	0.16	-999.25	-999.25	24.30	4.11
8629.5	7.61	2.32	0.26	82.16	0.25	0.16	-999.25	-999.25	24.15	3.67
8630.0	7.99	2.32	0.25	81.55	0.24	0.16	-999.25	-999.25	24.00	3.24
8630.5	8.79	2.33	0.25	80.95	0.23	0.16	-999.25	-999.25	21.50	4.81
8631.0	9.77	2.35	0.24	79.75	0.22	0.17	-999.25	-999.25	19.14	5.97
8631.5	9.97	2.37	0.23	78.55	0.21	0.21	-999.25	-999.25	17.49	5.04
8632.0	9.96	2.40	0.22	77.35	0.20	0.26	-999.25	-999.25	16.42	3.81
8632.5	9.54	2.42	0.21	75.75	0.19	0.33	-999.25	-999.25	16.47	2.02
8633.0	9.53	2.43	0.20	73.35	0.18	0.37	-999.25	-999.25	16.47	1.09
8633.5	9.92	2.44	0.20	71.75	0.18	0.37	-999.25	-999.25	16.42	1.02
8634.0	11.51	2.44	0.19	70.95	0.17	0.36	-999.25	-999.25	16.36	0.96
8634.5	11.90	2.47	0.18	68.95	0.17	0.36	-999.25	-999.25	16.30	0.89
8635.0	12.29	2.47	0.17	67.35	0.16	0.36	-999.25	-999.25	16.25	0.83
8635.5	11.87	2.46	0.17	66.15	0.16	0.37	-999.25	-999.25	16.40	0.88
8636.0	11.46	2.43	0.18	66.15	0.17	0.36	-999.25	-999.25	17.67	1.54
8636.5	10.65	2.40	0.19	66.95	0.18	0.34	-999.25	-999.25	18.78	1.60
8637.0	10.64	2.39	0.21	68.54	0.20	0.31	-999.25	-999.25	19.80	1.37
8637.5	11.83	2.37	0.22	71.34	0.20	0.30	-999.25	-999.25	19.75	1.29
8638.0	11.82	2.36	0.21	73.34	0.21	0.29	-999.25	-999.25	19.77	1.25
8638.5	11.81	2.36	0.21	73.74	0.21	0.29	-999.25	-999.25	20.21	1.45
8639.0	11.80	2.39	0.21	74.94	0.20	0.30	-999.25	-999.25	20.25	1.59
8639.5	12.99	2.40	0.20	74.54	0.19	0.30	-999.25	-999.25	19.52	1.61
8640.0	12.57	2.40	0.20	73.74	0.19	0.30	-999.25	-999.25	19.33	1.52
8640.5	12.56	2.41	0.20	72.14	0.19	0.29	-999.25	-999.25	19.24	1.42
8641.0	12.56	2.42	0.21	70.54	0.19	0.29	-999.25	-999.25	19.16	1.31
8641.5	12.94	2.41	0.23	69.74	0.20	0.30	-999.25	-999.25	19.07	1.21
8642.0	11.73	2.39	0.25	69.74	0.22	0.30	-999.25	-999.25	19.30	1.18
8642.5	10.91	2.35	0.25	71.74	0.23	0.28	-999.25	-999.25	21.20	1.55
8643.0	10.90	2.34	0.25	75.34	0.23	0.23	-999.25	-999.25	23.10	1.92
8643.5	10.89	2.34	0.26	76.54	0.24	0.20	-999.25	-999.25	24.24	3.08
8644.0	10.87	2.32	0.26	79.33	0.24	0.17	-999.25	-999.25	24.73	3.55
8644.5	11.26	2.32	0.26	79.74	0.25	0.17	-999.25	-999.25	23.93	2.68
8645.0	10.85	2.31	0.27	80.53	0.25	0.17	-999.25	-999.25	23.59	2.41
8645.5	10.04	2.29	0.27	80.93	0.25	0.17	-999.25	-999.25	24.14	3.30
8646.0	9.63	2.29	0.27	81.33	0.26	0.17	-999.25	-999.25	24.70	4.20
8646.5	10.01	2.28	0.26	81.33	0.26	0.17	-999.25	-999.25	24.43	3.75
