# LAS format log file from PETREL
# Project units are specified as depth units
#==================================================================
~Version information
VERS.   2.0:
WRAP.   NO:
#==================================================================
~Well
STRT .ft        8140.0 :
STOP .ft        8440.0 :
STEP .ft        0.5    :
NULL .          -999.25  :
COMP.           : COMPANY
WELL.  HW-25    : WELL
FLD.   COSTA    : FIELD
LOC.            : LOCATION
SRVC.           : SERVICE COMPANY
DATE.  2018-02-06 14:55:41   : Log Export Date {yyyy-MM-dd HH:mm:ss}
PROV.           : PROVINCE
UWI.   HW-25    : UNIQUE WELL ID
API.            : API NUMBER
#==================================================================
~Curve
DEPT .ft                  : DEPTH
GR .gAPI                  : GR
RHOB .g/cm3               : RHOB
NPHI .ft3/ft3             : NPHI
DT .us/ft                 : DT
PHIE .ft3/ft3             : PHIE
RT .ohm.m                 : RT
SW .                      : SW
SO . 			  : SO
CORE_POR .ft3/ft3         : CORE_POR
CORE_PERM .mD             : CORE_PERM
~Parameter
#==================================================================
~Ascii
# ...
8294.0	10.94	2.21	0.20	-999.25	0.29	67.82	0.05	0.95	28.20	17.00
8294.5	11.91	2.20	0.20	-999.25	0.30	67.56	0.05	0.95	27.95	16.50
8295.0	12.08	2.20	0.20	-999.25	0.30	67.24	0.05	0.95	27.70	16.00
8295.5	11.20	2.22	0.20	-999.25	0.29	66.77	0.05	0.95	27.00	10.55
8296.0	10.38	2.23	0.20	-999.25	0.28	66.12	0.05	0.95	26.30	5.10
8296.5	10.94	2.24	0.20	-999.25	0.28	65.35	0.06	0.94	26.65	21.55
8297.0	12.51	2.24	0.20	-999.25	0.28	64.54	0.06	0.94	27.00	38.00
8297.5	13.26	2.23	0.20	-999.25	0.28	63.74	0.05	0.95	25.35	27.00
8298.0	12.72	2.22	0.20	-999.25	0.29	63.08	0.05	0.95	23.70	16.00
8298.5	12.10	2.22	0.20	-999.25	0.29	62.76	0.05	0.95	25.32	15.54
8299.0	12.08	2.22	0.20	-999.25	0.29	62.74	0.05	0.95	26.94	15.07
8299.5	12.59	2.22	0.20	-999.25	0.29	62.84	0.05	0.95	27.07	12.44
8300.0	13.29	2.22	0.19	-999.25	0.29	62.80	0.05	0.95	26.92	9.39
8300.5	13.35	2.21	0.19	-999.25	0.29	62.50	0.05	0.95	26.63	6.75
8301.0	12.94	2.21	0.19	-999.25	0.29	62.12	0.05	0.95	26.30	4.20
8301.5	12.47	2.21	0.19	-999.25	0.29	61.98	0.05	0.95	26.15	6.75
8302.0	12.61	2.22	0.19	-999.25	0.29	62.03	0.05	0.95	26.00	9.30
8302.5	13.62	2.22	0.19	-999.25	0.29	62.45	0.05	0.95	25.60	5.75
8303.0	15.44	2.21	0.19	-999.25	0.29	64.07	0.05	0.95	25.20	2.20
8303.5	15.94	2.21	0.19	-999.25	0.29	65.16	0.05	0.95	27.20	8.10
8304.0	14.43	2.20	0.19	-999.25	0.30	65.85	0.05	0.95	29.20	14.00
8304.5	12.32	2.20	0.19	-999.25	0.30	66.42	0.05	0.95	27.62	10.28
8305.0	10.26	2.20	0.19	-999.25	0.30	66.71	0.05	0.95	26.04	6.56
8305.5	9.86	2.21	0.19	-999.25	0.29	66.95	0.05	0.95	25.38	5.58
8306.0	11.21	2.22	0.19	-999.25	0.28	67.49	0.05	0.95	25.20	6.00
8306.5	13.50	2.23	0.19	-999.25	0.28	69.10	0.05	0.95	26.75	7.90
8307.0	15.42	2.24	0.19	-999.25	0.28	69.97	0.05	0.95	28.30	9.80
8307.5	15.03	2.24	0.19	-999.25	0.27	69.97	0.05	0.95	26.25	6.60
8308.0	13.56	2.24	0.19	-999.25	0.27	69.70	0.05	0.95	24.20	3.40
8308.5	12.75	2.25	0.18	-999.25	0.27	69.45	0.05	0.95	25.15	4.35
8309.0	12.07	2.24	0.18	-999.25	0.27	69.57	0.05	0.95	26.10	5.30
8309.5	11.42	2.24	0.18	-999.25	0.28	70.14	0.05	0.95	26.00	4.25
8310.0	11.40	2.23	0.18	-999.25	0.28	70.74	0.05	0.95	25.90	3.20
8310.5	11.29	2.23	0.19	-999.25	0.28	70.72	0.05	0.95	24.55	3.70
8311.0	11.23	2.24	0.18	-999.25	0.28	69.96	0.05	0.95	23.20	4.20
8311.5	11.26	2.25	0.18	-999.25	0.27	69.35	0.06	0.94	24.20	4.60
8312.0	11.27	2.29	0.18	-999.25	0.25	69.96	0.06	0.94	25.20	5.00
8312.5	11.46	2.32	0.17	-999.25	0.23	72.11	0.06	0.94	24.90	4.10
8313.0	11.69	2.33	0.17	-999.25	0.22	74.74	0.06	0.94	24.60	3.20
8313.5	11.53	2.33	0.16	-999.25	0.22	76.38	0.06	0.94	23.35	2.85
8314.0	11.22	2.34	0.16	-999.25	0.22	76.48	0.06	0.94	22.10	2.50
8314.5	10.95	2.35	0.15	-999.25	0.21	74.99	0.07	0.93	20.25	2.05
8315.0	10.74	2.35	0.16	-999.25	0.21	72.66	0.07	0.93	18.40	1.60
8315.5	10.44	2.35	0.16	-999.25	0.21	69.84	0.07	0.93	19.55	2.85
8316.0	9.83	2.34	0.17	-999.25	0.22	66.97	0.07	0.93	20.70	4.10
8316.5	10.19	2.33	0.17	-999.25	0.22	63.51	0.07	0.93	21.95	3.90
8317.0	11.26	2.32	0.17	-999.25	0.23	59.81	0.07	0.93	23.20	3.70
8317.5	12.04	2.30	0.19	-999.25	0.24	56.20	0.07	0.93	24.20	3.90
8318.0	11.62	2.27	0.20	-999.25	0.26	53.77	0.07	0.93	25.20	4.10
8318.5	10.35	2.25	0.20	-999.25	0.27	52.71	0.06	0.94	25.30	5.95
8319.0	9.29	2.23	0.19	-999.25	0.28	52.66	0.06	0.94	25.40	7.80
8319.5	9.33	2.23	0.19	-999.25	0.28	53.11	0.06	0.94	25.61	7.42
8320.0	10.20	2.23	0.18	-999.25	0.28	53.64	0.06	0.94	25.83	7.03
8320.5	11.11	2.24	0.19	-999.25	0.27	54.02	0.06	0.94	26.22	6.54
8321.0	11.47	2.24	0.19	-999.25	0.27	54.33	0.06	0.94	26.70	6.00
8321.5	11.73	2.24	0.19	-999.25	0.28	54.68	0.06	0.94	26.45	4.30
8322.0	11.75	2.24	0.18	-999.25	0.28	55.06	0.06	0.94	26.20	2.60
8322.5	11.64	2.25	0.18	-999.25	0.27	55.28	0.06	0.94	25.85	2.80
8323.0	11.61	2.26	0.17	-999.25	0.26	55.10	0.06	0.94	25.50	3.00
8323.5	11.36	2.27	0.18	-999.25	0.26	54.37	0.06	0.94	24.57	2.81
8324.0	11.49	2.27	0.18	-999.25	0.26	53.28	0.06	0.94	23.65	2.63
8324.5	11.92	2.26	0.18	-999.25	0.27	52.05	0.06	0.94	24.54	3.37
8325.0	11.82	2.25	0.18	-999.25	0.27	50.85	0.06	0.94	25.78	4.29
8325.5	11.33	2.24	0.18	-999.25	0.27	49.77	0.06	0.94	25.92	4.24
8326.0	10.91	2.24	0.18	-999.25	0.28	48.90	0.06	0.94	25.50	3.70
8326.5	10.61	2.24	0.18	-999.25	0.27	48.16	0.06	0.94	25.25	3.40
8327.0	10.25	2.24	0.18	-999.25	0.27	47.50	0.07	0.93	25.00	3.10
8327.5	10.05	2.25	0.17	-999.25	0.27	46.84	0.07	0.93	25.25	3.10
8328.0	10.16	2.24	0.18	-999.25	0.27	46.20	0.07	0.93	25.50	3.10
8328.5	10.65	2.24	0.18	-999.25	0.27	45.66	0.07	0.93	25.40	3.50
8329.0	11.18	2.24	0.18	-999.25	0.27	45.21	0.07	0.93	25.30	3.90
8329.5	11.37	2.24	0.18	-999.25	0.27	44.79	0.07	0.93	24.98	3.95
8330.0	10.87	2.24	0.18	-999.25	0.27	44.34	0.07	0.93	24.65	3.99
8330.5	10.49	2.24	0.17	-999.25	0.27	43.86	0.07	0.93	24.19	3.59
8331.0	10.84	2.24	0.17	-999.25	0.27	43.43	0.07	0.93	23.70	3.10
8331.5	11.33	2.24	0.17	-999.25	0.27	43.10	0.07	0.93	24.45	3.85
8332.0	11.59	2.25	0.17	-999.25	0.27	42.92	0.07	0.93	25.20	4.60
8332.5	11.53	2.25	0.17	-999.25	0.27	42.90	0.07	0.93	24.75	4.30
8333.0	11.37	2.25	0.17	-999.25	0.27	42.99	0.07	0.93	24.30	4.00
8333.5	11.02	2.24	0.18	-999.25	0.28	43.86	0.07	0.93	24.55	6.00
8334.0	10.60	2.23	0.18	-999.25	0.28	45.23	0.06	0.94	24.80	8.00
8334.5	10.70	2.22	0.18	-999.25	0.28	46.88	0.06	0.94	25.14	6.55
8335.0	11.29	2.22	0.18	-999.25	0.28	48.90	0.06	0.94	25.48	5.09
8335.5	11.91	2.23	0.18	-999.25	0.28	50.29	0.06	0.94	25.45	4.20
8336.0	12.45	2.23	0.17	-999.25	0.28	50.87	0.06	0.94	25.24	3.60
8336.5	12.73	2.24	0.17	-999.25	0.27	51.28	0.06	0.94	25.06	3.36
8337.0	12.64	2.25	0.17	-999.25	0.27	52.71	0.06	0.94	24.89	3.19
8337.5	12.24	2.25	0.16	-999.25	0.27	55.75	0.06	0.94	24.63	2.97
8338.0	12.25	2.26	0.15	-999.25	0.26	59.36	0.06	0.94	24.30	2.70
8338.5	12.61	2.28	0.14	-999.25	0.25	62.50	0.06	0.94	24.17	2.40
8339.0	12.77	2.31	0.14	-999.25	0.24	64.73	0.06	0.94	24.04	2.10
8339.5	12.27	2.32	0.14	-999.25	0.23	65.62	0.07	0.93	22.48	2.20
8340.0	11.25	2.33	0.14	-999.25	0.22	64.97	0.07	0.93	20.18	2.50
8340.5	10.78	2.34	0.14	-999.25	0.22	62.98	0.07	0.93	20.55	2.32
8341.0	10.93	2.34	0.14	-999.25	0.21	60.04	0.07	0.93	22.30	1.90
8341.5	11.60	2.33	0.15	-999.25	0.22	56.25	0.07	0.93	21.42	2.04
8342.0	12.18	2.31	0.16	-999.25	0.24	52.15	0.07	0.93	20.54	2.18
8342.5	12.32	2.27	0.17	-999.25	0.26	48.72	0.07	0.93	21.63	5.76
8343.0	12.17	2.24	0.18	-999.25	0.27	46.11	0.07	0.93	23.10	10.00
8343.5	10.83	2.24	0.18	-999.25	0.28	44.06	0.07	0.93	23.90	6.70
8344.0	10.18	2.24	0.18	-999.25	0.27	42.40	0.07	0.93	24.70	3.40
8344.5	10.68	2.24	0.18	-999.25	0.27	41.05	0.07	0.93	25.04	3.57
8345.0	11.02	2.24	0.18	-999.25	0.28	39.86	0.07	0.93	25.38	3.74
8345.5	11.12	2.24	0.18	-999.25	0.28	38.89	0.07	0.93	25.62	3.92
8346.0	11.14	2.23	0.18	-999.25	0.28	38.13	0.07	0.93	25.80	4.10
8346.5	10.96	2.24	0.18	-999.25	0.28	37.50	0.07	0.93	25.45	3.95
8347.0	10.67	2.24	0.18	-999.25	0.27	36.99	0.07	0.93	25.10	3.80
8347.5	10.29	2.24	0.18	-999.25	0.27	36.58	0.07	0.93	25.00	3.75
8348.0	10.52	2.24	0.18	-999.25	0.27	36.37	0.07	0.93	24.90	3.70
8348.5	11.29	2.24	0.18	-999.25	0.27	36.38	0.07	0.93	25.00	4.15
8349.0	11.77	2.24	0.18	-999.25	0.27	36.51	0.07	0.93	25.10	4.60
8349.5	12.27	2.25	0.18	-999.25	0.27	36.67	0.07	0.93	25.75	5.45
8350.0	12.94	2.25	0.18	-999.25	0.27	36.74	0.07	0.93	26.40	6.30
8350.5	13.82	2.25	0.18	-999.25	0.27	36.66	0.07	0.93	26.60	6.15
8351.0	13.73	2.25	0.18	-999.25	0.27	36.50	0.07	0.93	26.80	6.00
8351.5	12.91	2.25	0.18	-999.25	0.27	36.43	0.08	0.92	25.60	4.60
8352.0	12.50	2.24	0.18	-999.25	0.27	36.53	0.07	0.93	24.40	3.20
8352.5	11.91	2.24	0.18	-999.25	0.27	36.74	0.07	0.93	25.50	9.10
8353.0	11.27	2.24	0.18	-999.25	0.28	36.90	0.07	0.93	26.60	15.00
8353.5	10.54	2.24	0.18	-999.25	0.28	36.91	0.07	0.93	26.55	9.95
8354.0	10.18	2.24	0.18	-999.25	0.28	36.57	0.07	0.93	26.50	4.90
8354.5	10.27	2.24	0.18	-999.25	0.28	36.32	0.07	0.93	26.05	5.15
8355.0	11.09	2.24	0.18	-999.25	0.27	36.23	0.07	0.93	25.60	5.40
8355.5	12.31	2.26	0.17	-999.25	0.26	36.05	0.08	0.92	25.60	4.85
8356.0	12.83	2.27	0.16	-999.25	0.25	35.42	0.08	0.92	25.60	4.30
8356.5	12.72	2.28	0.17	-999.25	0.25	34.45	0.08	0.92	25.45	3.95
8357.0	12.20	2.28	0.18	-999.25	0.25	33.42	0.08	0.92	25.30	3.60
