# LAS format log file from PETREL
# Project units are specified as depth units
#==================================================================
~Version information
VERS.   2.0:
WRAP.   NO:
#==================================================================
~Well
STRT .ft        8330.0 :
STOP .ft        8727.0 :
STEP .ft        0.5    :
NULL .          -999.25  :
COMP.           : COMPANY
WELL.  HW-28    : WELL
FLD.   COSTA    : FIELD
LOC.            : LOCATION
SRVC.           : SERVICE COMPANY
DATE.  2018-02-06 14:55:42   : Log Export Date {yyyy-MM-dd HH:mm:ss}
PROV.           : PROVINCE
UWI.   HW-28    : UNIQUE WELL ID
API.            : API NUMBER
#==================================================================
~Curve
DEPT .ft                  : DEPTH
GR .gAPI                  : GR
RHOB .g/cm3               : RHOB
NPHI .ft3/ft3             : NPHI
DT .us/ft                 : DT
PHIE .ft3/ft3             : PHIE
RT .ohm.m                 : RT
SW .                      : SW
SO . 			  : SO
CORE_POR .ft3/ft3         : CORE_POR
CORE_PERM .mD             : CORE_PERM
~Parameter
#==================================================================
~Ascii
8524.0	30.55	2.70	0.02	55.49	0.01	20.20	-999.25	-999.25	-999.25	-999.25
8524.5	30.14	2.69	0.02	54.29	0.01	20.09	-999.25	-999.25	-999.25	-999.25
8525.0	30.94	2.68	0.03	54.69	0.00	20.08	-999.25	-999.25	-999.25	-999.25
8525.5	36.15	2.67	0.03	55.09	0.00	20.17	-999.25	-999.25	-999.25	-999.25
8526.0	40.55	2.68	0.04	56.69	0.01	20.26	-999.25	-999.25	-999.25	-999.25
8526.5	40.14	2.68	0.04	56.69	0.00	19.89	-999.25	-999.25	-999.25	-999.25
8527.0	40.13	2.69	0.04	57.09	0.00	18.70	-999.25	-999.25	-999.25	-999.25
8527.5	38.51	2.70	0.03	57.09	0.00	17.53	-999.25	-999.25	-999.25	-999.25
8528.0	38.50	2.69	0.03	57.09	0.00	16.48	-999.25	-999.25	-999.25	-999.25
8528.5	38.08	2.68	0.03	57.09	0.00	16.14	-999.25	-999.25	-999.25	-999.25
8529.0	38.88	2.69	0.04	56.69	0.00	16.18	-999.25	-999.25	-999.25	-999.25
8529.5	38.87	2.68	0.04	57.09	0.00	16.25	-999.25	-999.25	-999.25	-999.25
8530.0	40.05	2.68	0.04	57.28	0.00	16.26	-999.25	-999.25	-999.25	-999.25
8530.5	42.05	2.70	0.04	57.49	0.00	16.17	-999.25	-999.25	-999.25	-999.25
8531.0	42.44	2.69	0.04	57.08	0.00	16.10	-999.25	-999.25	-999.25	-999.25
8531.5	41.63	2.70	0.04	56.28	0.00	16.16	-999.25	-999.25	-999.25	-999.25
8532.0	41.61	2.70	0.03	56.28	0.00	17.15	-999.25	-999.25	-999.25	-999.25
8532.5	42.40	2.70	0.03	56.28	0.00	20.26	-999.25	-999.25	-999.25	-999.25
8533.0	43.20	2.67	0.03	56.28	0.01	24.29	-999.25	-999.25	-999.25	-999.25
8533.5	43.59	2.68	0.03	56.28	0.01	29.25	-999.25	-999.25	-999.25	-999.25
8534.0	39.16	2.68	0.02	55.88	0.01	31.14	-999.25	-999.25	-999.25	-999.25
8534.5	35.13	2.70	0.02	55.08	0.01	31.00	-999.25	-999.25	-999.25	-999.25
8535.0	33.11	2.70	0.02	53.88	0.00	30.89	-999.25	-999.25	-999.25	-999.25
8535.5	32.70	2.72	0.02	54.28	0.00	30.82	-999.25	-999.25	-999.25	-999.25
8536.0	33.89	2.70	0.02	54.68	0.00	30.82	-999.25	-999.25	-999.25	-999.25
8536.5	34.68	2.69	0.03	55.08	0.00	30.85	-999.25	-999.25	-999.25	-999.25
8537.0	35.08	2.71	0.03	55.48	0.00	30.85	-999.25	-999.25	-999.25	-999.25
8537.5	31.44	2.70	0.02	55.08	0.00	30.84	-999.25	-999.25	-999.25	-999.25
8538.0	31.03	2.70	0.02	54.67	0.00	30.83	-999.25	-999.25	-999.25	-999.25
8538.5	32.43	2.70	0.02	54.47	0.00	30.91	-999.25	-999.25	-999.25	-999.25
8539.0	33.02	2.68	0.02	54.27	0.00	31.05	-999.25	-999.25	-999.25	-999.25
8539.5	35.02	2.70	0.02	53.87	0.00	31.22	-999.25	-999.25	-999.25	-999.25
8540.0	37.41	2.73	0.02	54.27	0.00	31.33	-999.25	-999.25	-999.25	-999.25
8540.5	39.81	2.73	0.02	54.47	0.00	31.37	-999.25	-999.25	-999.25	-999.25
8541.0	40.60	2.70	0.02	54.67	0.00	31.37	-999.25	-999.25	-999.25	-999.25
8541.5	38.58	2.70	0.02	54.27	0.01	25.62	-999.25	-999.25	-999.25	-999.25
8542.0	35.76	2.69	0.02	52.67	0.01	15.44	-999.25	-999.25	-999.25	-999.25
8542.5	31.73	2.69	0.03	52.67	0.01	10.18	-999.25	-999.25	-999.25	-999.25
8543.0	26.90	2.66	0.04	54.27	0.02	7.30	-999.25	-999.25	-999.25	-999.25
8543.5	24.48	2.63	0.06	57.47	0.04	6.64	-999.25	-999.25	-999.25	-999.25
8544.0	22.86	2.60	0.07	58.27	0.05	6.69	0.89	0.11	-999.25	-999.25
8544.5	22.85	2.58	0.07	61.47	0.06	6.74	0.74	0.26	-999.25	-999.25
8545.0	23.64	2.58	0.07	66.67	0.06	6.73	0.73	0.27	-999.25	-999.25
8545.5	24.84	2.58	0.06	67.46	0.06	6.63	0.86	0.14	-999.25	-999.25
8546.0	25.62	2.61	0.04	67.06	0.04	6.47	-999.25	-999.25	-999.25	-999.25
8546.5	26.01	2.63	0.03	65.86	0.02	6.41	-999.25	-999.25	1.23	0.01
8547.0	27.20	2.66	0.03	65.46	0.01	6.41	-999.25	-999.25	1.72	0.01
8547.5	28.00	2.64	0.04	64.66	0.02	6.49	-999.25	-999.25	3.73	0.61
8548.0	28.79	2.58	0.06	64.66	0.05	6.56	0.88	0.12	10.52	3.12
8548.5	28.38	2.55	0.09	64.66	0.09	4.97	0.62	0.38	17.68	64.30
8549.0	24.75	2.49	0.12	67.06	0.12	2.56	0.65	0.35	25.38	213.49
8549.5	21.13	2.45	0.15	67.06	0.15	1.52	0.67	0.33	27.30	236.44
8550.0	19.10	2.40	0.18	69.86	0.17	1.02	0.69	0.31	20.55	70.05
8550.5	18.29	2.35	0.20	74.66	0.19	0.91	0.67	0.33	18.80	18.96
8551.0	17.88	2.35	0.21	81.46	0.20	0.92	0.65	0.35	18.80	8.38
8551.5	17.47	2.38	0.19	83.06	0.19	0.92	0.68	0.32	18.36	5.53
8552.0	16.65	2.39	0.17	83.06	0.17	0.93	0.74	0.26	17.76	5.39
8552.5	17.44	2.41	0.15	79.46	0.16	1.00	0.78	0.22	18.02	41.61
8553.0	18.23	2.45	0.15	72.25	0.15	1.31	0.73	0.27	21.02	192.99
8553.5	19.02	2.47	0.13	70.25	0.13	1.81	0.68	0.32	19.89	195.80
8554.0	20.22	2.48	0.12	69.05	0.12	2.66	0.63	0.37	17.30	146.40
8554.5	20.21	2.50	0.11	66.65	0.11	3.17	0.65	0.35	14.72	97.01
8555.0	18.99	2.54	0.09	64.65	0.09	3.24	0.73	0.27	12.13	47.61
8555.5	16.57	2.57	0.09	63.45	0.09	3.23	0.77	0.23	9.76	1.15
8556.0	14.55	2.58	0.10	61.05	0.09	3.15	0.75	0.25	10.72	0.59
8556.5	12.52	2.54	0.11	60.65	0.10	3.04	0.69	0.31	12.32	60.27
8557.0	11.71	2.53	0.13	62.65	0.11	2.96	0.63	0.37	14.88	210.29
8557.5	12.10	2.50	0.13	63.45	0.13	2.91	0.57	0.43	16.31	210.10
8558.0	12.49	2.47	0.14	66.25	0.14	2.91	0.50	0.50	16.87	91.89
8558.5	12.08	2.41	0.18	67.45	0.17	2.93	0.43	0.57	18.44	109.84
8559.0	11.26	2.37	0.20	71.85	0.19	2.22	0.43	0.57	23.19	558.97
8559.5	11.26	2.34	0.22	75.05	0.21	1.12	0.55	0.45	26.97	789.18
8560.0	11.65	2.32	0.24	78.65	0.23	0.66	0.67	0.33	27.68	326.19
8560.5	11.23	2.30	0.25	81.44	0.24	0.44	0.77	0.23	27.74	41.15
8561.0	11.62	2.28	0.26	83.44	0.25	0.39	0.79	0.21	26.83	23.06
8561.5	11.21	2.27	0.27	84.24	0.25	0.39	0.77	0.23	26.60	16.23
8562.0	10.80	2.27	0.27	85.44	0.26	0.39	0.76	0.24	26.60	13.34
8562.5	9.58	2.28	0.27	85.84	0.26	0.39	0.77	0.23	27.04	19.59
8563.0	9.97	2.27	0.26	85.84	0.26	0.39	0.76	0.24	27.64	29.06
8563.5	11.56	2.25	0.27	85.44	0.26	0.39	0.75	0.25	25.36	144.17
8564.0	11.95	2.25	0.27	85.44	0.26	0.37	0.77	0.23	22.06	296.40
8564.5	12.34	2.26	0.26	84.24	0.26	0.32	0.84	0.16	23.69	284.64
8565.0	12.33	2.26	0.26	83.44	0.25	0.27	0.92	0.08	27.05	215.25
8565.5	12.32	2.28	0.25	82.64	0.25	0.24	-999.25	-999.25	29.18	143.91
8566.0	12.30	2.28	0.25	83.44	0.25	0.23	-999.25	-999.25	27.43	66.37
8566.5	13.10	2.29	0.26	84.04	0.25	0.23	-999.25	-999.25	26.71	8.09
8567.0	14.29	2.28	0.26	84.64	0.25	0.22	-999.25	-999.25	29.23	10.81
8567.5	12.68	2.27	0.26	85.04	0.26	0.22	-999.25	-999.25	31.51	13.26
8568.0	12.26	2.27	0.27	85.04	0.26	0.22	0.99	0.01	29.98	11.66
8568.5	12.65	2.27	0.28	85.43	0.27	0.22	0.98	0.02	28.45	10.05
8569.0	12.23	2.28	0.27	85.83	0.27	0.22	0.98	0.02	26.15	9.05
8569.5	11.82	2.27	0.27	86.23	0.26	0.22	0.98	0.02	25.18	9.01
8570.0	11.41	2.27	0.28	86.63	0.27	0.23	0.97	0.03	25.32	9.67
8570.5	11.19	2.28	0.27	86.23	0.26	0.23	0.98	0.02	24.83	8.92
8571.0	10.99	2.28	0.26	85.43	0.26	0.23	0.99	0.01	23.39	6.08
8571.5	11.37	2.28	0.26	85.43	0.25	0.24	0.98	0.02	22.63	7.08
8572.0	11.76	2.28	0.26	85.43	0.25	0.25	0.96	0.04	23.98	20.23
8572.5	11.35	2.29	0.26	85.03	0.25	0.26	0.94	0.06	24.90	25.48
8573.0	10.14	2.28	0.26	84.63	0.25	0.27	0.94	0.06	25.15	18.87
8573.5	10.52	2.28	0.25	83.43	0.25	0.27	0.95	0.05	25.65	19.57
8574.0	10.51	2.28	0.25	83.03	0.25	0.27	0.95	0.05	26.51	31.24
8574.5	10.50	2.31	0.25	82.63	0.24	0.28	0.96	0.04	25.20	20.65
8575.0	10.49	2.33	0.25	81.82	0.24	0.28	0.97	0.03	23.66	7.58
8575.5	10.47	2.33	0.25	81.22	0.24	0.29	0.96	0.04	23.61	8.21
8576.0	10.46	2.32	0.25	80.62	0.24	0.30	0.95	0.05	23.73	10.37
8576.5	10.45	2.32	0.24	79.82	0.23	0.30	0.95	0.05	24.32	14.38
8577.0	10.24	2.32	0.23	79.02	0.23	0.30	0.96	0.04	25.62	21.19
8577.5	10.02	2.33	0.23	78.62	0.23	0.30	0.98	0.02	26.14	28.62
8578.0	10.41	2.34	0.23	78.62	0.23	0.30	0.99	0.01	25.49	36.98
8578.5	10.80	2.33	0.24	79.02	0.23	0.29	0.99	0.01	24.43	32.98
8579.0	10.80	2.32	0.24	79.42	0.23	0.28	0.99	0.01	22.74	10.44
8579.5	10.38	2.32	0.24	79.42	0.23	0.28	0.99	0.01	24.45	15.81
8580.0	9.96	2.33	0.24	79.42	0.23	0.28	1.00	0.00	27.35	30.98
8580.5	10.76	2.33	0.24	80.22	0.24	0.28	0.99	0.01	26.95	27.82
8581.0	11.55	2.30	0.25	81.02	0.24	0.28	0.97	0.03	25.39	18.21
8581.5	12.74	2.29	0.25	81.42	0.24	0.28	0.96	0.04	24.34	11.84
8582.0	13.14	2.31	0.24	81.02	0.24	0.28	0.98	0.02	24.94	15.74
8582.5	12.32	2.32	0.24	80.62	0.23	0.28	-999.25	-999.25	24.81	16.81
8583.0	11.90	2.33	0.23	80.22	0.22	0.29	-999.25	-999.25	22.36	8.94
8583.5	11.90	2.35	0.22	78.61	0.21	0.35	0.98	0.02	20.12	4.42
8584.0	11.88	2.37	0.20	76.61	0.20	0.44	0.94	0.06	18.52	10.50
8584.5	11.87	2.40	0.18	74.21	0.18	0.55	0.91	0.09	16.65	13.70
8585.0	11.66	2.42	0.16	72.21	0.17	0.60	0.95	0.05	14.87	15.61
