# LAS format log file from PETREL
# Project units are specified as depth units
#==================================================================
~Version information
VERS.   2.0:
WRAP.   NO:
#==================================================================
~Well
STRT .ft        8475.0 :
STOP .ft        8825.0 :
STEP .ft        0.5    :
NULL .          -999.25  :
COMP.           : COMPANY
WELL.  HW-27    : WELL
FLD.   COSTA    : FIELD
LOC.            : LOCATION
SRVC.           : SERVICE COMPANY
DATE.  2018-02-06 14:55:42   : Log Export Date {yyyy-MM-dd HH:mm:ss}
PROV.           : PROVINCE
UWI.   HW-27    : UNIQUE WELL ID
API.            : API NUMBER
#==================================================================
~Curve
DEPT .ft                  : DEPTH
GR .gAPI                  : GR
RHOB .g/cm3               : RHOB
NPHI .ft3/ft3             : NPHI
DT .us/ft                 : DT
PHIE .ft3/ft3             : PHIE
RT .ohm.m                 : RT
SW .                      : SW
SO . 			  : SO
CORE_POR .ft3/ft3         : CORE_POR
CORE_PERM .mD             : CORE_PERM
~Parameter
#==================================================================
~Ascii
# ...
8681.5	14.00	2.23	0.28	82.49	0.28	0.13	-999.25	-999.25	28.50	7.82
8682.0	13.85	2.23	0.29	82.57	0.27	0.13	-999.25	-999.25	27.40	14.70
8682.5	13.65	2.22	0.32	81.99	0.26	0.12	-999.25	-999.25	26.30	21.57
8683.0	12.72	2.22	0.33	82.23	0.28	0.12	-999.25	-999.25	27.95	12.54
8683.5	12.13	2.22	0.34	83.11	0.30	0.11	-999.25	-999.25	29.60	3.51
8684.0	12.49	2.22	0.33	83.80	0.28	0.11	-999.25	-999.25	28.30	3.04
8684.5	13.10	2.21	0.33	84.17	0.27	0.10	-999.25	-999.25	27.00	2.57
8685.0	13.89	2.21	0.31	84.50	0.28	0.10	-999.25	-999.25	27.75	2.73
8685.5	14.11	2.21	0.29	84.75	0.28	0.11	-999.25	-999.25	28.50	2.88
8686.0	13.88	2.21	0.31	84.86	0.28	0.11	-999.25	-999.25	27.50	2.57
8686.5	13.54	2.21	0.33	85.03	0.26	0.13	-999.25	-999.25	26.50	2.26
8687.0	13.19	2.21	0.35	84.87	0.28	0.15	-999.25	-999.25	28.40	3.41
8687.5	12.87	2.21	0.34	84.51	0.30	0.16	-999.25	-999.25	30.30	4.55
8688.0	12.71	2.22	0.32	84.06	0.28	0.17	-999.25	-999.25	28.45	4.55
8688.5	12.86	2.22	0.31	83.71	0.27	0.15	-999.25	-999.25	26.60	4.55
8689.0	13.28	2.22	0.30	83.79	0.28	0.14	-999.25	-999.25	27.60	19.76
8689.5	13.94	2.22	0.31	83.80	0.29	0.14	-999.25	-999.25	28.60	34.97
8690.0	14.84	2.22	0.32	84.14	0.29	0.15	-999.25	-999.25	29.15	20.49
8690.5	15.26	2.22	0.32	84.37	0.30	0.15	-999.25	-999.25	29.70	6.01
8691.0	14.77	2.22	0.31	84.60	0.30	0.14	-999.25	-999.25	29.65	6.34
8691.5	14.54	2.22	0.31	84.83	0.30	0.13	-999.25	-999.25	29.60	6.67
8692.0	14.02	2.22	0.33	84.76	0.29	0.12	-999.25	-999.25	29.45	5.41
8692.5	13.15	2.22	0.34	84.42	0.29	0.12	-999.25	-999.25	29.30	4.15
8693.0	12.29	2.21	0.34	84.25	0.29	0.12	-999.25	-999.25	28.75	3.36
8693.5	12.46	2.22	0.33	83.91	0.28	0.12	-999.25	-999.25	28.20	2.57
8694.0	12.72	2.21	0.32	83.97	0.26	0.11	-999.25	-999.25	26.35	2.03
8694.5	12.77	2.22	0.34	84.29	0.25	0.11	-999.25	-999.25	24.50	1.49
8695.0	12.71	2.22	0.35	84.30	0.27	0.11	-999.25	-999.25	27.00	3.10
8695.5	12.73	2.21	0.37	84.27	0.29	0.12	-999.25	-999.25	29.50	4.71
8696.0	12.93	2.21	0.39	84.18	0.29	0.13	-999.25	-999.25	29.20	3.99
8696.5	13.02	2.21	0.38	84.27	0.29	0.14	-999.25	-999.25	28.90	3.27
8697.0	13.08	2.21	0.34	83.96	0.29	0.14	-999.25	-999.25	29.25	3.59
8697.5	13.14	2.21	0.31	83.51	0.30	0.15	-999.25	-999.25	29.60	3.91
8698.0	13.00	2.22	0.32	83.37	0.28	0.16	-999.25	-999.25	27.70	2.78
8698.5	13.55	2.22	0.33	82.80	0.26	0.15	-999.25	-999.25	25.80	1.65
8699.0	14.48	2.22	0.32	83.02	0.26	0.16	-999.25	-999.25	26.25	4.32
8699.5	14.77	2.22	0.33	82.86	0.27	0.16	-999.25	-999.25	26.70	7.00
8700.0	14.53	2.22	0.33	82.76	0.28	0.17	-999.25	-999.25	27.70	5.82
8700.5	14.53	2.21	0.34	82.63	0.29	0.20	-999.25	-999.25	28.70	4.63
8701.0	14.48	2.22	0.35	82.86	0.29	0.20	-999.25	-999.25	28.70	4.11
8701.5	14.42	2.22	0.35	82.95	0.29	0.20	-999.25	-999.25	28.70	3.59
8702.0	14.18	2.23	0.33	82.64	0.28	0.21	-999.25	-999.25	28.25	3.20
8702.5	13.96	2.22	0.31	82.28	0.28	0.20	-999.25	-999.25	27.80	2.80
8703.0	13.90	2.21	0.31	82.49	0.28	0.20	-999.25	-999.25	28.45	3.92
8703.5	14.01	2.21	0.32	82.18	0.29	0.21	-999.25	-999.25	29.10	5.04
8704.0	14.89	2.21	0.31	82.71	0.29	0.21	-999.25	-999.25	29.10	7.69
8704.5	14.83	2.21	0.32	83.35	0.29	0.21	-999.25	-999.25	29.10	10.34
8705.0	14.10	2.21	0.33	83.65	0.30	0.20	-999.25	-999.25	29.75	6.92
8705.5	13.77	2.21	0.33	83.53	0.30	0.18	-999.25	-999.25	30.40	3.51
8706.0	13.65	2.22	0.32	82.99	0.30	0.16	-999.25	-999.25	30.10	3.67
8706.5	13.78	2.22	0.30	83.29	0.30	0.14	-999.25	-999.25	29.80	3.83
8707.0	13.72	2.23	0.30	83.13	0.29	0.14	-999.25	-999.25	29.05	27.18
8707.5	13.40	2.22	0.31	82.81	0.28	0.13	-999.25	-999.25	28.30	50.53
8708.0	13.29	2.21	0.31	83.03	0.28	0.11	-999.25	-999.25	28.10	26.20
8708.5	13.10	2.21	0.31	83.20	0.28	0.11	-999.25	-999.25	27.90	1.87
8709.0	12.47	2.21	0.31	83.10	0.28	0.12	-999.25	-999.25	28.10	2.07
8709.5	12.63	2.21	0.33	82.75	0.28	0.13	-999.25	-999.25	28.30	2.26
8710.0	13.08	2.21	0.33	82.29	0.28	0.14	-999.25	-999.25	27.70	2.07
8710.5	13.70	2.21	0.32	81.75	0.27	0.17	-999.25	-999.25	27.10	1.87
8711.0	14.39	2.22	0.31	81.06	0.27	0.19	-999.25	-999.25	27.30	1.87
8711.5	14.95	2.22	0.30	80.17	0.28	0.21	-999.25	-999.25	27.50	1.87
8712.0	14.69	2.23	0.30	76.86	0.26	0.23	-999.25	-999.25	26.45	1.72
8712.5	13.94	2.25	0.28	75.16	0.25	0.25	-999.25	-999.25	25.40	1.57
8713.0	13.06	2.27	0.28	73.52	0.25	0.26	-999.25	-999.25	24.85	1.49
8713.5	12.39	2.28	0.28	71.94	0.24	0.27	-999.25	-999.25	24.30	1.42
8714.0	12.22	2.29	0.27	70.73	0.23	0.29	-999.25	-999.25	23.15	1.23
8714.5	12.99	2.30	0.27	70.89	0.22	0.27	-999.25	-999.25	22.00	1.05
8715.0	14.31	2.29	0.27	71.40	0.21	0.29	-999.25	-999.25	21.05	1.12
8715.5	14.07	2.28	0.27	71.54	0.20	0.31	-999.25	-999.25	20.10	1.19
8716.0	13.70	2.27	0.28	72.33	0.21	0.27	-999.25	-999.25	21.10	1.01
8716.5	13.72	2.26	0.29	73.61	0.22	0.24	-999.25	-999.25	22.10	0.83
8717.0	13.33	2.25	0.31	74.90	0.24	0.22	-999.25	-999.25	23.70	1.20
8717.5	12.86	2.24	0.30	76.07	0.25	0.22	-999.25	-999.25	25.30	1.57
8718.0	13.48	2.23	0.30	76.62	0.25	0.23	-999.25	-999.25	24.95	1.46
8718.5	13.80	2.24	0.30	76.47	0.25	0.24	-999.25	-999.25	24.60	1.34
8719.0	13.80	2.26	0.27	75.31	0.25	0.27	-999.25	-999.25	24.80	1.46
8719.5	13.20	2.27	0.25	72.36	0.25	0.26	-999.25	-999.25	25.00	1.57
8720.0	12.57	2.29	0.22	70.10	0.23	0.25	-999.25	-999.25	22.90	2.38
8720.5	13.35	2.32	0.20	69.12	0.21	0.24	-999.25	-999.25	20.80	3.20
8721.0	13.61	2.32	0.22	68.36	0.14	0.26	-999.25	-999.25	14.50	1.74
8721.5	13.78	2.30	0.23	67.31	0.08	0.34	-999.25	-999.25	8.20	0.28
8722.0	13.42	2.29	0.25	67.25	0.14	0.37	-999.25	-999.25	14.45	0.55
8722.5	13.05	2.28	0.26	68.64	0.21	0.35	-999.25	-999.25	20.70	0.83
8723.0	13.68	2.28	0.25	69.50	0.21	0.35	-999.25	-999.25	20.65	0.72
8723.5	14.00	2.29	0.22	67.96	0.21	0.37	-999.25	-999.25	20.60	0.61
8724.0	13.93	2.32	0.21	66.85	0.19	0.40	-999.25	-999.25	19.15	0.39
8724.5	13.55	2.33	0.20	65.89	0.18	0.44	-999.25	-999.25	17.70	0.17
8725.0	13.43	2.35	0.19	64.93	0.16	0.57	-999.25	-999.25	16.00	0.10
8725.5	13.48	2.36	0.18	63.97	0.14	0.72	-999.25	-999.25	14.30	0.03
8726.0	13.62	2.37	0.18	63.01	0.15	0.80	-999.25	-999.25	14.95	0.25
8726.5	13.82	2.38	0.18	62.91	0.16	0.76	-999.25	-999.25	15.60	0.47
8727.0	14.42	2.38	0.18	62.31	0.15	0.69	-999.25	-999.25	15.25	0.32
8727.5	15.65	2.38	0.17	63.25	0.15	0.58	-999.25	-999.25	14.90	0.17
8728.0	16.53	2.37	0.17	64.65	0.15	0.48	-999.25	-999.25	14.60	0.11
8728.5	15.55	2.33	0.19	66.21	0.14	0.45	-999.25	-999.25	14.30	0.06
8729.0	14.46	2.29	0.22	68.02	0.17	0.38	-999.25	-999.25	16.55	0.41
8729.5	13.77	2.26	0.26	69.90	0.19	0.32	-999.25	-999.25	18.80	0.75
8730.0	13.68	2.25	0.28	71.94	0.22	0.26	-999.25	-999.25	21.60	1.01
8730.5	13.59	2.24	0.29	74.34	0.24	0.23	-999.25	-999.25	24.40	1.27
8731.0	13.52	2.24	0.29	75.55	0.24	0.22	-999.25	-999.25	23.95	1.08
8731.5	13.88	2.24	0.28	75.84	0.23	0.21	-999.25	-999.25	23.50	0.90
8732.0	14.15	2.24	0.27	74.85	0.23	0.23	-999.25	-999.25	23.15	0.86
8732.5	14.15	2.25	0.27	73.69	0.23	0.25	-999.25	-999.25	22.80	0.83
8733.0	14.19	2.26	0.26	72.48	0.23	0.26	-999.25	-999.25	23.30	0.79
8733.5	14.51	2.27	0.27	72.30	0.24	0.27	-999.25	-999.25	23.80	0.75
8734.0	14.38	2.28	0.27	72.01	0.22	0.27	-999.25	-999.25	22.10	0.61
8734.5	13.68	2.28	0.27	71.54	0.20	0.27	-999.25	-999.25	20.40	0.47
8735.0	13.34	2.27	0.27	72.29	0.21	0.30	-999.25	-999.25	20.65	0.43
8735.5	13.45	2.25	0.27	74.11	0.21	0.28	-999.25	-999.25	20.90	0.40
8736.0	13.52	2.24	0.28	76.09	0.22	0.23	-999.25	-999.25	22.25	0.61
8736.5	13.17	2.24	0.29	76.78	0.24	0.20	-999.25	-999.25	23.60	0.83
8737.0	12.77	2.23	0.30	76.80	0.24	0.17	-999.25	-999.25	24.30	0.94
8737.5	12.42	2.23	0.30	77.82	0.25	0.15	-999.25	-999.25	25.00	1.05
8738.0	12.07	2.23	0.31	78.66	0.26	0.13	-999.25	-999.25	25.65	1.16
8738.5	11.88	2.23	0.31	78.86	0.26	0.14	-999.25	-999.25	26.30	1.27
8739.0	11.96	2.24	0.30	78.58	0.26	0.14	-999.25	-999.25	26.30	1.34
8739.5	12.71	2.23	0.30	77.99	0.26	0.15	-999.25	-999.25	26.30	1.42
8740.0	13.61	2.23	0.28	78.13	0.26	0.15	-999.25	-999.25	25.80	1.23
8740.5	13.12	2.24	0.28	78.26	0.25	0.15	-999.25	-999.25	25.30	1.05
8741.0	12.84	2.24	0.28	78.28	0.24	0.15	-999.25	-999.25	23.65	0.97
8741.5	12.67	2.23	0.29	78.72	0.22	0.14	-999.25	-999.25	22.00	0.90
8742.0	13.26	2.22	0.31	79.26	0.22	0.14	-999.25	-999.25	21.75	0.84
