# LAS format log file from PETREL
# Project units are specified as depth units
#==================================================================
~Version information
VERS.   2.0:
WRAP.   NO:
#==================================================================
~Well
STRT .ft        8145.0 :
STOP .ft        8580.0 :
STEP .ft        0.5    :
NULL .          -999.25  :
COMP.           : COMPANY
WELL.  HW-24    : WELL
FLD.   COSTA    : FIELD
LOC.            : LOCATION
SRVC.           : SERVICE COMPANY
DATE.  2018-02-06 14:55:41   : Log Export Date {yyyy-MM-dd HH:mm:ss}
PROV.           : PROVINCE
UWI.   HW-24    : UNIQUE WELL ID
API.            : API NUMBER
#==================================================================
~Curve
DEPT .ft                  : DEPTH
GR .gAPI                  : GR
RHOB .g/cm3               : RHOB
NPHI .ft3/ft3             : NPHI
DT .us/ft                 : DT
PHIE .ft3/ft3             : PHIE
RT .ohm.m                 : RT
SW .                      : SW
SO . 			  : SO
CORE_POR .ft3/ft3         : CORE_POR
CORE_PERM .mD             : CORE_PERM
~Parameter
#==================================================================
~Ascii
# ...
8424.5	7.14	2.25	0.22	-999.25	0.26	11.65	0.14	0.86	25.79	20.98
8425.0	7.52	2.24	0.22	-999.25	0.25	11.76	0.14	0.86	24.84	13.08
8425.5	7.47	2.24	0.21	-999.25	0.24	11.84	0.15	0.85	24.34	20.79
8426.0	8.62	2.24	0.21	-999.25	0.25	11.91	0.14	0.86	24.70	58.79
8426.5	7.60	2.24	0.21	-999.25	0.25	12.01	0.14	0.86	24.92	73.28
8427.0	7.52	2.23	0.21	-999.25	0.25	12.08	0.14	0.86	24.84	42.12
8427.5	6.63	2.24	0.21	-999.25	0.25	12.11	0.14	0.86	24.77	10.96
8428.0	8.16	2.24	0.22	-999.25	0.24	11.88	0.15	0.85	24.20	8.11
8428.5	7.51	2.26	0.22	-999.25	0.24	11.65	0.15	0.85	23.64	5.26
8429.0	7.39	2.27	0.23	-999.25	0.24	11.59	0.15	0.85	24.40	5.84
8429.5	7.51	2.27	0.23	-999.25	0.25	11.56	0.14	0.86	25.05	6.77
8430.0	9.56	2.28	0.23	-999.25	0.25	11.53	0.14	0.86	25.21	9.56
8430.5	8.80	2.27	0.22	-999.25	0.25	11.65	0.14	0.86	25.36	12.35
8431.0	7.30	2.26	0.21	-999.25	0.27	12.02	0.13	0.87	26.97	16.71
8431.5	5.26	2.25	0.22	-999.25	0.29	12.64	0.12	0.88	28.58	21.08
8432.0	7.05	2.24	0.23	-999.25	0.28	13.11	0.12	0.88	27.69	15.83
8432.5	8.04	2.24	0.23	-999.25	0.27	13.54	0.12	0.88	26.79	10.57
8433.0	8.93	2.24	0.22	-999.25	0.26	14.29	0.12	0.88	26.13	8.57
8433.5	8.16	2.25	0.21	-999.25	0.26	14.58	0.13	0.87	25.52	7.20
8434.0	7.89	2.26	0.20	-999.25	0.25	14.62	0.13	0.87	24.53	9.45
8434.5	7.38	2.28	0.20	-999.25	0.24	14.72	0.14	0.86	23.55	11.70
8435.0	6.62	2.27	0.21	-999.25	0.25	14.67	0.13	0.87	24.53	9.57
8435.5	6.50	2.27	0.22	-999.25	0.26	14.45	0.12	0.88	25.89	6.61
8436.0	7.53	2.27	0.22	-999.25	0.26	13.70	0.13	0.87	26.34	7.86
8436.5	8.80	2.27	0.24	-999.25	0.27	12.35	0.13	0.87	26.68	8.78
8437.0	8.92	2.27	0.23	-999.25	0.26	11.65	0.14	0.86	26.44	7.93
8437.5	7.64	2.27	0.23	-999.25	0.26	11.47	0.14	0.86	26.19	7.09
8438.0	7.51	2.27	0.22	-999.25	0.27	11.40	0.14	0.86	26.57	8.73
8438.5	8.42	2.27	0.23	-999.25	0.27	11.36	0.13	0.87	27.02	10.17
8439.0	8.93	2.26	0.23	-999.25	0.28	11.73	0.13	0.87	27.88	10.62
8439.5	8.16	2.26	0.23	-999.25	0.29	12.26	0.12	0.88	28.74	11.06
8440.0	7.37	2.26	0.22	-999.25	0.28	12.63	0.12	0.88	27.66	10.27
8440.5	6.35	2.26	0.22	-999.25	0.26	13.03	0.13	0.87	26.38	9.09
8441.0	6.10	2.25	0.23	-999.25	0.24	13.79	0.14	0.86	24.05	5.85
8441.5	6.25	2.28	0.22	-999.25	0.22	14.35	0.15	0.85	21.72	2.61
8442.0	7.70	2.30	0.22	-999.25	0.19	14.82	0.17	0.83	19.00	2.30
8442.5	8.46	2.33	0.21	-999.25	0.16	16.04	0.19	0.81	16.28	1.99
8443.0	9.36	2.33	0.22	-999.25	0.20	17.73	0.15	0.85	19.72	2.47
8443.5	9.95	2.33	0.21	-999.25	0.23	19.40	0.12	0.88	23.16	2.94
8444.0	9.57	2.31	0.22	-999.25	0.23	20.44	0.12	0.88	22.78	3.46
8444.5	9.57	2.31	0.20	-999.25	0.20	21.20	0.13	0.87	20.43	3.99
8445.0	9.31	2.32	0.20	-999.25	0.21	21.86	0.13	0.87	20.63	5.21
8445.5	9.40	2.34	0.18	-999.25	0.23	21.95	0.11	0.89	23.38	7.11
8446.0	9.65	2.34	0.19	-999.25	0.22	20.32	0.12	0.88	22.35	9.45
8446.5	8.37	2.34	0.19	-999.25	0.21	17.99	0.14	0.86	21.33	11.79
8447.0	9.06	2.36	0.19	-999.25	0.23	16.48	0.13	0.87	23.41	9.01
8447.5	8.00	2.34	0.20	-999.25	0.25	15.32	0.12	0.88	25.20	7.37
8448.0	10.29	2.31	0.22	-999.25	0.26	13.91	0.12	0.88	26.41	7.98
8448.5	9.27	2.29	0.22	-999.25	0.27	12.19	0.13	0.87	27.04	8.63
8449.0	9.57	2.28	0.21	-999.25	0.27	10.84	0.14	0.86	26.53	9.35
8449.5	7.78	2.28	0.21	-999.25	0.26	9.99	0.15	0.85	26.02	10.07
8450.0	8.60	2.27	0.22	-999.25	0.27	9.37	0.15	0.85	26.66	9.31
8450.5	7.45	2.26	0.22	-999.25	0.27	8.68	0.15	0.85	27.29	8.55
8451.0	6.81	2.27	0.22	-999.25	0.26	8.15	0.16	0.84	26.09	8.46
8451.5	5.87	2.28	0.22	-999.25	0.25	7.89	0.18	0.82	24.90	8.37
8452.0	6.76	2.28	0.22	-999.25	0.25	7.85	0.17	0.83	25.01	13.55
8452.5	6.64	2.28	0.22	-999.25	0.26	7.93	0.17	0.83	25.81	21.46
8453.0	7.27	2.28	0.22	-999.25	0.26	8.42	0.16	0.84	25.62	13.80
8453.5	6.12	2.27	0.23	-999.25	0.25	9.41	0.16	0.84	25.43	6.15
8454.0	6.37	2.26	0.23	-999.25	0.25	10.02	0.15	0.85	25.49	4.23
8454.5	5.84	2.26	0.23	-999.25	0.26	10.39	0.15	0.85	25.67	5.28
8455.0	6.73	2.26	0.21	-999.25	0.25	10.60	0.15	0.85	25.00	5.32
8455.5	7.76	2.26	0.19	-999.25	0.25	10.34	0.15	0.85	24.94	5.85
8456.0	7.65	2.29	0.21	-999.25	0.26	10.17	0.15	0.85	25.51	6.89
8456.5	8.55	2.30	0.23	-999.25	0.26	10.07	0.15	0.85	25.74	7.59
8457.0	8.11	2.30	0.23	-999.25	0.25	9.95	0.15	0.85	25.29	7.64
8457.5	7.60	2.27	0.24	-999.25	0.25	9.62	0.16	0.84	24.81	6.97
8458.0	8.11	2.26	0.26	-999.25	0.24	8.69	0.17	0.83	24.28	4.89
8458.5	7.91	2.25	0.26	-999.25	0.24	7.89	0.18	0.82	24.39	4.06
8459.0	7.92	2.24	0.23	-999.25	0.26	7.53	0.17	0.83	25.73	5.65
8459.5	7.16	2.23	0.22	-999.25	0.27	7.41	0.17	0.83	26.62	6.69
8460.0	7.03	2.24	0.23	-999.25	0.27	7.36	0.17	0.83	26.63	6.69
8460.5	8.04	2.24	0.23	-999.25	0.27	7.38	0.17	0.83	26.64	6.69
8461.0	7.14	2.25	0.24	-999.25	0.26	7.43	0.17	0.83	26.43	7.50
8461.5	6.75	2.25	0.24	-999.25	0.26	7.39	0.17	0.83	26.30	8.03
8462.0	6.12	2.25	0.24	-999.25	0.27	7.35	0.17	0.83	26.63	7.06
8462.5	7.15	2.25	0.24	-999.25	0.27	7.33	0.17	0.83	26.95	6.09
8463.0	7.66	2.25	0.24	-999.25	0.26	7.29	0.17	0.83	26.50	5.34
8463.5	7.53	2.24	0.23	-999.25	0.26	7.25	0.17	0.83	26.04	4.60
8464.0	6.51	2.24	0.23	-999.25	0.26	7.20	0.18	0.82	25.67	4.46
8464.5	6.51	2.25	0.23	-999.25	0.25	7.13	0.18	0.82	25.30	4.32
8465.0	7.91	2.26	0.23	-999.25	0.26	7.02	0.17	0.83	26.49	5.76
8465.5	8.98	2.27	0.23	-999.25	0.27	6.90	0.17	0.83	27.24	6.55
8466.0	8.85	2.28	0.23	-999.25	0.27	6.76	0.17	0.83	27.15	6.07
8466.5	8.21	2.27	0.24	-999.25	0.27	6.59	0.18	0.82	27.05	5.76
8467.0	6.64	2.27	0.23	-999.25	0.27	6.33	0.18	0.82	26.94	5.75
8467.5	6.84	2.27	0.25	-999.25	0.27	6.00	0.18	0.82	27.06	5.76
8468.0	6.33	2.26	0.25	-999.25	0.28	5.69	0.19	0.81	27.64	5.82
8468.5	7.48	2.25	0.25	-999.25	0.28	5.46	0.19	0.81	28.22	5.87
8469.0	7.41	2.24	0.25	-999.25	0.28	5.30	0.19	0.81	28.32	6.16
8469.5	7.41	2.24	0.25	-999.25	0.28	5.17	0.19	0.81	28.42	6.45
8470.0	7.24	2.24	0.25	-999.25	0.28	5.15	0.19	0.81	28.41	6.51
8470.5	5.96	2.24	0.25	-999.25	0.28	5.33	0.19	0.81	28.17	6.11
8471.0	5.97	2.24	0.25	-999.25	0.27	5.69	0.19	0.81	27.48	5.10
8471.5	5.37	2.24	0.22	-999.25	0.27	6.05	0.19	0.81	26.70	3.97
8472.0	6.13	2.28	0.18	-999.25	0.24	6.37	0.20	0.80	24.05	2.81
8472.5	6.90	2.35	0.15	-999.25	0.21	6.75	0.22	0.78	21.39	1.65
8473.0	7.38	2.42	0.17	-999.25	0.20	6.96	0.24	0.76	19.69	1.51
8473.5	8.40	2.43	0.18	-999.25	0.18	6.89	0.26	0.74	17.99	1.37
8474.0	8.27	2.43	0.17	-999.25	0.19	6.74	0.25	0.75	18.99	1.56
8474.5	7.92	2.43	0.16	-999.25	0.20	6.57	0.24	0.76	19.98	1.76
8475.0	7.66	2.37	0.18	-999.25	0.22	6.34	0.22	0.78	22.19	2.66
8475.5	7.15	2.31	0.21	-999.25	0.26	6.16	0.19	0.81	25.60	4.26
8476.0	7.15	2.27	0.21	-999.25	0.26	5.98	0.19	0.81	26.16	5.80
8476.5	7.53	2.26	0.20	-999.25	0.27	5.66	0.19	0.81	26.71	7.34
8477.0	8.16	2.27	0.21	-999.25	0.25	5.33	0.21	0.79	25.01	4.92
8477.5	7.91	2.26	0.21	-999.25	0.24	5.12	0.23	0.77	23.81	3.22
8478.0	7.40	2.27	0.21	-999.25	0.24	5.05	0.23	0.77	23.59	2.94
8478.5	7.28	2.29	0.21	-999.25	0.23	5.04	0.23	0.77	23.37	2.66
8479.0	8.24	2.28	0.23	-999.25	0.24	5.03	0.22	0.78	24.38	3.96
8479.5	7.98	2.27	0.25	-999.25	0.26	4.90	0.22	0.78	25.63	5.56
8480.0	7.22	2.25	0.24	-999.25	0.25	4.63	0.22	0.78	25.30	4.85
8480.5	5.78	2.24	0.23	-999.25	0.25	4.42	0.23	0.77	24.96	4.15
8481.0	6.30	2.23	0.22	-999.25	0.26	4.32	0.23	0.77	25.72	4.60
8481.5	5.89	2.24	0.24	-999.25	0.27	4.28	0.22	0.78	26.59	5.12
8482.0	6.73	2.24	0.23	-999.25	0.27	4.28	0.22	0.78	26.98	4.86
8482.5	6.99	2.24	0.24	-999.25	0.27	4.30	0.22	0.78	27.15	4.93
8483.0	7.51	2.24	0.24	-999.25	0.27	4.33	0.22	0.78	26.87	5.62
8483.5	7.02	2.25	0.25	-999.25	0.27	4.32	0.22	0.78	26.60	6.32
8484.0	6.76	2.25	0.25	-999.25	0.27	4.30	0.22	0.78	26.75	6.32
8484.5	7.40	2.25	0.25	-999.25	0.27	4.29	0.22	0.78	26.89	6.32
8485.0	8.85	2.24	0.24	-999.25	0.27	4.28	0.22	0.78	26.60	5.36
8485.5	8.09	2.25	0.24	-999.25	0.26	4.24	0.23	0.77	26.31	4.76
8486.0	7.57	2.25	0.25	-999.25	0.26	4.17	0.23	0.77	26.26	5.00
8486.5	7.27	2.25	0.24	-999.25	0.26	4.08	0.23	0.77	26.20	5.24
8487.0	6.54	2.25	0.24	-999.25	0.26	4.03	0.23	0.77	26.19	5.26
8487.5	6.28	2.25	0.23	-999.25	0.26	4.01	0.23	0.77	26.21	5.16
8488.0	6.54	2.25	0.22	-999.25	0.26	3.98	0.24	0.76	26.10	5.69
8488.5	7.65	2.26	0.23	-999.25	0.26	3.94	0.24	0.76	25.99	5.84
8489.0	7.65	2.26	0.22	-999.25	0.26	3.90	0.24	0.76	25.90	5.61
