# LAS format log file from PETREL
# Project units are specified as depth units
#==================================================================
~Version information
VERS.   2.0:
WRAP.   NO:
#==================================================================
~Well
STRT .ft        8145.0 :
STOP .ft        8580.0 :
STEP .ft        0.5    :
NULL .          -999.25  :
COMP.           : COMPANY
WELL.  HW-24    : WELL
FLD.   COSTA    : FIELD
LOC.            : LOCATION
SRVC.           : SERVICE COMPANY
DATE.  2018-02-06 14:55:41   : Log Export Date {yyyy-MM-dd HH:mm:ss}
PROV.           : PROVINCE
UWI.   HW-24    : UNIQUE WELL ID
API.            : API NUMBER
#==================================================================
~Curve
DEPT .ft                  : DEPTH
GR .gAPI                  : GR
RHOB .g/cm3               : RHOB
NPHI .ft3/ft3             : NPHI
DT .us/ft                 : DT
PHIE .ft3/ft3             : PHIE
RT .ohm.m                 : RT
SW .                      : SW
SO . 			  : SO
CORE_POR .ft3/ft3         : CORE_POR
CORE_PERM .mD             : CORE_PERM
~Parameter
#==================================================================
~Ascii
8364.0	40.88	2.70	0.03	-999.25	0.00	22.48	-999.25	-999.25	-999.25	-999.25
8364.5	41.63	2.70	0.03	-999.25	0.00	24.25	-999.25	-999.25	-999.25	-999.25
8365.0	38.82	2.71	0.03	-999.25	0.00	26.03	-999.25	-999.25	-999.25	-999.25
8365.5	37.93	2.72	0.03	-999.25	0.00	26.72	-999.25	-999.25	-999.25	-999.25
8366.0	34.99	2.74	0.03	-999.25	0.00	27.25	-999.25	-999.25	-999.25	-999.25
8366.5	34.87	2.74	0.03	-999.25	0.00	27.53	-999.25	-999.25	-999.25	-999.25
8367.0	33.53	2.72	0.03	-999.25	0.00	27.74	-999.25	-999.25	-999.25	-999.25
8367.5	33.93	2.71	0.04	-999.25	0.00	28.17	-999.25	-999.25	-999.25	-999.25
8368.0	37.25	2.70	0.04	-999.25	0.00	30.15	-999.25	-999.25	-999.25	-999.25
8368.5	38.60	2.70	0.04	-999.25	0.00	31.71	-999.25	-999.25	-999.25	-999.25
8369.0	39.35	2.69	0.04	-999.25	0.00	33.14	-999.25	-999.25	-999.25	-999.25
8369.5	32.02	2.69	0.03	-999.25	0.00	36.24	-999.25	-999.25	-999.25	-999.25
8370.0	27.80	2.69	0.03	-999.25	0.00	40.53	-999.25	-999.25	-999.25	-999.25
8370.5	26.65	2.70	0.02	-999.25	0.00	46.47	-999.25	-999.25	-999.25	-999.25
8371.0	28.41	2.71	0.02	-999.25	0.00	53.29	-999.25	-999.25	-999.25	-999.25
8371.5	26.49	2.70	0.02	-999.25	0.00	59.86	-999.25	-999.25	-999.25	-999.25
8372.0	26.07	2.69	0.01	-999.25	0.00	66.62	-999.25	-999.25	-999.25	-999.25
8372.5	28.17	2.68	0.01	-999.25	0.00	75.00	-999.25	-999.25	-999.25	-999.25
8373.0	33.62	2.69	0.01	-999.25	0.00	85.74	-999.25	-999.25	-999.25	-999.25
8373.5	36.81	2.70	0.01	-999.25	0.00	92.90	-999.25	-999.25	-999.25	-999.25
8374.0	37.80	2.71	0.01	-999.25	0.00	95.11	-999.25	-999.25	-999.25	-999.25
8374.5	34.04	2.71	0.01	-999.25	0.00	111.10	-999.25	-999.25	-999.25	-999.25
8375.0	29.59	2.70	0.00	-999.25	0.00	122.40	-999.25	-999.25	-999.25	-999.25
8375.5	25.60	2.70	0.00	-999.25	0.00	126.60	-999.25	-999.25	-999.25	-999.25
8376.0	27.38	2.69	0.00	-999.25	0.00	132.98	-999.25	-999.25	-999.25	-999.25
8376.5	29.18	2.71	0.00	-999.25	0.00	131.14	-999.25	-999.25	-999.25	-999.25
8377.0	31.63	2.71	0.00	-999.25	0.00	108.08	-999.25	-999.25	-999.25	-999.25
8377.5	31.08	2.71	0.00	-999.25	0.00	91.95	-999.25	-999.25	-999.25	-999.25
8378.0	28.38	2.70	0.01	-999.25	0.00	80.31	-999.25	-999.25	-999.25	-999.25
8378.5	26.86	2.70	0.01	-999.25	0.00	68.74	-999.25	-999.25	-999.25	-999.25
8379.0	26.28	2.70	0.01	-999.25	0.00	54.62	-999.25	-999.25	-999.25	-999.25
8379.5	28.13	2.69	0.00	-999.25	0.00	45.64	-999.25	-999.25	-999.25	-999.25
8380.0	25.52	2.70	0.00	-999.25	0.00	41.17	-999.25	-999.25	-999.25	-999.25
8380.5	23.28	2.67	0.01	-999.25	0.01	37.32	-999.25	-999.25	-999.25	-999.25
8381.0	20.65	2.60	0.04	-999.25	0.04	34.26	0.48	0.52	-999.25	-999.25
8381.5	19.92	2.54	0.08	-999.25	0.08	32.67	0.28	0.72	-999.25	-999.25
8382.0	18.00	2.51	0.10	-999.25	0.10	32.40	0.22	0.78	-999.25	-999.25
8382.5	16.81	2.51	0.09	-999.25	0.09	33.27	0.23	0.77	-999.25	-999.25
8383.0	16.38	2.52	0.09	-999.25	0.09	35.60	0.22	0.78	-999.25	-999.25
8383.5	15.87	2.53	0.09	-999.25	0.09	39.02	0.22	0.78	-999.25	-999.25
8384.0	16.09	2.53	0.07	-999.25	0.08	43.15	0.22	0.78	-999.25	-999.25
8384.5	17.25	2.57	0.05	-999.25	0.06	48.18	0.28	0.72	-999.25	-999.25
8385.0	17.00	2.62	0.03	-999.25	0.04	54.67	0.47	0.53	-999.25	-999.25
8385.5	18.78	2.69	0.03	-999.25	0.01	62.67	-999.25	-999.25	-999.25	-999.25
8386.0	18.38	2.70	0.04	-999.25	0.02	74.73	0.69	0.31	2.06	0.20
8386.5	16.98	2.68	0.03	-999.25	0.03	90.07	0.49	0.51	2.64	0.13
8387.0	17.22	2.67	0.02	-999.25	0.02	98.16	0.53	0.47	2.33	0.62
8387.5	17.22	2.67	0.01	-999.25	0.02	99.86	0.61	0.39	2.01	1.11
8388.0	19.77	2.69	0.01	-999.25	0.02	105.57	0.55	0.45	2.18	4.26
8388.5	17.87	2.68	0.01	-999.25	0.02	103.04	0.49	0.51	2.45	7.92
8389.0	14.68	2.60	0.03	-999.25	0.05	96.66	0.26	0.74	4.75	42.18
8389.5	11.36	2.49	0.07	-999.25	0.10	90.93	0.13	0.87	9.82	112.14
8390.0	9.31	2.40	0.12	-999.25	0.13	88.14	0.10	0.90	12.57	136.11
8390.5	9.25	2.38	0.14	-999.25	0.15	84.70	0.09	0.91	15.31	160.08
8391.0	10.53	2.39	0.13	-999.25	0.14	73.33	0.10	0.90	14.09	130.64
8391.5	10.52	2.40	0.13	-999.25	0.13	60.17	0.12	0.88	12.86	101.20
8392.0	10.64	2.40	0.13	-999.25	0.14	47.89	0.13	0.87	14.11	48.58
8392.5	10.26	2.42	0.12	-999.25	0.15	40.70	0.13	0.87	15.09	4.25
8393.0	10.00	2.43	0.11	-999.25	0.15	34.01	0.14	0.86	14.66	3.43
8393.5	9.82	2.45	0.11	-999.25	0.14	29.19	0.16	0.84	14.23	2.61
8394.0	8.54	2.46	0.11	-999.25	0.14	25.03	0.17	0.83	14.14	1.76
8394.5	8.79	2.44	0.11	-999.25	0.15	21.75	0.18	0.82	14.68	0.84
8395.0	9.10	2.39	0.12	-999.25	0.18	19.23	0.15	0.85	18.31	22.45
8395.5	8.84	2.32	0.16	-999.25	0.22	17.74	0.13	0.87	21.94	44.06
8396.0	8.08	2.29	0.19	-999.25	0.24	16.74	0.13	0.87	23.51	84.85
8396.5	7.27	2.29	0.22	-999.25	0.25	15.70	0.13	0.87	24.61	110.97
8397.0	7.73	2.29	0.20	-999.25	0.23	15.18	0.14	0.86	23.20	60.07
8397.5	6.96	2.28	0.20	-999.25	0.22	15.21	0.14	0.86	22.14	17.07
8398.0	6.97	2.28	0.21	-999.25	0.23	15.47	0.14	0.86	22.91	15.52
8398.5	6.63	2.29	0.22	-999.25	0.24	15.75	0.13	0.87	23.68	13.98
8399.0	6.63	2.28	0.22	-999.25	0.25	16.03	0.12	0.88	24.55	13.82
8399.5	7.45	2.27	0.22	-999.25	0.25	16.27	0.12	0.88	25.41	15.65
8400.0	8.72	2.25	0.21	-999.25	0.25	16.47	0.12	0.88	25.17	13.86
8400.5	9.49	2.25	0.20	-999.25	0.25	16.75	0.12	0.88	24.92	12.08
8401.0	9.06	2.26	0.20	-999.25	0.23	17.59	0.12	0.88	23.43	70.88
8401.5	7.66	2.27	0.19	-999.25	0.23	18.19	0.13	0.87	22.72	94.10
8402.0	8.08	2.28	0.19	-999.25	0.24	18.77	0.12	0.88	23.54	48.25
8402.5	7.69	2.28	0.20	-999.25	0.25	20.25	0.11	0.89	24.55	10.77
8403.0	8.08	2.28	0.19	-999.25	0.27	21.03	0.10	0.90	26.53	17.25
8403.5	7.78	2.28	0.20	-999.25	0.29	21.03	0.09	0.91	28.50	23.73
8404.0	8.29	2.27	0.21	-999.25	0.29	21.46	0.09	0.91	28.84	51.67
8404.5	7.65	2.27	0.22	-999.25	0.26	21.90	0.10	0.90	25.99	121.25
8405.0	7.15	2.27	0.22	-999.25	0.24	23.02	0.11	0.89	24.02	63.59
8405.5	7.09	2.28	0.23	-999.25	0.22	24.65	0.11	0.89	22.06	5.93
8406.0	7.22	2.28	0.23	-999.25	0.23	25.28	0.11	0.89	23.08	6.91
8406.5	7.09	2.28	0.23	-999.25	0.24	25.09	0.10	0.90	24.09	7.89
8407.0	6.89	2.29	0.22	-999.25	0.24	24.99	0.10	0.90	24.34	4.21
8407.5	7.91	2.29	0.21	-999.25	0.25	25.06	0.10	0.90	24.59	0.53
8408.0	8.72	2.30	0.21	-999.25	0.23	25.70	0.10	0.90	23.28	41.67
8408.5	9.75	2.31	0.21	-999.25	0.22	26.42	0.11	0.89	21.97	82.80
8409.0	10.00	2.31	0.21	-999.25	0.22	27.25	0.11	0.89	22.00	68.90
8409.5	9.96	2.30	0.21	-999.25	0.23	28.31	0.10	0.90	22.98	10.70
8410.0	9.32	2.29	0.22	-999.25	0.22	28.45	0.10	0.90	21.88	8.97
8410.5	8.63	2.28	0.22	-999.25	0.21	29.17	0.11	0.89	20.77	7.24
8411.0	9.53	2.29	0.20	-999.25	0.23	30.07	0.10	0.90	22.63	13.78
8411.5	9.53	2.28	0.20	-999.25	0.24	29.99	0.09	0.91	24.24	18.15
8412.0	9.70	2.28	0.19	-999.25	0.24	28.83	0.09	0.91	24.28	15.24
8412.5	9.81	2.27	0.20	-999.25	0.24	26.19	0.10	0.90	24.32	15.79
8413.0	10.30	2.28	0.20	-999.25	0.24	23.54	0.10	0.90	24.36	34.46
8413.5	10.17	2.28	0.20	-999.25	0.24	21.30	0.11	0.89	24.40	53.13
8414.0	9.67	2.28	0.20	-999.25	0.25	18.94	0.11	0.89	25.18	35.52
8414.5	9.19	2.29	0.19	-999.25	0.26	17.13	0.11	0.89	25.97	17.92
8415.0	8.54	2.28	0.19	-999.25	0.25	15.94	0.12	0.88	24.87	18.18
8415.5	7.90	2.27	0.19	-999.25	0.23	15.29	0.13	0.87	23.29	16.45
8416.0	7.14	2.26	0.20	-999.25	0.21	14.92	0.15	0.85	20.78	10.87
8416.5	6.38	2.28	0.18	-999.25	0.18	14.55	0.18	0.82	18.26	5.29
8417.0	6.08	2.31	0.15	-999.25	0.16	14.38	0.20	0.80	16.40	13.65
8417.5	7.22	2.32	0.13	-999.25	0.15	14.30	0.21	0.79	15.21	35.96
8418.0	8.76	2.34	0.15	-999.25	0.13	14.13	0.25	0.75	13.16	34.40
8418.5	11.48	2.40	0.16	-999.25	0.11	13.75	0.30	0.70	11.12	32.84
8419.0	11.74	2.44	0.16	-999.25	0.12	13.32	0.28	0.72	11.97	32.95
8419.5	12.52	2.45	0.14	-999.25	0.14	12.96	0.24	0.76	13.99	30.82
8420.0	10.23	2.42	0.16	-999.25	0.19	12.60	0.18	0.82	19.31	15.21
8420.5	10.10	2.42	0.20	-999.25	0.23	12.27	0.15	0.85	22.78	6.29
8421.0	9.06	2.37	0.24	-999.25	0.23	11.98	0.16	0.84	22.67	10.35
8421.5	7.79	2.32	0.22	-999.25	0.23	11.53	0.16	0.84	22.74	13.86
8422.0	5.37	2.27	0.19	-999.25	0.24	11.17	0.15	0.85	23.75	14.47
8422.5	4.86	2.26	0.19	-999.25	0.25	11.18	0.15	0.85	24.62	16.97
8423.0	5.87	2.26	0.20	-999.25	0.25	11.23	0.14	0.86	25.35	21.37
8423.5	6.76	2.26	0.20	-999.25	0.26	11.28	0.14	0.86	25.97	24.93
8424.0	7.52	2.26	0.22	-999.25	0.26	11.41	0.14	0.86	26.06	24.17
