# LAS format log file from PETREL
# Project units are specified as depth units
#==================================================================
~Version information
VERS.   2.0:
WRAP.   NO:
#==================================================================
~Well
STRT .ft        8145.0 :
STOP .ft        8580.0 :
STEP .ft        0.5    :
NULL .          -999.25  :
COMP.           : COMPANY
WELL.  HW-24    : WELL
FLD.   COSTA    : FIELD
LOC.            : LOCATION
SRVC.           : SERVICE COMPANY
DATE.  2018-02-06 14:55:41   : Log Export Date {yyyy-MM-dd HH:mm:ss}
PROV.           : PROVINCE
UWI.   HW-24    : UNIQUE WELL ID
API.            : API NUMBER
#==================================================================
~Curve
DEPT .ft                  : DEPTH
GR .gAPI                  : GR
RHOB .g/cm3               : RHOB
NPHI .ft3/ft3             : NPHI
DT .us/ft                 : DT
PHIE .ft3/ft3             : PHIE
RT .ohm.m                 : RT
SW .                      : SW
SO . 			  : SO
CORE_POR .ft3/ft3         : CORE_POR
CORE_PERM .mD             : CORE_PERM
~Parameter
#==================================================================
~Ascii
# ...
8489.5	7.34	2.26	0.23	-999.25	0.26	3.86	0.24	0.76	25.92	5.39
8490.0	8.11	2.25	0.23	-999.25	0.26	3.81	0.24	0.76	26.05	5.20
8490.5	7.98	2.25	0.24	-999.25	0.26	3.78	0.24	0.76	26.17	5.01
8491.0	8.55	2.26	0.24	-999.25	0.26	3.74	0.24	0.76	26.19	5.27
8491.5	8.94	2.27	0.25	-999.25	0.26	3.65	0.24	0.76	26.26	5.51
8492.0	10.21	2.27	0.25	-999.25	0.26	3.53	0.25	0.75	26.42	5.50
8492.5	8.55	2.28	0.24	-999.25	0.27	3.41	0.25	0.75	26.58	5.49
8493.0	6.76	2.28	0.26	-999.25	0.27	3.33	0.25	0.75	26.77	5.44
8493.5	6.21	2.28	0.26	-999.25	0.27	3.26	0.25	0.75	27.00	5.33
8494.0	7.23	2.27	0.26	-999.25	0.27	3.19	0.26	0.74	26.53	6.33
8494.5	7.74	2.27	0.24	-999.25	0.26	3.11	0.27	0.73	26.22	7.10
8495.0	7.28	2.26	0.24	-999.25	0.27	3.03	0.26	0.74	26.81	6.71
8495.5	6.27	2.26	0.24	-999.25	0.27	2.96	0.26	0.74	27.40	6.32
8496.0	7.17	2.26	0.24	-999.25	0.26	2.90	0.27	0.73	26.35	5.03
8496.5	6.14	2.26	0.24	-999.25	0.25	2.84	0.29	0.71	25.30	3.75
8497.0	6.25	2.27	0.24	-999.25	0.26	2.78	0.28	0.72	26.32	5.01
8497.5	5.87	2.27	0.23	-999.25	0.28	2.73	0.26	0.74	28.40	7.58
8498.0	7.12	2.28	0.24	-999.25	0.28	2.69	0.27	0.73	27.54	6.45
8498.5	8.01	2.27	0.25	-999.25	0.27	2.67	0.28	0.72	26.68	5.32
8499.0	7.88	2.28	0.24	-999.25	0.27	2.66	0.28	0.72	26.71	5.68
8499.5	8.48	2.28	0.23	-999.25	0.27	2.65	0.28	0.72	26.73	6.03
8500.0	8.48	2.30	0.23	-999.25	0.26	2.65	0.29	0.71	26.20	5.64
8500.5	8.61	2.30	0.23	-999.25	0.25	2.65	0.31	0.69	24.59	3.82
8501.0	7.79	2.31	0.24	-999.25	0.24	2.65	0.31	0.69	24.06	3.07
8501.5	6.77	2.30	0.24	-999.25	0.26	2.66	0.29	0.71	25.66	4.41
8502.0	6.00	2.30	0.24	-999.25	0.27	2.67	0.28	0.72	26.56	5.26
8502.5	5.23	2.30	0.24	-999.25	0.27	2.69	0.27	0.73	27.33	6.03
8503.0	5.36	2.30	0.23	-999.25	0.26	2.72	0.28	0.72	26.40	5.20
8503.5	5.58	2.30	0.23	-999.25	0.25	2.74	0.30	0.70	24.60	3.54
8504.0	6.22	2.30	0.23	-999.25	0.26	2.75	0.29	0.71	25.85	4.22
8504.5	6.09	2.31	0.22	-999.25	0.28	2.75	0.27	0.73	27.69	5.36
8505.0	5.87	2.31	0.22	-999.25	0.27	2.74	0.28	0.72	26.72	4.84
8505.5	5.74	2.30	0.23	-999.25	0.26	2.72	0.29	0.71	25.75	4.32
8506.0	5.74	2.30	0.23	-999.25	0.25	2.71	0.29	0.71	25.35	5.03
8506.5	5.49	2.30	0.23	-999.25	0.25	2.71	0.29	0.71	25.26	6.38
8507.0	6.13	2.30	0.23	-999.25	0.26	2.71	0.29	0.71	25.96	6.21
8507.5	6.76	2.29	0.22	-999.25	0.27	2.71	0.28	0.72	26.81	5.76
8508.0	6.76	2.28	0.22	-999.25	0.26	2.70	0.28	0.72	26.16	5.69
8508.5	6.51	2.28	0.23	-999.25	0.26	2.70	0.29	0.71	25.51	5.63
8509.0	5.23	2.28	0.25	-999.25	0.26	2.72	0.29	0.71	25.92	5.26
8509.5	4.98	2.28	0.25	-999.25	0.26	2.76	0.28	0.72	26.27	5.04
8510.0	4.00	2.27	0.25	-999.25	0.26	2.78	0.28	0.72	26.32	5.59
8510.5	4.63	2.26	0.25	-999.25	0.26	2.79	0.28	0.72	26.37	6.14
8511.0	5.30	2.26	0.24	-999.25	0.26	2.79	0.28	0.72	26.49	6.48
8511.5	6.02	2.25	0.23	-999.25	0.27	2.79	0.28	0.72	26.66	6.61
8512.0	5.92	2.26	0.24	-999.25	0.26	2.79	0.28	0.72	26.14	5.77
8512.5	6.28	2.27	0.25	-999.25	0.26	2.79	0.29	0.71	25.63	4.93
8513.0	6.66	2.28	0.24	-999.25	0.26	2.78	0.28	0.72	25.93	5.38
8513.5	6.64	2.28	0.24	-999.25	0.27	2.75	0.28	0.72	26.66	6.50
8514.0	6.51	2.30	0.24	-999.25	0.27	2.69	0.28	0.72	26.67	7.58
8514.5	6.12	2.32	0.24	-999.25	0.27	2.59	0.29	0.71	26.68	8.65
8515.0	6.50	2.34	0.23	-999.25	0.26	2.52	0.30	0.70	25.99	6.91
8515.5	7.01	2.35	0.21	-999.25	0.25	2.48	0.31	0.69	25.30	5.16
8516.0	7.14	2.35	0.20	-999.25	0.26	2.47	0.30	0.70	25.89	4.69
8516.5	8.04	2.35	0.19	-999.25	0.27	2.46	0.29	0.71	27.16	4.87
8517.0	6.77	2.33	0.21	-999.25	0.26	2.44	0.30	0.70	25.78	3.87
8517.5	6.90	2.33	0.21	-999.25	0.24	2.37	0.33	0.67	23.90	2.64
8518.0	6.13	2.36	0.21	-999.25	0.23	2.28	0.35	0.65	23.47	2.64
8518.5	6.25	2.39	0.19	-999.25	0.23	2.20	0.36	0.64	23.03	2.64
8519.0	5.15	2.41	0.20	-999.25	0.20	2.12	0.41	0.59	20.49	1.88
8519.5	4.64	2.42	0.23	-999.25	0.18	2.03	0.48	0.52	17.96	1.11
8520.0	4.89	2.40	0.24	-999.25	0.23	1.95	0.38	0.62	22.78	2.77
8520.5	5.87	2.35	0.23	-999.25	0.26	1.86	0.35	0.65	25.85	4.07
8521.0	6.25	2.30	0.22	-999.25	0.27	1.76	0.34	0.66	27.16	5.02
8521.5	5.23	2.26	0.22	-999.25	0.28	1.68	0.34	0.66	28.13	5.74
8522.0	5.10	2.26	0.22	-999.25	0.27	1.63	0.35	0.65	27.30	5.20
8522.5	3.95	2.26	0.22	-999.25	0.26	1.59	0.37	0.63	26.48	4.66
8523.0	4.84	2.27	0.23	-999.25	0.25	1.56	0.39	0.61	25.45	3.30
8523.5	3.95	2.26	0.25	-999.25	0.25	1.53	0.39	0.61	25.47	3.19
8524.0	4.46	2.25	0.24	-999.25	0.27	1.51	0.38	0.62	26.52	4.33
8524.5	4.72	2.23	0.24	-999.25	0.27	1.49	0.37	0.63	27.42	5.38
8525.0	5.36	2.23	0.23	-999.25	0.28	1.47	0.37	0.63	27.51	5.94
8525.5	5.76	2.23	0.24	-999.25	0.28	1.44	0.37	0.63	27.51	5.89
8526.0	4.61	2.24	0.24	-999.25	0.27	1.41	0.38	0.62	27.42	5.25
8526.5	5.12	2.24	0.24	-999.25	0.27	1.37	0.38	0.62	27.17	4.93
8527.0	6.25	2.25	0.24	-999.25	0.27	1.34	0.40	0.60	26.76	4.91
8527.5	6.76	2.26	0.23	-999.25	0.26	1.29	0.41	0.59	26.35	4.90
8528.0	5.66	2.26	0.24	-999.25	0.26	1.24	0.43	0.57	25.80	3.98
8528.5	4.52	2.26	0.24	-999.25	0.25	1.19	0.44	0.56	25.24	3.06
8529.0	4.65	2.26	0.25	-999.25	0.26	1.16	0.44	0.56	25.76	3.67
8529.5	5.75	2.26	0.24	-999.25	0.26	1.14	0.44	0.56	26.28	4.28
8530.0	5.88	2.26	0.25	-999.25	0.26	1.12	0.44	0.56	26.45	3.84
8530.5	5.62	2.26	0.25	-999.25	0.27	1.12	0.44	0.56	26.62	3.40
8531.0	5.24	2.27	0.25	-999.25	0.26	1.12	0.44	0.56	26.47	3.70
8531.5	4.85	2.27	0.24	-999.25	0.26	1.14	0.44	0.56	26.30	4.03
8532.0	5.23	2.26	0.24	-999.25	0.26	1.16	0.43	0.57	26.37	3.68
8532.5	5.49	2.26	0.23	-999.25	0.26	1.19	0.43	0.57	26.39	3.50
8533.0	5.49	2.26	0.24	-999.25	0.26	1.23	0.42	0.58	26.37	3.50
8533.5	5.62	2.27	0.23	-999.25	0.26	1.27	0.42	0.58	26.12	3.39
8534.0	6.08	2.28	0.21	-999.25	0.25	1.32	0.43	0.57	24.65	2.69
8534.5	6.21	2.28	0.20	-999.25	0.23	1.38	0.45	0.55	23.18	2.00
8535.0	5.82	2.28	0.20	-999.25	0.23	1.42	0.45	0.55	22.92	1.92
8535.5	5.62	2.28	0.20	-999.25	0.23	1.44	0.45	0.55	22.90	1.95
8536.0	6.13	2.32	0.17	-999.25	0.22	1.45	0.46	0.54	22.29	1.79
8536.5	7.02	2.36	0.17	-999.25	0.21	1.41	0.50	0.50	20.53	1.25
8537.0	6.75	2.38	0.18	-999.25	0.20	1.32	0.54	0.46	19.63	1.04
8537.5	6.64	2.35	0.19	-999.25	0.19	1.26	0.58	0.42	18.72	0.83
8538.0	6.12	2.34	0.19	-999.25	0.20	1.21	0.55	0.45	20.22	1.60
8538.5	6.25	2.33	0.22	-999.25	0.24	1.15	0.48	0.52	23.68	3.08
8539.0	6.24	2.32	0.22	-999.25	0.25	1.07	0.48	0.52	24.79	3.08
8539.5	5.62	2.29	0.23	-999.25	0.26	0.97	0.48	0.52	25.67	3.07
8540.0	6.77	2.29	0.22	-999.25	0.25	0.92	0.51	0.49	25.27	2.98
8540.5	7.53	2.29	0.23	-999.25	0.25	0.90	0.52	0.48	24.94	2.92
8541.0	9.06	2.30	0.22	-999.25	0.25	0.89	0.52	0.48	24.92	3.00
8541.5	7.79	2.29	0.21	-999.25	0.25	0.88	0.52	0.48	24.90	3.09
8542.0	7.40	2.30	0.21	-999.25	0.25	0.89	0.52	0.48	25.07	3.01
8542.5	7.10	2.30	0.21	-999.25	0.25	0.91	0.51	0.49	25.24	2.93
8543.0	7.48	2.32	0.21	-999.25	0.24	0.94	0.52	0.48	24.49	2.66
8543.5	8.88	2.35	0.19	-999.25	0.23	0.95	0.55	0.45	22.82	2.22
8544.0	9.19	2.38	0.17	-999.25	0.23	0.97	0.54	0.46	22.99	2.27
8544.5	9.06	2.39	0.16	-999.25	0.23	1.00	0.52	0.48	23.46	2.47
8545.0	8.35	2.39	0.16	-999.25	0.23	1.01	0.54	0.46	22.69	2.42
8545.5	8.73	2.38	0.17	-999.25	0.22	1.01	0.56	0.44	21.92	2.38
8546.0	9.12	2.37	0.18	-999.25	0.22	1.01	0.56	0.44	21.65	2.33
8546.5	9.19	2.36	0.20	-999.25	0.22	1.00	0.57	0.43	21.63	2.27
8547.0	7.67	2.34	0.20	-999.25	0.22	0.98	0.56	0.44	22.15	2.50
8547.5	7.28	2.34	0.20	-999.25	0.24	0.95	0.53	0.47	23.69	3.28
8548.0	6.39	2.34	0.19	-999.25	0.24	0.91	0.54	0.46	23.68	3.29
8548.5	6.51	2.35	0.18	-999.25	0.23	0.89	0.57	0.43	22.87	2.91
8549.0	6.13	2.35	0.17	-999.25	0.21	0.89	0.61	0.39	21.24	2.11
8549.5	6.00	2.35	0.17	-999.25	0.20	0.90	0.64	0.36	20.09	1.51
8550.0	6.64	2.35	0.16	-999.25	0.21	0.92	0.60	0.40	21.38	1.91
8550.5	6.38	2.36	0.12	-999.25	0.22	0.97	0.56	0.44	22.17	2.16
8551.0	6.13	2.42	0.09	-999.25	0.20	1.05	0.59	0.41	20.30	1.64
8551.5	7.15	2.50	0.07	-999.25	0.18	1.14	0.62	0.38	18.43	1.11
8552.0	8.04	2.57	0.07	-999.25	0.16	1.26	0.68	0.32	16.16	0.70
8552.5	9.07	2.58	0.07	-999.25	0.14	1.40	0.76	0.24	13.68	0.35
8553.0	7.65	2.59	0.06	-999.25	0.11	1.58	0.89	0.11	10.92	0.23
8553.5	7.52	2.61	0.06	-999.25	0.08	1.77	-999.25	-999.25	8.16	0.11
8554.0	6.75	2.61	0.06	-999.25	0.07	1.92	-999.25	-999.25	7.46	0.06
8554.5	6.77	2.61	0.06	-999.25	0.08	2.02	-999.25	-999.25	7.82	0.06
