# LAS format log file from PETREL
# Project units are specified as depth units
#==================================================================
~Version information
VERS.   2.0:
WRAP.   NO:
#==================================================================
~Well
STRT .ft        8140.0 :
STOP .ft        8440.0 :
STEP .ft        0.5    :
NULL .          -999.25  :
COMP.           : COMPANY
WELL.  HW-25    : WELL
FLD.   COSTA    : FIELD
LOC.            : LOCATION
SRVC.           : SERVICE COMPANY
DATE.  2018-02-06 14:55:41   : Log Export Date {yyyy-MM-dd HH:mm:ss}
PROV.           : PROVINCE
UWI.   HW-25    : UNIQUE WELL ID
API.            : API NUMBER
#==================================================================
~Curve
DEPT .ft                  : DEPTH
GR .gAPI                  : GR
RHOB .g/cm3               : RHOB
NPHI .ft3/ft3             : NPHI
DT .us/ft                 : DT
PHIE .ft3/ft3             : PHIE
RT .ohm.m                 : RT
SW .                      : SW
SO . 			  : SO
CORE_POR .ft3/ft3         : CORE_POR
CORE_PERM .mD             : CORE_PERM
~Parameter
#==================================================================
~Ascii
# ...
8357.5	11.51	2.27	0.18	-999.25	0.26	32.35	0.08	0.92	23.15	2.80
8358.0	11.00	2.27	0.19	-999.25	0.26	31.33	0.08	0.92	21.00	2.00
8358.5	10.49	2.26	0.19	-999.25	0.26	30.62	0.08	0.92	23.55	3.15
8359.0	10.07	2.26	0.19	-999.25	0.26	30.35	0.08	0.92	26.10	4.30
8359.5	10.11	2.25	0.19	-999.25	0.27	30.43	0.08	0.92	26.14	4.60
8360.0	10.49	2.25	0.19	-999.25	0.27	30.72	0.08	0.92	26.19	4.90
8360.5	11.30	2.25	0.19	-999.25	0.27	31.11	0.08	0.92	26.16	4.76
8361.0	11.94	2.25	0.19	-999.25	0.27	31.58	0.08	0.92	26.10	4.40
8361.5	11.87	2.26	0.19	-999.25	0.27	32.26	0.08	0.92	26.10	4.45
8362.0	11.19	2.26	0.19	-999.25	0.27	33.35	0.08	0.92	26.10	4.50
8362.5	10.29	2.26	0.20	-999.25	0.27	34.92	0.08	0.92	26.10	4.55
8363.0	9.80	2.26	0.20	-999.25	0.27	36.66	0.08	0.92	26.10	4.60
8363.5	9.79	2.26	0.20	-999.25	0.27	38.18	0.07	0.93	25.95	4.45
8364.0	9.86	2.25	0.20	-999.25	0.27	39.35	0.07	0.93	25.80	4.30
8364.5	9.90	2.25	0.20	-999.25	0.27	39.94	0.07	0.93	26.00	5.30
8365.0	10.15	2.26	0.19	-999.25	0.27	39.63	0.07	0.93	26.20	6.30
8365.5	10.31	2.26	0.19	-999.25	0.26	38.25	0.07	0.93	25.75	5.70
8366.0	10.37	2.26	0.19	-999.25	0.26	35.92	0.08	0.92	25.30	5.10
8366.5	10.60	2.26	0.19	-999.25	0.26	33.45	0.08	0.92	26.32	8.94
8367.0	10.94	2.26	0.19	-999.25	0.26	31.51	0.08	0.92	27.34	12.78
8367.5	11.00	2.26	0.18	-999.25	0.27	29.87	0.08	0.92	28.04	14.91
8368.0	10.62	2.25	0.18	-999.25	0.27	28.19	0.09	0.91	27.06	8.09
8368.5	10.25	2.25	0.18	-999.25	0.27	26.90	0.09	0.91	27.49	7.23
8369.0	10.08	2.25	0.18	-999.25	0.27	26.17	0.09	0.91	28.20	7.50
8369.5	9.96	2.25	0.18	-999.25	0.27	25.70	0.09	0.91	26.25	5.35
8370.0	9.90	2.25	0.18	-999.25	0.27	25.33	0.09	0.91	24.30	3.20
8370.5	10.06	2.25	0.17	-999.25	0.27	25.09	0.09	0.91	24.85	4.25
8371.0	10.54	2.26	0.17	-999.25	0.26	25.06	0.09	0.91	25.40	5.30
8371.5	10.83	2.28	0.16	-999.25	0.25	25.19	0.10	0.90	25.60	5.25
8372.0	10.75	2.28	0.17	-999.25	0.25	25.37	0.10	0.90	25.80	5.20
8372.5	10.47	2.28	0.17	-999.25	0.25	25.47	0.10	0.90	25.55	4.45
8373.0	9.93	2.26	0.18	-999.25	0.26	25.52	0.09	0.91	25.30	3.70
8373.5	9.54	2.25	0.17	-999.25	0.27	25.66	0.09	0.91	25.85	3.75
8374.0	9.45	2.25	0.16	-999.25	0.27	25.92	0.09	0.91	26.40	3.80
8374.5	9.60	2.26	0.16	-999.25	0.26	25.97	0.09	0.91	24.75	3.15
8375.0	9.74	2.27	0.16	-999.25	0.26	25.60	0.09	0.91	23.10	2.50
8375.5	11.21	2.26	0.17	-999.25	0.26	25.08	0.09	0.91	25.05	3.65
8376.0	13.99	2.25	0.17	-999.25	0.27	24.65	0.09	0.91	27.00	4.80
8376.5	16.15	2.25	0.17	-999.25	0.27	24.40	0.09	0.91	26.20	4.00
8377.0	16.88	2.25	0.16	-999.25	0.27	24.34	0.09	0.91	25.40	3.20
8377.5	15.52	2.26	0.15	-999.25	0.26	24.39	0.09	0.91	25.20	2.85
8378.0	11.69	2.28	0.15	-999.25	0.25	24.22	0.10	0.90	25.00	2.50
8378.5	9.46	2.29	0.16	-999.25	0.24	23.58	0.10	0.90	25.75	2.95
8379.0	8.87	2.29	0.18	-999.25	0.25	22.56	0.10	0.90	26.50	3.40
8379.5	8.63	2.27	0.18	-999.25	0.26	21.38	0.10	0.90	26.20	3.20
8380.0	8.54	2.25	0.18	-999.25	0.27	20.29	0.10	0.90	25.90	3.00
8380.5	8.68	2.24	0.18	-999.25	0.27	19.44	0.10	0.90	22.45	1.91
8381.0	8.91	2.24	0.17	-999.25	0.27	18.92	0.10	0.90	19.00	0.83
8381.5	9.07	2.25	0.17	-999.25	0.27	18.66	0.11	0.89	22.10	1.66
8382.0	9.34	2.26	0.16	-999.25	0.26	18.50	0.11	0.89	25.20	2.50
8382.5	9.55	2.27	0.16	-999.25	0.26	18.30	0.11	0.89	25.60	2.75
8383.0	9.54	2.27	0.16	-999.25	0.26	18.03	0.11	0.89	26.00	3.00
8383.5	9.41	2.27	0.17	-999.25	0.26	17.74	0.11	0.89	25.10	2.45
8384.0	9.08	2.27	0.18	-999.25	0.26	17.39	0.11	0.89	24.20	1.90
8384.5	8.71	2.26	0.18	-999.25	0.26	16.92	0.11	0.89	24.40	2.00
8385.0	8.85	2.26	0.18	-999.25	0.26	16.51	0.11	0.89	24.60	2.10
8385.5	9.52	2.26	0.17	-999.25	0.26	16.25	0.11	0.89	22.20	2.10
8386.0	10.30	2.26	0.17	-999.25	0.26	16.11	0.12	0.88	19.80	2.10
8386.5	10.82	2.27	0.17	-999.25	0.26	15.95	0.12	0.88	22.11	2.40
8387.0	10.93	2.27	0.17	-999.25	0.26	15.65	0.12	0.88	24.42	2.70
8387.5	10.59	2.26	0.17	-999.25	0.26	15.16	0.12	0.88	24.40	3.04
8388.0	9.84	2.26	0.17	-999.25	0.26	14.50	0.12	0.88	23.20	3.40
8388.5	9.25	2.26	0.17	-999.25	0.26	13.85	0.12	0.88	24.40	3.45
8389.0	8.93	2.26	0.17	-999.25	0.26	13.27	0.13	0.87	25.60	3.50
8389.5	8.78	2.26	0.17	-999.25	0.27	12.84	0.13	0.87	26.10	3.55
8390.0	8.95	2.25	0.18	-999.25	0.27	12.57	0.13	0.87	26.60	3.60
8390.5	9.36	2.25	0.18	-999.25	0.27	12.49	0.13	0.87	25.75	3.00
8391.0	9.52	2.25	0.18	-999.25	0.27	12.65	0.13	0.87	24.90	2.40
8391.5	9.10	2.25	0.17	-999.25	0.27	13.03	0.13	0.87	24.90	2.40
8392.0	8.52	2.27	0.16	-999.25	0.26	13.67	0.13	0.87	24.90	2.40
8392.5	8.40	2.29	0.16	-999.25	0.25	14.57	0.13	0.87	25.03	2.31
8393.0	8.70	2.30	0.17	-999.25	0.24	15.58	0.13	0.87	25.16	2.23
8393.5	8.83	2.29	0.17	-999.25	0.24	16.51	0.12	0.88	23.93	1.92
8394.0	8.36	2.28	0.16	-999.25	0.25	17.42	0.12	0.88	22.00	1.50
8394.5	8.00	2.29	0.15	-999.25	0.25	18.26	0.12	0.88	21.80	1.30
8395.0	8.30	2.30	0.14	-999.25	0.24	18.96	0.12	0.88	21.60	1.10
8395.5	8.97	2.31	0.14	-999.25	0.23	19.47	0.12	0.88	21.85	1.15
8396.0	9.31	2.32	0.14	-999.25	0.23	19.78	0.12	0.88	22.10	1.20
8396.5	8.93	2.33	0.14	-999.25	0.22	19.85	0.12	0.88	21.95	1.30
8397.0	8.17	2.34	0.14	-999.25	0.22	19.61	0.13	0.87	21.80	1.40
8397.5	7.77	2.34	0.14	-999.25	0.22	19.01	0.13	0.87	19.50	1.70
8398.0	7.52	2.32	0.16	-999.25	0.23	18.00	0.13	0.87	17.20	2.00
8398.5	7.44	2.30	0.17	-999.25	0.24	16.73	0.12	0.88	20.55	1.95
8399.0	7.48	2.27	0.18	-999.25	0.26	15.59	0.12	0.88	23.90	1.90
8399.5	8.05	2.25	0.18	-999.25	0.27	14.67	0.12	0.88	24.25	2.25
8400.0	8.86	2.25	0.18	-999.25	0.27	13.99	0.12	0.88	24.60	2.60
8400.5	9.44	2.25	0.18	-999.25	0.27	13.56	0.12	0.88	25.05	2.55
8401.0	9.74	2.25	0.19	-999.25	0.27	13.44	0.12	0.88	25.50	2.50
8401.5	9.83	2.26	0.18	-999.25	0.26	13.68	0.13	0.87	25.10	2.35
8402.0	9.72	2.27	0.16	-999.25	0.26	14.27	0.13	0.87	24.70	2.20
8402.5	9.53	2.29	0.14	-999.25	0.24	15.17	0.13	0.87	24.10	2.15
8403.0	8.96	2.32	0.12	-999.25	0.23	16.29	0.13	0.87	23.50	2.10
8403.5	9.13	2.37	0.10	-999.25	0.20	17.75	0.14	0.86	17.75	1.35
8404.0	10.44	2.41	0.09	-999.25	0.18	19.81	0.16	0.84	12.00	0.61
8404.5	11.73	2.44	0.08	-999.25	0.16	22.24	0.17	0.83	10.40	0.34
8405.0	12.33	2.47	0.07	-999.25	0.14	24.54	0.18	0.82	8.80	0.08
8405.5	12.12	2.49	0.07	-999.25	0.13	26.33	0.18	0.82	8.05	0.08
8406.0	11.38	2.49	0.08	-999.25	0.13	27.53	0.19	0.81	7.30	0.07
8406.5	10.72	2.49	0.08	-999.25	0.13	28.36	0.18	0.82	10.93	0.21
8407.0	10.61	2.47	0.08	-999.25	0.14	29.06	0.16	0.84	14.56	0.34
8407.5	10.93	2.47	0.07	-999.25	0.14	30.06	0.16	0.84	12.39	0.28
8408.0	11.35	2.48	0.06	-999.25	0.13	32.06	0.16	0.84	7.21	0.12
8408.5	11.64	2.49	0.07	-999.25	0.13	33.11	0.16	0.84	5.98	0.13
8409.0	11.12	2.48	0.07	-999.25	0.13	33.25	0.16	0.84	12.40	0.47
8409.5	9.93	2.48	0.07	-999.25	0.13	33.07	0.16	0.84	9.10	0.26
8410.0	9.11	2.49	0.07	-999.25	0.13	31.65	0.17	0.83	5.80	0.05
8410.5	9.07	2.51	0.07	-999.25	0.12	29.50	0.19	0.81	7.00	-999.25
8411.0	9.35	2.51	0.07	-999.25	0.12	27.34	0.20	0.80	8.19	-999.25
8411.5	9.34	2.51	0.07	-999.25	0.12	24.91	0.21	0.79	9.16	-999.25
8412.0	8.86	2.51	0.07	-999.25	0.12	22.31	0.22	0.78	10.00	0.57
8412.5	8.66	2.52	0.07	-999.25	0.11	19.75	0.25	0.75	7.95	-999.25
8413.0	8.87	2.53	0.07	-999.25	0.10	17.48	0.28	0.72	5.90	-999.25
8413.5	9.13	2.54	0.07	-999.25	0.10	15.95	0.30	0.70	8.20	-999.25
8414.0	9.49	2.53	0.07	-999.25	0.10	14.68	0.31	0.69	10.50	0.25
8414.5	9.74	2.53	0.06	-999.25	0.10	13.68	0.32	0.68	7.20	0.63
8415.0	9.69	2.55	0.06	-999.25	0.10	13.00	0.35	0.65	3.90	1.00
8415.5	9.37	2.57	0.06	-999.25	0.08	12.38	0.41	0.59	6.90	0.51
8416.0	9.01	2.57	0.06	-999.25	0.08	11.49	0.45	0.55	9.90	0.03
8416.5	8.78	2.56	0.07	-999.25	0.09	10.14	0.44	0.56	10.40	0.03
8417.0	8.71	2.54	0.08	-999.25	0.10	8.59	0.41	0.59	10.90	0.03
8417.5	9.10	2.51	0.09	-999.25	0.11	7.31	0.40	0.60	10.30	0.03
8418.0	9.68	2.51	0.08	-999.25	0.12	6.22	0.43	0.57	9.70	0.02
8418.5	9.85	2.52	0.07	-999.25	0.11	5.35	0.47	0.53	8.80	0.02
8419.0	9.85	2.52	0.06	-999.25	0.11	4.75	0.51	0.49	7.90	0.01
8419.5	9.82	2.53	0.06	-999.25	0.11	4.52	0.54	0.46	6.58	0.01
8420.0	9.81	2.55	0.05	-999.25	0.09	4.82	0.59	0.41	5.25	0.01
8420.5	10.47	2.58	0.04	-999.25	0.08	5.86	0.65	0.35	3.84	-999.25
8421.0	12.47	2.60	0.03	-999.25	0.06	7.49	0.72	0.28	2.39	-999.25
8421.5	16.26	2.64	0.03	-999.25	0.04	9.33	0.93	0.07	1.53	-999.25
