# LAS format log file from PETREL
# Project units are specified as depth units
#==================================================================
~Version information
VERS.   2.0:
WRAP.   NO:
#==================================================================
~Well
STRT .ft        8090.0 :
STOP .ft        8560.0 :
STEP .ft        0.5    :
NULL .          -999.25  :
COMP.           : COMPANY
WELL.  HW-30    : WELL
FLD.   COSTA    : FIELD
LOC.            : LOCATION
SRVC.           : SERVICE COMPANY
DATE.  2018-02-06 14:55:42   : Log Export Date {yyyy-MM-dd HH:mm:ss}
PROV.           : PROVINCE
UWI.   HW-30    : UNIQUE WELL ID
API.            : API NUMBER
#==================================================================
~Curve
DEPT .ft                  : DEPTH
GR .gAPI                  : GR
RHOB .g/cm3               : RHOB
NPHI .ft3/ft3             : NPHI
DT .us/ft                 : DT
PHIE .ft3/ft3             : PHIE
RT .ohm.m                 : RT
SW .                      : SW
SO . 			  : SO
CORE_POR .ft3/ft3         : CORE_POR
CORE_PERM .mD             : CORE_PERM
~Parameter
#==================================================================
~Ascii
8320.0	28.46	2.73	0.03	56.16	0.03	22.70	0.83	0.17	2.07	0.01
8320.5	29.89	2.73	0.04	56.36	0.03	20.85	0.82	0.18	2.14	0.03
8321.0	30.70	2.72	0.04	56.72	0.03	19.98	0.80	0.20	2.21	0.04
8321.5	30.18	2.72	0.04	56.72	0.04	19.01	0.79	0.21	3.04	0.03
8322.0	29.20	2.71	0.04	56.65	0.04	19.12	0.79	0.21	3.86	0.01
8322.5	28.77	2.71	0.04	56.97	0.04	19.57	0.78	0.22	3.00	0.01
8323.0	29.07	2.70	0.04	57.43	0.04	19.55	0.78	0.22	1.87	0.01
8323.5	29.69	2.70	0.04	57.83	0.04	19.18	0.76	0.24	2.10	0.02
8324.0	30.09	2.70	0.04	57.55	0.04	19.38	0.78	0.22	2.33	0.03
8324.5	30.28	2.71	0.03	56.42	0.03	20.82	0.82	0.18	1.89	0.02
8325.0	29.65	2.71	0.03	55.24	0.03	23.51	0.85	0.15	1.45	0.01
8325.5	28.53	2.70	0.03	54.51	0.03	26.54	0.84	0.16	1.71	0.01
8326.0	28.68	2.68	0.04	54.44	0.03	28.45	0.78	0.22	2.08	0.01
8326.5	30.66	2.61	0.06	56.94	0.03	28.58	0.76	0.24	11.28	34.37
8327.0	31.77	2.48	0.09	63.42	0.04	26.63	0.63	0.37	20.48	68.74
8327.5	29.61	2.36	0.15	71.21	0.12	21.30	0.22	0.78	22.52	-999.25
8328.0	25.84	2.29	0.20	78.19	0.21	14.41	0.16	0.84	22.04	-999.25
8328.5	23.62	2.27	0.23	83.14	0.24	9.69	0.17	0.83	25.16	-999.25
8329.0	23.68	2.27	0.24	83.88	0.24	7.58	0.19	0.81	28.87	307.07
8329.5	24.35	2.29	0.22	81.85	0.22	7.31	0.20	0.80	25.03	179.94
8330.0	24.58	2.32	0.20	80.01	0.21	8.55	0.20	0.80	21.20	52.81
8330.5	24.70	2.35	0.19	76.62	0.19	11.09	0.20	0.80	20.70	64.05
8331.0	24.90	2.38	0.17	74.16	0.17	14.26	0.19	0.81	20.20	75.28
8331.5	24.57	2.41	0.16	72.31	0.15	14.25	0.21	0.79	19.18	50.72
8332.0	23.36	2.44	0.15	70.26	0.14	13.66	0.24	0.76	18.09	21.28
8332.5	22.09	2.46	0.14	66.97	0.12	13.18	0.28	0.72	18.24	10.98
8333.0	21.76	2.48	0.13	64.31	0.10	12.90	0.34	0.66	19.02	10.53
8333.5	21.90	2.51	0.11	62.34	0.08	13.19	0.43	0.57	17.50	17.26
8334.0	21.85	2.54	0.10	61.80	0.07	13.82	0.48	0.52	15.97	23.99
8334.5	21.37	2.55	0.09	61.92	0.07	14.37	0.47	0.53	14.06	17.14
8335.0	20.56	2.53	0.10	62.77	0.08	14.65	0.41	0.59	11.90	1.25
8335.5	19.67	2.47	0.11	65.83	0.10	14.82	0.32	0.68	18.70	15.37
8336.0	18.53	2.39	0.14	72.38	0.14	14.86	0.22	0.78	25.50	29.48
8336.5	16.93	2.31	0.17	78.41	0.19	14.70	0.16	0.84	26.39	26.41
8337.0	15.55	2.25	0.20	85.21	0.24	14.42	0.14	0.86	26.16	20.07
8337.5	15.25	2.22	0.21	87.17	0.25	12.74	0.14	0.86	26.93	17.25
8338.0	15.74	2.22	0.23	88.25	0.26	10.99	0.14	0.86	27.70	14.44
8338.5	16.05	2.22	0.24	89.65	0.27	9.60	0.15	0.85	29.10	28.46
8339.0	15.43	2.20	0.24	90.28	0.27	8.67	0.15	0.85	30.77	49.70
8339.5	14.67	2.18	0.25	91.41	0.28	8.28	0.15	0.85	30.21	44.07
8340.0	14.61	2.17	0.26	91.75	0.29	7.31	0.16	0.84	29.22	33.32
8340.5	15.13	2.19	0.25	89.50	0.27	4.63	0.21	0.79	27.78	69.34
8341.0	16.61	2.23	0.24	86.56	0.25	2.77	0.29	0.71	26.34	105.35
8341.5	18.94	2.27	0.22	83.27	0.23	1.66	0.41	0.59	25.93	1590.75
8342.0	19.85	2.30	0.22	80.81	0.22	1.15	0.52	0.48	25.53	3076.15
8342.5	18.66	2.29	0.23	80.63	0.22	1.01	0.56	0.44	25.56	1784.63
8343.0	17.13	2.27	0.24	80.82	0.22	1.14	0.52	0.48	25.67	41.04
8343.5	16.46	2.27	0.24	80.37	0.22	1.60	0.44	0.56	23.71	242.92
8344.0	16.31	2.30	0.22	78.39	0.21	2.49	0.37	0.63	21.75	444.79
8344.5	16.30	2.34	0.20	74.68	0.18	3.53	0.36	0.64	19.06	311.97
8345.0	16.53	2.38	0.19	71.44	0.16	4.46	0.37	0.63	15.99	6.72
8345.5	16.77	2.41	0.17	69.62	0.14	5.84	0.37	0.63	16.56	7.15
8346.0	16.38	2.42	0.16	69.71	0.13	8.93	0.31	0.69	17.14	7.57
8346.5	15.56	2.43	0.15	68.36	0.12	9.58	0.33	0.67	19.13	11.02
8347.0	15.82	2.44	0.14	67.98	0.12	8.70	0.35	0.65	21.72	15.76
8347.5	17.05	2.44	0.14	69.60	0.13	7.18	0.36	0.64	19.71	13.91
8348.0	16.76	2.42	0.15	73.19	0.14	5.10	0.38	0.62	17.71	12.06
8348.5	14.04	2.36	0.17	78.98	0.18	3.12	0.39	0.61	22.92	38.38
8349.0	11.25	2.30	0.21	84.36	0.23	1.87	0.39	0.61	28.13	64.70
8349.5	10.41	2.25	0.24	87.84	0.26	1.22	0.43	0.57	30.48	246.19
8350.0	10.98	2.21	0.27	89.78	0.27	0.90	0.47	0.53	32.84	427.68
8350.5	11.98	2.18	0.29	91.06	0.29	0.77	0.49	0.51	32.82	346.83
8351.0	12.86	2.17	0.30	92.06	0.30	0.73	0.48	0.52	32.20	200.39
8351.5	13.19	2.16	0.31	92.50	0.30	0.77	0.47	0.53	31.86	136.39
8352.0	12.86	2.17	0.30	92.18	0.29	0.89	0.44	0.56	31.58	93.00
8352.5	12.40	2.18	0.29	91.22	0.29	1.15	0.40	0.60	31.30	49.61
8353.0	12.42	2.18	0.28	90.72	0.28	1.59	0.34	0.66	29.11	456.83
8353.5	12.62	2.17	0.28	91.16	0.29	2.02	0.30	0.70	31.22	412.05
8354.0	12.29	2.16	0.28	92.06	0.29	2.11	0.29	0.71	34.51	226.10
8354.5	11.68	2.16	0.28	92.69	0.30	1.86	0.30	0.70	32.55	206.29
8355.0	11.13	2.17	0.27	92.05	0.29	1.45	0.35	0.65	30.59	186.47
8355.5	10.45	2.20	0.26	90.14	0.28	1.06	0.43	0.57	27.39	146.51
8356.0	9.85	2.22	0.26	88.67	0.27	0.81	0.51	0.49	23.66	97.91
8356.5	9.74	2.23	0.26	88.52	0.27	0.69	0.56	0.44	26.08	127.29
8357.0	9.85	2.23	0.27	89.87	0.27	0.67	0.55	0.45	30.05	176.17
8357.5	9.99	2.21	0.28	91.60	0.28	0.72	0.51	0.49	31.05	110.88
8358.0	10.30	2.20	0.28	92.47	0.29	0.83	0.46	0.54	32.05	45.58
8358.5	10.50	2.20	0.28	92.51	0.29	0.95	0.44	0.56	30.17	44.48
8359.0	10.32	2.21	0.28	92.07	0.28	1.08	0.41	0.59	26.81	76.44
8359.5	10.13	2.20	0.28	92.14	0.29	1.28	0.38	0.62	28.69	81.09
8360.0	10.42	2.18	0.27	92.62	0.29	1.52	0.34	0.66	31.29	82.01
8360.5	10.70	2.17	0.27	91.69	0.29	1.74	0.32	0.68	31.93	64.92
8361.0	10.55	2.18	0.26	90.52	0.28	1.93	0.31	0.69	32.57	47.83
8361.5	10.19	2.18	0.26	90.41	0.28	2.18	0.30	0.70	31.75	34.98
8362.0	10.09	2.18	0.27	91.07	0.28	2.58	0.27	0.73	30.17	24.31
8362.5	10.24	2.17	0.28	92.61	0.29	3.10	0.24	0.76	30.15	23.34
8363.0	10.37	2.18	0.28	93.41	0.29	3.64	0.22	0.78	30.43	24.23
8363.5	10.15	2.19	0.28	92.83	0.29	4.17	0.21	0.79	29.53	27.31
8364.0	9.72	2.19	0.27	92.72	0.29	4.76	0.19	0.81	28.22	31.17
8364.5	9.73	2.19	0.26	93.25	0.29	5.52	0.18	0.82	29.25	25.71
8365.0	10.41	2.18	0.26	93.96	0.30	6.47	0.16	0.84	31.02	17.31
8365.5	10.98	2.18	0.26	94.39	0.30	7.61	0.15	0.85	31.35	13.97
8366.0	11.15	2.16	0.26	95.09	0.30	8.83	0.14	0.86	31.22	12.22
8366.5	11.25	2.15	0.26	96.48	0.31	10.08	0.12	0.88	31.29	21.82
8367.0	11.02	2.14	0.26	97.55	0.32	11.45	0.11	0.89	31.41	34.27
8367.5	10.19	2.13	0.27	98.51	0.33	13.17	0.10	0.90	31.74	31.73
8368.0	9.64	2.13	0.27	97.96	0.32	15.44	0.10	0.90	32.16	22.77
8368.5	9.92	2.15	0.26	95.33	0.31	18.21	0.09	0.91	28.21	18.47
8369.0	10.41	2.17	0.26	92.70	0.29	21.35	0.09	0.91	23.54	14.93
8369.5	10.39	2.19	0.26	91.66	0.28	24.74	0.09	0.91	27.07	18.08
8370.0	10.18	2.20	0.26	93.07	0.29	28.21	0.08	0.92	30.61	21.23
8370.5	10.34	2.18	0.26	95.55	0.30	31.73	0.07	0.93	31.47	22.86
8371.0	10.52	2.15	0.26	97.97	0.31	35.28	0.07	0.93	31.19	23.84
8371.5	10.06	2.13	0.26	98.67	0.32	38.54	0.06	0.94	32.50	54.57
8372.0	9.75	2.12	0.27	98.06	0.32	41.50	0.06	0.94	34.11	90.97
8372.5	10.09	2.11	0.27	98.43	0.33	44.92	0.06	0.94	33.04	63.68
8373.0	10.30	2.11	0.26	98.10	0.33	49.29	0.05	0.95	31.97	36.39
8373.5	10.07	2.11	0.26	96.82	0.32	52.98	0.05	0.95	32.67	25.20
8374.0	10.16	2.12	0.25	95.33	0.31	52.92	0.05	0.95	34.13	20.92
8374.5	10.49	2.13	0.25	94.37	0.30	48.05	0.06	0.94	33.30	64.73
8375.0	10.27	2.13	0.25	95.20	0.31	35.26	0.07	0.93	31.89	120.57
8375.5	9.78	2.12	0.25	97.18	0.32	25.48	0.08	0.92	32.14	-999.25
8376.0	9.79	2.10	0.25	98.82	0.33	16.62	0.09	0.91	32.39	-999.25
8376.5	10.29	2.09	0.26	98.65	0.33	10.07	0.12	0.88	33.49	-999.25
8377.0	10.74	2.10	0.26	96.56	0.32	5.83	0.16	0.84	34.96	-999.25
8377.5	10.73	2.11	0.26	93.71	0.31	4.17	0.19	0.81	33.74	53.11
8378.0	10.41	2.15	0.25	90.01	0.29	4.11	0.21	0.79	32.01	21.49
8378.5	10.46	2.19	0.24	85.94	0.26	5.28	0.21	0.79	29.10	25.49
8379.0	11.08	2.24	0.24	82.55	0.23	8.17	0.19	0.81	27.86	24.98
8379.5	11.56	2.28	0.23	80.22	0.21	12.75	0.16	0.84	27.33	22.54
8380.0	11.44	2.30	0.23	79.28	0.20	16.45	0.15	0.85	26.80	20.10
8380.5	11.13	2.29	0.23	79.04	0.20	18.41	0.14	0.86	26.28	17.66
8381.0	11.20	2.27	0.23	79.09	0.21	20.16	0.13	0.87	25.75	15.23
8381.5	11.76	2.27	0.22	79.66	0.21	21.73	0.13	0.87	25.22	12.79
8382.0	12.57	2.28	0.22	81.00	0.21	22.57	0.12	0.88	24.69	10.35
8382.5	12.94	2.27	0.22	83.16	0.23	23.01	0.11	0.89	24.17	7.91
8383.0	12.75	2.23	0.22	85.77	0.25	23.69	0.10	0.90	24.79	7.97
8383.5	12.31	2.21	0.23	88.83	0.27	24.78	0.09	0.91	25.71	8.66
8384.0	12.05	2.19	0.24	91.60	0.28	26.05	0.09	0.91	28.64	16.69
8384.5	11.94	2.16	0.24	93.49	0.29	27.33	0.08	0.92	32.91	29.60
8385.0	11.60	2.13	0.24	95.24	0.31	28.56	0.07	0.93	33.92	75.88
