# LAS format log file from PETREL
# Project units are specified as depth units
#==================================================================
~Version information
VERS.   2.0:
WRAP.   NO:
#==================================================================
~Well
STRT .ft        8090.0 :
STOP .ft        8560.0 :
STEP .ft        0.5    :
NULL .          -999.25  :
COMP.           : COMPANY
WELL.  HW-30    : WELL
FLD.   COSTA    : FIELD
LOC.            : LOCATION
SRVC.           : SERVICE COMPANY
DATE.  2018-02-06 14:55:42   : Log Export Date {yyyy-MM-dd HH:mm:ss}
PROV.           : PROVINCE
UWI.   HW-30    : UNIQUE WELL ID
API.            : API NUMBER
#==================================================================
~Curve
DEPT .ft                  : DEPTH
GR .gAPI                  : GR
RHOB .g/cm3               : RHOB
NPHI .ft3/ft3             : NPHI
DT .us/ft                 : DT
PHIE .ft3/ft3             : PHIE
RT .ohm.m                 : RT
SW .                      : SW
SO . 			  : SO
CORE_POR .ft3/ft3         : CORE_POR
CORE_PERM .mD             : CORE_PERM
~Parameter
#==================================================================
~Ascii
# ...
8451.0	11.64	2.17	0.25	90.87	0.29	28.26	0.08	0.92	31.37	6.52
8451.5	11.55	2.17	0.26	91.26	0.29	28.92	0.08	0.92	30.98	6.86
8452.0	11.32	2.17	0.26	91.93	0.29	29.51	0.08	0.92	30.57	7.21
8452.5	11.23	2.17	0.26	92.42	0.29	29.89	0.08	0.92	30.94	7.19
8453.0	10.82	2.17	0.25	92.34	0.29	29.88	0.08	0.92	31.57	7.06
8453.5	10.05	2.17	0.26	91.82	0.29	29.34	0.08	0.92	30.64	6.31
8454.0	9.38	2.17	0.25	91.52	0.29	28.39	0.08	0.92	29.72	5.56
8454.5	9.10	2.17	0.25	91.53	0.29	27.33	0.08	0.92	30.94	6.28
8455.0	9.08	2.16	0.25	91.85	0.29	26.36	0.08	0.92	32.17	7.00
8455.5	9.26	2.15	0.26	91.95	0.29	25.55	0.08	0.92	32.26	6.96
8456.0	9.44	2.16	0.25	90.61	0.28	25.12	0.09	0.91	32.08	6.73
8456.5	9.75	2.17	0.24	88.86	0.27	25.39	0.09	0.91	31.56	6.05
8457.0	10.12	2.18	0.24	88.14	0.27	26.15	0.09	0.91	31.04	5.37
8457.5	10.11	2.18	0.25	88.22	0.27	26.79	0.09	0.91	29.88	5.15
8458.0	9.56	2.17	0.25	89.50	0.28	27.03	0.08	0.92	28.73	4.93
8458.5	8.98	2.16	0.26	91.26	0.29	27.18	0.08	0.92	29.57	5.68
8459.0	8.86	2.16	0.26	92.45	0.30	27.39	0.08	0.92	30.79	6.61
8459.5	9.12	2.15	0.26	93.39	0.30	27.39	0.08	0.92	31.79	6.63
8460.0	9.25	2.15	0.26	94.25	0.31	26.94	0.08	0.92	32.77	6.59
8460.5	9.19	2.14	0.27	94.99	0.31	26.28	0.08	0.92	33.03	7.34
8461.0	9.33	2.13	0.27	95.31	0.31	25.88	0.08	0.92	33.29	8.10
8461.5	9.69	2.13	0.27	95.39	0.32	25.90	0.08	0.92	32.73	7.94
8462.0	9.99	2.13	0.27	95.58	0.32	26.03	0.08	0.92	32.01	7.61
8462.5	10.05	2.12	0.27	95.67	0.32	25.87	0.08	0.92	32.61	7.63
8463.0	9.87	2.11	0.27	95.67	0.32	25.42	0.08	0.92	33.21	7.65
8463.5	9.41	2.10	0.27	95.60	0.32	24.91	0.08	0.92	33.11	7.45
8464.0	8.92	2.11	0.26	95.35	0.32	24.43	0.08	0.92	33.02	7.26
8464.5	8.58	2.13	0.26	95.25	0.31	23.93	0.08	0.92	33.20	7.71
8465.0	8.44	2.13	0.26	95.42	0.32	23.39	0.08	0.92	33.44	8.32
8465.5	8.51	2.13	0.27	95.55	0.32	22.74	0.08	0.92	33.28	7.69
8466.0	8.80	2.13	0.28	95.32	0.32	21.78	0.08	0.92	33.11	7.02
8466.5	8.94	2.13	0.27	94.60	0.31	20.45	0.09	0.91	31.48	6.14
8467.0	8.88	2.13	0.26	92.99	0.31	18.99	0.09	0.91	29.76	5.24
8467.5	9.21	2.15	0.25	90.33	0.29	17.75	0.10	0.90	30.37	5.42
8468.0	10.13	2.18	0.24	87.23	0.27	16.92	0.11	0.89	31.44	5.80
8468.5	10.90	2.21	0.24	84.78	0.25	16.53	0.12	0.88	30.10	-999.25
8469.0	10.89	2.22	0.24	84.46	0.25	16.51	0.12	0.88	28.77	-999.25
8469.5	10.30	2.21	0.24	86.07	0.26	16.69	0.12	0.88	26.13	-999.25
8470.0	9.70	2.19	0.24	88.59	0.27	16.89	0.11	0.89	23.03	-999.25
8470.5	9.62	2.17	0.25	90.98	0.29	17.02	0.10	0.90	25.05	2.48
8471.0	9.91	2.15	0.26	92.35	0.30	17.10	0.10	0.90	28.05	3.93
8471.5	9.88	2.14	0.27	93.07	0.30	17.11	0.10	0.90	29.53	5.31
8472.0	9.46	2.14	0.27	93.40	0.31	16.99	0.10	0.90	31.01	6.68
8472.5	9.20	2.15	0.26	93.08	0.31	16.82	0.10	0.90	30.82	5.90
8473.0	9.14	2.15	0.25	92.11	0.30	16.73	0.10	0.90	30.62	5.12
8473.5	9.24	2.16	0.25	90.21	0.29	16.76	0.10	0.90	31.61	6.11
8474.0	9.52	2.17	0.25	87.97	0.27	16.82	0.11	0.89	32.82	7.42
8474.5	9.84	2.18	0.24	86.65	0.26	16.98	0.12	0.88	32.27	7.03
8475.0	10.05	2.19	0.24	86.76	0.25	17.53	0.11	0.89	30.96	5.89
8475.5	10.11	2.19	0.24	88.10	0.26	18.55	0.11	0.89	29.22	5.24
8476.0	9.99	2.17	0.25	90.23	0.28	19.83	0.10	0.90	27.48	4.60
8476.5	9.99	2.15	0.26	92.24	0.30	21.00	0.09	0.91	27.54	4.53
8477.0	10.22	2.14	0.26	93.10	0.30	21.94	0.09	0.91	30.27	5.32
8477.5	10.10	2.15	0.27	93.10	0.30	22.73	0.08	0.92	31.36	5.97
8478.0	9.36	2.15	0.26	92.71	0.30	23.53	0.08	0.92	31.52	6.55
8478.5	8.56	2.15	0.26	91.86	0.30	24.49	0.08	0.92	32.52	6.95
8479.0	8.48	2.15	0.26	91.17	0.29	25.64	0.08	0.92	33.52	7.35
8479.5	8.75	2.17	0.26	91.28	0.29	26.75	0.08	0.92	32.17	6.39
8480.0	8.72	2.17	0.26	91.61	0.29	27.49	0.08	0.92	30.37	5.17
8480.5	8.56	2.17	0.25	91.90	0.29	27.68	0.08	0.92	29.94	4.97
8481.0	8.46	2.16	0.26	92.04	0.29	27.43	0.08	0.92	30.14	5.24
8481.5	8.23	2.16	0.26	91.63	0.29	26.98	0.08	0.92	30.13	5.50
8482.0	8.21	2.17	0.26	91.15	0.29	26.65	0.08	0.92	30.11	5.77
8482.5	8.71	2.17	0.25	90.75	0.28	26.66	0.08	0.92	30.21	5.46
8483.0	9.06	2.17	0.25	90.50	0.28	27.07	0.08	0.92	30.32	5.04
8483.5	8.82	2.17	0.25	90.55	0.28	27.69	0.08	0.92	29.25	6.73
8484.0	8.42	2.16	0.24	90.52	0.28	28.53	0.08	0.92	27.67	9.33
8484.5	8.35	2.16	0.24	90.52	0.29	30.10	0.08	0.92	29.48	7.72
8485.0	8.58	2.16	0.25	90.32	0.28	32.90	0.07	0.93	31.30	6.12
8485.5	8.74	2.17	0.25	89.50	0.28	36.48	0.07	0.93	31.18	5.55
8486.0	8.65	2.18	0.26	88.69	0.28	39.41	0.07	0.93	30.70	5.18
8486.5	8.30	2.19	0.26	88.34	0.28	40.99	0.07	0.93	30.31	6.51
8487.0	7.96	2.20	0.25	88.36	0.28	41.71	0.07	0.93	29.97	8.70
8487.5	7.86	2.20	0.25	88.64	0.29	41.69	0.07	0.93	30.28	8.60
8488.0	7.98	2.20	0.25	89.14	0.29	40.32	0.07	0.93	30.59	8.51
8488.5	8.16	2.20	0.25	89.42	0.29	37.88	0.07	0.93	30.91	8.67
8489.0	8.42	2.20	0.26	89.61	0.28	35.60	0.07	0.93	31.23	8.89
8489.5	8.58	2.19	0.26	89.96	0.28	34.18	0.07	0.93	31.18	8.41
8490.0	8.54	2.18	0.26	90.03	0.28	33.46	0.08	0.92	30.96	7.62
8490.5	8.74	2.18	0.26	89.84	0.28	32.86	0.08	0.92	31.55	7.63
8491.0	9.24	2.19	0.25	89.68	0.28	32.06	0.08	0.92	32.15	7.64
8491.5	9.60	2.19	0.25	89.85	0.28	31.02	0.08	0.92	31.22	8.43
8492.0	9.47	2.18	0.25	90.35	0.28	29.86	0.08	0.92	30.01	9.37
8492.5	9.27	2.18	0.26	91.14	0.29	28.73	0.08	0.92	30.11	7.26
8493.0	9.45	2.18	0.27	92.12	0.29	27.86	0.08	0.92	30.21	5.15
8493.5	9.83	2.17	0.27	92.55	0.30	27.37	0.08	0.92	30.21	6.45
8494.0	9.71	2.16	0.27	92.26	0.30	27.40	0.08	0.92	30.22	7.75
8494.5	9.09	2.16	0.26	91.51	0.29	28.10	0.08	0.92	30.50	7.41
8495.0	8.73	2.17	0.27	90.36	0.29	29.44	0.08	0.92	30.83	6.76
8495.5	8.79	2.18	0.27	88.95	0.28	30.88	0.08	0.92	31.08	6.38
8496.0	8.94	2.20	0.26	87.64	0.27	31.53	0.08	0.92	31.31	6.10
8496.5	8.92	2.21	0.25	87.29	0.27	30.73	0.08	0.92	30.94	6.54
8497.0	8.77	2.21	0.25	87.76	0.28	28.79	0.08	0.92	30.56	6.98
8497.5	8.74	2.19	0.25	88.74	0.28	26.67	0.08	0.92	31.18	8.17
8498.0	9.13	2.18	0.25	90.12	0.29	25.03	0.09	0.91	32.05	9.55
8498.5	9.60	2.17	0.25	90.94	0.29	23.85	0.09	0.91	31.32	8.43
8499.0	9.77	2.16	0.25	91.48	0.29	22.83	0.09	0.91	29.62	5.79
8499.5	9.74	2.16	0.25	92.29	0.30	21.81	0.09	0.91	30.31	5.76
8500.0	9.76	2.15	0.25	92.57	0.30	20.83	0.09	0.91	31.11	5.85
8500.5	9.99	2.15	0.25	92.30	0.30	19.84	0.09	0.91	31.19	6.73
8501.0	10.28	2.16	0.25	91.72	0.29	18.69	0.10	0.90	31.24	7.64
8501.5	10.36	2.16	0.25	91.16	0.29	17.39	0.10	0.90	31.66	7.28
8502.0	10.25	2.17	0.25	90.46	0.29	16.09	0.11	0.89	32.23	6.37
8502.5	10.11	2.17	0.25	89.56	0.28	14.84	0.11	0.89	32.13	7.04
8503.0	9.96	2.18	0.25	87.95	0.27	13.77	0.12	0.88	32.02	7.72
8503.5	9.70	2.20	0.24	85.26	0.26	13.09	0.13	0.87	30.85	6.32
8504.0	9.61	2.23	0.23	81.68	0.23	12.96	0.15	0.85	29.41	4.41
8504.5	10.23	2.27	0.21	77.72	0.20	13.22	0.17	0.83	27.12	2.82
8505.0	11.15	2.32	0.20	75.31	0.18	13.38	0.19	0.81	24.32	1.43
8505.5	11.11	2.33	0.19	75.58	0.18	13.07	0.19	0.81	25.53	1.89
8506.0	10.17	2.31	0.20	78.25	0.20	12.51	0.17	0.83	26.73	2.34
8506.5	9.68	2.27	0.21	82.47	0.23	12.12	0.16	0.84	27.94	2.80
8507.0	9.97	2.23	0.23	86.01	0.25	12.09	0.14	0.86	28.46	2.99
8507.5	10.19	2.20	0.24	87.83	0.26	12.32	0.13	0.87	29.38	3.53
8508.0	10.04	2.19	0.24	88.85	0.27	12.61	0.13	0.87	30.73	4.36
8508.5	10.07	2.18	0.25	89.49	0.28	12.77	0.12	0.88	30.96	4.57
8509.0	10.61	2.18	0.25	90.10	0.28	12.79	0.12	0.88	30.99	4.67
8509.5	11.06	2.17	0.26	90.89	0.28	12.74	0.12	0.88	31.15	4.53
8510.0	10.98	2.17	0.25	91.46	0.29	12.61	0.12	0.88	31.37	4.28
8510.5	10.55	2.17	0.25	91.89	0.29	12.35	0.12	0.88	31.41	4.76
8511.0	10.02	2.16	0.24	92.23	0.29	12.01	0.12	0.88	31.45	5.23
8511.5	9.91	2.16	0.25	92.63	0.29	11.73	0.12	0.88	31.24	4.63
8512.0	10.81	2.16	0.25	92.91	0.30	11.56	0.12	0.88	30.97	3.82
8512.5	12.23	2.16	0.25	92.82	0.30	11.51	0.12	0.88	30.68	3.71
8513.0	12.77	2.16	0.26	92.64	0.29	11.51	0.12	0.88	30.38	3.89
8513.5	12.13	2.16	0.26	92.50	0.29	11.48	0.12	0.88	30.49	4.67
8514.0	11.09	2.16	0.25	92.40	0.29	11.42	0.12	0.88	30.59	5.44
8514.5	10.25	2.15	0.25	92.29	0.29	11.36	0.12	0.88	30.98	5.03
8515.0	9.64	2.14	0.26	92.22	0.29	11.41	0.12	0.88	31.41	4.43
8515.5	9.43	2.13	0.26	92.15	0.30	11.55	0.12	0.88	30.68	3.84
8516.0	9.72	2.13	0.26	92.15	0.30	11.72	0.12	0.88	29.46	3.26
8516.5	9.95	2.14	0.26	92.41	0.30	11.83	0.12	0.88	30.03	3.51
8517.0	9.78	2.15	0.26	92.52	0.30	11.86	0.12	0.88	30.60	3.77
