# LAS format log file from PETREL
# Project units are specified as depth units
#==================================================================
~Version information
VERS.   2.0:
WRAP.   NO:
#==================================================================
~Well
STRT .ft        8090.0 :
STOP .ft        8560.0 :
STEP .ft        0.5    :
NULL .          -999.25  :
COMP.           : COMPANY
WELL.  HW-30    : WELL
FLD.   COSTA    : FIELD
LOC.            : LOCATION
SRVC.           : SERVICE COMPANY
DATE.  2018-02-06 14:55:42   : Log Export Date {yyyy-MM-dd HH:mm:ss}
PROV.           : PROVINCE
UWI.   HW-30    : UNIQUE WELL ID
API.            : API NUMBER
#==================================================================
~Curve
DEPT .ft                  : DEPTH
GR .gAPI                  : GR
RHOB .g/cm3               : RHOB
NPHI .ft3/ft3             : NPHI
DT .us/ft                 : DT
PHIE .ft3/ft3             : PHIE
RT .ohm.m                 : RT
SW .                      : SW
SO . 			  : SO
CORE_POR .ft3/ft3         : CORE_POR
CORE_PERM .mD             : CORE_PERM
~Parameter
#==================================================================
~Ascii
# ...
8385.5	10.85	2.12	0.25	96.96	0.32	29.62	0.07	0.93	33.53	136.48
8386.0	10.48	2.12	0.26	97.66	0.32	30.48	0.07	0.93	31.71	106.33
8386.5	10.76	2.11	0.26	97.54	0.32	31.47	0.07	0.93	29.61	58.90
8387.0	10.89	2.11	0.26	97.22	0.32	32.89	0.07	0.93	30.99	65.65
8387.5	10.63	2.11	0.27	96.12	0.32	34.28	0.07	0.93	32.37	72.40
8388.0	10.26	2.12	0.26	95.57	0.31	34.65	0.07	0.93	33.02	58.95
8388.5	9.93	2.11	0.26	95.96	0.32	33.75	0.07	0.93	33.67	45.50
8389.0	9.76	2.10	0.26	95.94	0.32	32.47	0.07	0.93	34.03	39.34
8389.5	10.07	2.10	0.27	95.67	0.32	31.80	0.07	0.93	34.35	34.36
8390.0	10.63	2.11	0.27	95.16	0.31	31.99	0.07	0.93	34.49	28.24
8390.5	10.86	2.12	0.27	95.36	0.31	32.62	0.07	0.93	34.63	22.12
8391.0	10.53	2.12	0.26	96.85	0.32	33.14	0.07	0.93	33.49	35.15
8391.5	10.33	2.10	0.26	98.27	0.33	33.22	0.06	0.94	31.68	58.04
8392.0	10.50	2.09	0.26	99.15	0.34	32.69	0.06	0.94	32.14	38.90
8392.5	10.39	2.09	0.26	98.99	0.34	31.78	0.06	0.94	32.96	12.91
8393.0	10.07	2.10	0.26	97.61	0.33	31.16	0.07	0.93	33.63	15.52
8393.5	10.10	2.11	0.27	96.49	0.32	31.33	0.07	0.93	34.31	18.13
8394.0	10.60	2.13	0.27	96.06	0.31	32.27	0.07	0.93	31.74	17.08
8394.5	11.05	2.13	0.27	96.25	0.31	33.54	0.07	0.93	27.79	14.47
8395.0	11.55	2.13	0.27	96.84	0.32	34.61	0.07	0.93	30.52	34.27
8395.5	11.84	2.11	0.27	97.52	0.33	35.14	0.06	0.94	34.52	58.34
8396.0	11.59	2.09	0.27	98.76	0.33	34.94	0.06	0.94	34.60	44.51
8396.5	11.04	2.08	0.27	99.81	0.34	33.98	0.06	0.94	34.42	28.25
8397.0	10.96	2.09	0.28	100.64	0.34	32.46	0.06	0.94	33.92	21.92
8397.5	11.32	2.09	0.28	101.03	0.34	30.80	0.06	0.94	33.28	19.83
8398.0	11.39	2.09	0.28	99.96	0.34	29.31	0.07	0.93	33.68	19.67
8398.5	11.09	2.11	0.27	98.57	0.33	28.31	0.07	0.93	34.24	19.82
8399.0	10.85	2.12	0.26	97.64	0.33	28.12	0.07	0.93	33.34	16.61
8399.5	11.16	2.14	0.26	95.78	0.31	28.95	0.07	0.93	32.45	13.39
8400.0	11.77	2.17	0.26	94.37	0.30	30.49	0.07	0.93	31.87	73.34
8400.5	12.12	2.20	0.25	94.16	0.29	32.02	0.07	0.93	31.41	153.25
8401.0	11.79	2.20	0.25	94.24	0.29	32.87	0.07	0.93	32.59	96.90
8401.5	11.34	2.18	0.24	95.75	0.30	32.81	0.07	0.93	34.10	14.60
8402.0	11.28	2.15	0.25	97.42	0.32	31.90	0.07	0.93	32.52	18.53
8402.5	11.02	2.14	0.25	97.51	0.32	30.53	0.07	0.93	30.94	22.47
8403.0	10.17	2.14	0.25	96.61	0.32	29.24	0.07	0.93	30.63	20.13
8403.5	9.62	2.15	0.25	96.05	0.31	28.37	0.07	0.93	30.73	15.81
8404.0	10.06	2.15	0.26	96.00	0.31	27.72	0.07	0.93	31.44	17.79
8404.5	10.58	2.15	0.26	95.72	0.31	26.89	0.08	0.92	32.27	20.96
8405.0	10.73	2.14	0.27	95.60	0.31	25.82	0.08	0.92	31.61	18.38
8405.5	10.78	2.14	0.27	94.99	0.31	25.18	0.08	0.92	30.95	15.81
8406.0	10.94	2.14	0.26	94.21	0.31	25.62	0.08	0.92	30.74	14.22
8406.5	11.11	2.16	0.25	94.61	0.30	27.15	0.08	0.92	30.64	12.87
8407.0	11.05	2.16	0.25	95.29	0.31	29.02	0.07	0.93	30.42	177.23
8407.5	10.55	2.15	0.26	95.82	0.31	30.59	0.07	0.93	30.19	373.15
8408.0	10.10	2.14	0.27	96.25	0.32	31.88	0.07	0.93	31.62	216.67
8408.5	10.30	2.14	0.28	95.79	0.31	32.94	0.07	0.93	33.04	60.19
8409.0	10.58	2.15	0.27	94.77	0.31	33.34	0.07	0.93	33.09	12.74
8409.5	10.48	2.16	0.27	94.26	0.30	32.92	0.07	0.93	32.56	12.01
8410.0	10.18	2.15	0.26	94.01	0.30	32.31	0.07	0.93	31.39	10.62
8410.5	10.17	2.15	0.26	93.72	0.30	32.35	0.07	0.93	30.07	9.07
8411.0	10.67	2.16	0.25	93.73	0.30	33.23	0.07	0.93	29.89	9.38
8411.5	11.39	2.16	0.25	93.77	0.30	34.44	0.07	0.93	29.71	9.68
8412.0	11.67	2.15	0.26	93.60	0.30	35.22	0.07	0.93	30.37	19.51
8412.5	11.24	2.15	0.26	93.71	0.30	35.28	0.07	0.93	31.03	29.33
8413.0	10.56	2.15	0.26	94.28	0.30	34.97	0.07	0.93	31.69	39.16
8413.5	10.11	2.14	0.26	94.44	0.30	34.78	0.07	0.93	29.32	24.05
8414.0	9.81	2.14	0.26	94.17	0.30	34.90	0.07	0.93	26.36	4.19
8414.5	9.46	2.14	0.27	93.72	0.30	35.18	0.07	0.93	28.23	5.86
8415.0	9.30	2.15	0.26	93.04	0.30	35.57	0.07	0.93	30.09	7.54
8415.5	9.44	2.15	0.26	92.75	0.30	36.13	0.07	0.93	29.51	10.95
8416.0	9.52	2.15	0.26	93.14	0.30	36.69	0.07	0.93	28.93	14.36
8416.5	9.64	2.14	0.28	94.06	0.31	36.76	0.07	0.93	29.82	13.68
8417.0	10.06	2.13	0.29	95.38	0.31	36.10	0.06	0.94	30.94	12.34
8417.5	10.47	2.12	0.28	96.81	0.32	35.00	0.06	0.94	30.91	9.60
8418.0	10.61	2.11	0.27	97.71	0.33	33.84	0.06	0.94	30.88	6.87
8418.5	10.88	2.11	0.26	97.84	0.33	32.88	0.07	0.93	31.31	7.15
8419.0	11.15	2.11	0.27	97.37	0.32	32.25	0.07	0.93	31.74	7.43
8419.5	11.18	2.12	0.27	96.55	0.32	32.05	0.07	0.93	32.51	8.78
8420.0	11.08	2.13	0.26	96.11	0.32	32.16	0.07	0.93	33.37	10.40
8420.5	10.91	2.13	0.26	96.14	0.32	32.14	0.07	0.93	31.80	9.56
8421.0	10.60	2.13	0.26	96.59	0.32	31.56	0.07	0.93	30.24	8.73
8421.5	10.33	2.11	0.27	97.18	0.33	30.57	0.07	0.93	31.83	10.81
8422.0	10.40	2.10	0.27	97.41	0.33	29.84	0.07	0.93	33.42	12.89
8422.5	10.60	2.10	0.27	97.42	0.33	29.68	0.07	0.93	33.30	11.04
8423.0	10.54	2.10	0.26	97.22	0.33	29.64	0.07	0.93	32.86	8.44
8423.5	10.37	2.11	0.26	96.81	0.32	29.10	0.07	0.93	32.85	8.31
8424.0	10.56	2.10	0.26	96.48	0.32	27.99	0.07	0.93	32.84	8.19
8424.5	10.90	2.11	0.26	96.31	0.32	26.70	0.07	0.93	32.88	8.56
8425.0	10.86	2.12	0.27	96.05	0.32	25.64	0.08	0.92	32.91	8.94
8425.5	10.40	2.13	0.27	95.54	0.31	25.16	0.08	0.92	32.50	8.60
8426.0	10.34	2.15	0.26	94.86	0.31	25.45	0.08	0.92	32.02	8.15
8426.5	11.09	2.16	0.25	94.65	0.30	26.23	0.08	0.92	31.44	8.46
8427.0	11.77	2.16	0.25	95.19	0.31	26.93	0.08	0.92	30.86	8.77
8427.5	11.73	2.14	0.25	96.07	0.31	27.30	0.08	0.92	31.51	10.90
8428.0	11.37	2.13	0.26	96.94	0.32	27.60	0.07	0.93	32.15	13.03
8428.5	11.14	2.13	0.26	97.00	0.32	28.05	0.07	0.93	32.08	11.30
8429.0	11.08	2.13	0.27	96.15	0.32	28.53	0.07	0.93	32.02	9.57
8429.5	11.09	2.14	0.27	95.31	0.31	28.89	0.07	0.93	32.12	10.33
8430.0	10.98	2.15	0.27	94.60	0.31	29.19	0.07	0.93	32.22	11.09
8430.5	10.92	2.16	0.27	94.26	0.30	29.49	0.07	0.93	31.06	8.52
8431.0	10.91	2.16	0.28	94.56	0.31	29.68	0.07	0.93	29.91	5.95
8431.5	11.12	2.15	0.28	95.22	0.31	29.68	0.07	0.93	30.94	6.80
8432.0	11.60	2.15	0.27	95.62	0.31	29.67	0.07	0.93	32.39	8.29
8432.5	11.91	2.15	0.26	95.21	0.31	29.97	0.07	0.93	31.16	8.17
8433.0	11.61	2.15	0.26	94.31	0.30	30.63	0.07	0.93	29.93	8.06
8433.5	10.81	2.16	0.26	93.36	0.30	31.34	0.07	0.93	28.82	5.93
8434.0	10.26	2.16	0.27	93.14	0.30	31.70	0.07	0.93	27.72	3.81
8434.5	10.27	2.16	0.26	93.94	0.30	31.67	0.07	0.93	29.55	5.66
8435.0	10.22	2.15	0.27	95.07	0.31	31.47	0.07	0.93	31.94	8.27
8435.5	9.76	2.14	0.27	96.12	0.32	31.04	0.07	0.93	31.92	7.90
8436.0	9.53	2.14	0.27	96.48	0.32	30.16	0.07	0.93	31.90	7.54
8436.5	9.54	2.13	0.27	96.14	0.32	28.94	0.07	0.93	31.43	7.39
8437.0	9.63	2.13	0.27	95.67	0.31	27.94	0.07	0.93	30.96	7.23
8437.5	9.89	2.14	0.27	95.00	0.31	27.44	0.08	0.92	31.14	7.85
8438.0	10.38	2.14	0.27	94.51	0.31	27.13	0.08	0.92	31.44	8.59
8438.5	10.77	2.14	0.26	94.73	0.31	26.60	0.08	0.92	29.86	7.25
8439.0	10.69	2.13	0.26	95.10	0.31	26.03	0.08	0.92	28.29	5.91
8439.5	10.24	2.13	0.26	95.41	0.31	25.73	0.08	0.92	30.91	7.84
8440.0	10.01	2.13	0.27	95.56	0.31	25.52	0.08	0.92	33.53	9.77
8440.5	10.17	2.14	0.27	95.50	0.31	24.87	0.08	0.92	32.45	9.16
8441.0	10.37	2.14	0.27	95.64	0.31	23.68	0.08	0.92	30.46	7.90
8441.5	10.13	2.13	0.27	96.03	0.31	22.49	0.08	0.92	30.94	7.10
8442.0	9.61	2.12	0.27	96.52	0.32	21.86	0.08	0.92	31.43	6.30
8442.5	9.64	2.12	0.27	96.58	0.32	21.90	0.08	0.92	31.09	5.48
8443.0	10.41	2.11	0.27	96.17	0.32	22.28	0.08	0.92	30.75	4.66
8443.5	10.83	2.12	0.27	95.67	0.31	22.55	0.08	0.92	31.23	6.09
8444.0	10.62	2.12	0.26	95.31	0.31	22.49	0.08	0.92	31.85	7.87
8444.5	10.48	2.13	0.26	95.29	0.31	22.15	0.08	0.92	32.15	8.03
8445.0	10.68	2.13	0.25	95.08	0.31	21.81	0.08	0.92	32.44	8.18
8445.5	11.06	2.14	0.26	94.38	0.31	21.75	0.09	0.91	31.92	6.71
8446.0	11.22	2.15	0.26	93.38	0.30	22.13	0.09	0.91	31.40	5.24
8446.5	10.85	2.17	0.26	91.84	0.29	22.75	0.09	0.91	30.86	5.53
8447.0	10.32	2.19	0.24	89.39	0.28	23.17	0.09	0.91	30.32	6.12
8447.5	10.18	2.22	0.23	86.06	0.26	23.33	0.10	0.90	29.28	5.20
8448.0	10.07	2.23	0.22	83.09	0.24	23.68	0.11	0.89	28.24	4.28
8448.5	9.93	2.23	0.22	81.83	0.23	24.52	0.11	0.89	26.88	3.64
8449.0	10.25	2.22	0.22	82.91	0.24	25.66	0.10	0.90	25.52	2.99
8449.5	10.77	2.19	0.24	85.78	0.26	26.64	0.09	0.91	27.56	4.32
8450.0	11.00	2.17	0.24	88.69	0.28	27.24	0.08	0.92	30.68	6.27
8450.5	11.30	2.17	0.25	90.35	0.29	27.70	0.08	0.92	31.02	6.39
