# LAS format log file from PETREL
# Project units are specified as depth units
#==================================================================
~Version information
VERS.   2.0:
WRAP.   NO:
#==================================================================
~Well
STRT .ft        8340.0 :
STOP .ft        8790.0 :
STEP .ft        0.5    :
NULL .          -999.25  :
COMP.           : COMPANY
WELL.  HW-31    : WELL
FLD.   COSTA    : FIELD
LOC.            : LOCATION
SRVC.           : SERVICE COMPANY
DATE.  2018-02-06 14:55:42   : Log Export Date {yyyy-MM-dd HH:mm:ss}
PROV.           : PROVINCE
UWI.   HW-31    : UNIQUE WELL ID
API.            : API NUMBER
#==================================================================
~Curve
DEPT .ft                  : DEPTH
GR .gAPI                  : GR
RHOB .g/cm3               : RHOB
NPHI .ft3/ft3             : NPHI
DT .us/ft                 : DT
PHIE .ft3/ft3             : PHIE
RT .ohm.m                 : RT
SW .                      : SW
SO . 			  : SO
CORE_POR .ft3/ft3         : CORE_POR
CORE_PERM .mD             : CORE_PERM
~Parameter
#==================================================================                                                      
~Ascii
8580.0	34.47	2.68	0.02	57.15	0.02	13.53	-999.25	-999.25	0.75	0.04
8580.5	34.03	2.68	0.02	56.15	0.02	13.78	-999.25	-999.25	0.72	0.58
8581.0	33.02	2.69	0.02	56.30	0.01	13.71	-999.25	-999.25	0.95	2.25
8581.5	35.91	2.70	0.02	56.55	0.01	14.50	-999.25	-999.25	1.07	3.34
8582.0	38.12	2.70	0.01	56.35	0.00	14.60	-999.25	-999.25	0.66	1.33
8582.5	41.13	2.70	0.02	56.65	0.00	14.39	-999.25	-999.25	0.41	0.01
8583.0	39.03	2.70	0.02	56.90	0.01	13.14	-999.25	-999.25	0.51	0.01
8583.5	39.91	2.69	0.02	57.35	0.01	12.39	-999.25	-999.25	0.60	0.01
8584.0	38.67	2.69	0.02	57.45	0.01	14.29	-999.25	-999.25	0.79	0.04
8584.5	38.11	2.69	0.02	56.60	0.01	15.47	-999.25	-999.25	0.86	0.06
8585.0	33.90	2.69	0.01	55.20	0.01	16.69	-999.25	-999.25	0.69	0.04
8585.5	32.76	2.68	0.01	55.55	0.02	17.23	-999.25	-999.25	0.51	0.01
8586.0	30.32	2.69	0.01	56.20	0.01	16.56	-999.25	-999.25	0.62	0.02
8586.5	31.77	2.70	0.01	56.10	0.02	15.73	-999.25	-999.25	0.73	0.03
8587.0	34.16	2.71	0.01	56.30	0.01	16.26	-999.25	-999.25	0.85	0.25
8587.5	36.15	2.71	0.01	56.35	0.01	17.32	-999.25	-999.25	0.98	0.66
8588.0	36.92	2.70	0.01	56.40	0.01	16.08	-999.25	-999.25	0.79	0.41
8588.5	36.13	2.69	0.02	56.85	0.01	15.24	-999.25	-999.25	0.60	0.01
8589.0	35.72	2.69	0.02	56.80	0.02	14.40	-999.25	-999.25	0.75	0.01
8589.5	33.73	2.70	0.02	56.40	0.01	16.38	-999.25	-999.25	0.87	0.01
8590.0	33.17	2.70	0.01	55.55	0.01	18.58	-999.25	-999.25	0.80	0.01
8590.5	35.58	2.71	0.01	55.10	0.00	19.98	-999.25	-999.25	0.75	0.01
8591.0	40.13	2.72	0.01	54.25	0.00	20.33	-999.25	-999.25	0.74	0.01
8591.5	42.57	2.74	0.01	53.75	0.00	20.95	-999.25	-999.25	0.73	0.01
8592.0	43.49	2.74	0.00	53.10	0.00	23.92	-999.25	-999.25	0.50	0.01
8592.5	39.94	2.74	0.00	52.50	0.00	25.65	-999.25	-999.25	0.36	0.01
8593.0	37.28	2.73	0.00	51.90	0.00	28.15	-999.25	-999.25	0.43	0.01
8593.5	33.36	2.73	0.00	51.95	0.00	30.76	-999.25	-999.25	0.49	0.01
8594.0	31.82	2.72	0.00	51.45	0.00	33.33	-999.25	-999.25	0.63	0.01
8594.5	29.72	2.72	0.00	51.40	0.00	35.01	-999.25	-999.25	0.81	0.01
8595.0	31.38	2.72	0.00	51.35	0.00	22.22	-999.25	-999.25	0.95	0.01
8595.5	32.73	2.71	0.00	51.40	0.00	16.25	-999.25	-999.25	0.95	0.01
8596.0	31.84	2.70	0.00	53.70	0.01	9.69	-999.25	-999.25	0.70	0.01
8596.5	30.63	2.68	0.00	54.40	0.02	6.20	-999.25	-999.25	0.45	0.01
8597.0	29.37	2.67	0.01	56.00	0.03	5.37	-999.25	-999.25	2.02	0.03
8597.5	29.98	2.63	0.02	58.75	0.05	2.61	-999.25	-999.25	3.59	0.05
8598.0	27.32	2.59	0.07	61.45	0.08	1.26	-999.25	-999.25	7.33	1.29
8598.5	21.56	2.54	0.11	65.00	0.11	0.81	-999.25	-999.25	12.20	3.16
8599.0	18.54	2.51	0.14	67.20	0.14	0.68	-999.25	-999.25	13.85	2.85
8599.5	17.44	2.48	0.15	69.25	0.15	0.61	-999.25	-999.25	12.83	1.31
8600.0	19.87	2.46	0.19	71.20	0.16	0.51	-999.25	-999.25	14.68	4.72
8600.5	20.28	2.44	0.21	72.55	0.17	0.43	-999.25	-999.25	16.38	7.73
8601.0	18.69	2.42	0.22	72.40	0.18	0.43	-999.25	-999.25	17.31	8.64
8601.5	17.03	2.43	0.20	71.00	0.18	0.46	-999.25	-999.25	17.67	10.43
8602.0	18.59	2.44	0.19	68.85	0.17	0.51	-999.25	-999.25	17.46	13.09
8602.5	19.74	2.46	0.17	68.60	0.16	0.56	-999.25	-999.25	17.91	60.35
8603.0	20.85	2.46	0.17	68.75	0.16	0.56	-999.25	-999.25	19.65	194.21
8603.5	19.29	2.45	0.18	68.80	0.16	0.55	-999.25	-999.25	21.39	328.08
8604.0	19.84	2.45	0.20	68.15	0.16	0.61	-999.25	-999.25	21.12	438.34
8604.5	21.17	2.47	0.18	66.20	0.15	0.77	-999.25	-999.25	19.81	536.44
8605.0	20.03	2.50	0.15	63.45	0.12	1.07	-999.25	-999.25	15.23	328.53
8605.5	18.93	2.53	0.11	61.45	0.11	1.37	-999.25	-999.25	10.70	74.68
8606.0	16.82	2.55	0.09	59.65	0.09	1.64	-999.25	-999.25	9.51	37.63
8606.5	19.31	2.58	0.08	58.70	0.08	1.80	-999.25	-999.25	8.32	0.58
8607.0	20.42	2.61	0.07	56.95	0.07	1.90	-999.25	-999.25	6.80	0.41
8607.5	22.64	2.62	0.06	57.90	0.08	1.55	-999.25	-999.25	5.89	0.29
8608.0	20.40	2.59	0.07	60.35	0.09	1.30	-999.25	-999.25	6.14	0.29
8608.5	18.48	2.52	0.11	65.05	0.11	1.34	-999.25	-999.25	6.39	0.29
8609.0	15.94	2.46	0.14	67.60	0.14	0.96	-999.25	-999.25	11.29	15.87
8609.5	15.71	2.41	0.17	72.75	0.17	0.63	-999.25	-999.25	15.29	35.70
8610.0	14.67	2.39	0.18	75.15	0.19	0.53	-999.25	-999.25	14.57	77.90
8610.5	14.23	2.36	0.19	76.20	0.20	0.48	-999.25	-999.25	14.48	213.85
8611.0	13.67	2.33	0.21	78.90	0.22	0.43	-999.25	-999.25	17.65	842.01
8611.5	12.08	2.32	0.23	77.25	0.22	0.38	-999.25	-999.25	20.82	1470.17
8612.0	11.41	2.32	0.24	79.95	0.23	0.37	-999.25	-999.25	21.49	880.51
8612.5	9.76	2.34	0.24	79.60	0.22	0.32	-999.25	-999.25	21.69	58.89
8613.0	11.87	2.35	0.23	78.75	0.22	0.28	-999.25	-999.25	21.14	104.01
8613.5	11.76	2.37	0.25	77.50	0.22	0.25	-999.25	-999.25	20.60	149.14
8614.0	13.11	2.37	0.25	77.00	0.22	0.25	-999.25	-999.25	21.09	211.21
8614.5	12.22	2.36	0.25	77.80	0.22	0.25	-999.25	-999.25	22.12	282.02
8615.0	12.22	2.34	0.24	78.80	0.23	0.24	-999.25	-999.25	21.79	774.34
8615.5	11.42	2.33	0.26	80.15	0.24	0.21	-999.25	-999.25	21.96	801.39
8616.0	9.61	2.33	0.29	80.40	0.25	0.19	-999.25	-999.25	22.90	282.90
8616.5	10.16	2.33	0.30	80.95	0.25	0.18	-999.25	-999.25	22.97	73.16
8617.0	9.72	2.33	0.29	81.30	0.25	0.20	-999.25	-999.25	22.18	172.17
8617.5	11.42	2.32	0.26	81.55	0.25	0.22	-999.25	-999.25	21.38	271.19
8618.0	11.08	2.31	0.24	82.40	0.25	0.23	-999.25	-999.25	21.23	172.29
8618.5	11.97	2.31	0.24	82.30	0.25	0.22	-999.25	-999.25	21.08	73.39
8619.0	12.64	2.31	0.26	82.45	0.25	0.21	-999.25	-999.25	23.73	30.53
8619.5	13.19	2.32	0.27	82.40	0.25	0.21	-999.25	-999.25	24.71	13.39
8620.0	14.38	2.33	0.26	82.45	0.24	0.20	-999.25	-999.25	23.49	11.31
8620.5	14.82	2.34	0.26	82.50	0.24	0.20	-999.25	-999.25	22.27	9.23
8621.0	14.49	2.33	0.26	82.85	0.24	0.19	-999.25	-999.25	23.06	9.61
8621.5	13.04	2.32	0.27	83.05	0.25	0.19	-999.25	-999.25	24.88	11.26
8622.0	11.93	2.31	0.28	83.30	0.25	0.20	-999.25	-999.25	25.77	13.89
8622.5	11.71	2.31	0.27	82.75	0.25	0.21	-999.25	-999.25	25.72	17.52
8623.0	11.81	2.32	0.26	81.90	0.24	0.21	-999.25	-999.25	23.78	25.40
8623.5	12.59	2.32	0.26	81.00	0.24	0.22	-999.25	-999.25	22.07	30.64
8624.0	13.92	2.33	0.26	80.40	0.24	0.22	-999.25	-999.25	23.38	17.78
8624.5	14.33	2.32	0.26	81.10	0.24	0.22	-999.25	-999.25	24.28	9.38
8625.0	14.11	2.33	0.24	80.65	0.24	0.23	-999.25	-999.25	24.39	9.65
8625.5	12.12	2.33	0.25	79.90	0.24	0.24	-999.25	-999.25	24.51	9.92
8626.0	11.08	2.33	0.25	79.45	0.23	0.24	-999.25	-999.25	23.84	9.64
8626.5	10.86	2.34	0.26	77.20	0.23	0.24	-999.25	-999.25	23.17	9.36
8627.0	11.39	2.35	0.25	75.60	0.23	0.25	-999.25	-999.25	21.95	7.06
8627.5	12.39	2.37	0.25	74.25	0.21	0.28	-999.25	-999.25	20.63	4.36
8628.0	12.85	2.39	0.24	72.80	0.20	0.31	-999.25	-999.25	20.79	11.97
8628.5	13.10	2.40	0.22	70.80	0.19	0.35	-999.25	-999.25	20.30	14.31
8629.0	12.32	2.41	0.22	70.75	0.19	0.39	-999.25	-999.25	18.58	6.38
8629.5	10.31	2.42	0.20	71.80	0.19	0.35	-999.25	-999.25	17.76	42.79
8630.0	9.75	2.41	0.21	72.75	0.20	0.32	-999.25	-999.25	17.85	123.52
8630.5	11.74	2.38	0.20	74.10	0.21	0.31	-999.25	-999.25	17.93	204.26
8631.0	13.85	2.37	0.21	75.75	0.21	0.27	-999.25	-999.25	18.31	94.68
8631.5	14.08	2.36	0.24	76.55	0.22	0.25	-999.25	-999.25	19.01	2.92
8632.0	11.75	2.35	0.26	77.60	0.23	0.25	-999.25	-999.25	21.36	4.66
8632.5	11.08	2.34	0.29	78.25	0.23	0.25	-999.25	-999.25	22.14	8.60
8633.0	12.41	2.34	0.27	78.55	0.23	0.25	-999.25	-999.25	21.36	14.73
8633.5	12.41	2.35	0.27	79.10	0.23	0.25	-999.25	-999.25	20.58	20.86
8634.0	11.75	2.35	0.25	78.60	0.22	0.25	-999.25	-999.25	20.57	13.94
8634.5	10.92	2.36	0.25	77.75	0.22	0.24	-999.25	-999.25	20.69	8.29
8635.0	12.47	2.37	0.25	75.50	0.22	0.25	-999.25	-999.25	20.82	9.90
8635.5	12.58	2.37	0.24	74.55	0.21	0.28	-999.25	-999.25	20.73	10.27
8636.0	12.41	2.38	0.23	72.95	0.21	0.29	-999.25	-999.25	20.24	8.24
8636.5	12.64	2.40	0.22	71.55	0.20	0.32	-999.25	-999.25	19.75	6.21
8637.0	13.97	2.44	0.20	67.55	0.18	0.34	-999.25	-999.25	17.03	3.63
8637.5	16.19	2.48	0.17	66.10	0.16	0.37	-999.25	-999.25	13.88	0.93
8638.0	15.08	2.50	0.14	66.55	0.15	0.45	-999.25	-999.25	12.76	1.21
8638.5	14.66	2.50	0.14	67.95	0.15	0.51	-999.25	-999.25	11.63	1.49
8639.0	12.78	2.46	0.17	70.55	0.17	0.37	-999.25	-999.25	13.42	3.04
8639.5	13.45	2.41	0.19	74.85	0.20	0.27	-999.25	-999.25	18.11	5.87
8640.0	13.34	2.37	0.21	76.80	0.22	0.24	-999.25	-999.25	19.73	45.15
