# LAS format log file from PETREL
# Project units are specified as depth units
#==================================================================
~Version information
VERS.   2.0:
WRAP.   NO:
#==================================================================
~Well
STRT .ft        8200.0 :
STOP .ft        8580.0 :
STEP .ft        0.5    :
NULL .          -999.25  :
COMP.           : COMPANY
WELL.  HW-32    : WELL
FLD.   COSTA    : FIELD
LOC.            : LOCATION
SRVC.           : SERVICE COMPANY
DATE.  2018-02-06 14:55:43   : Log Export Date {yyyy-MM-dd HH:mm:ss}
PROV.           : PROVINCE
UWI.   HW-32    : UNIQUE WELL ID
API.            : API NUMBER
#==================================================================
~Curve
DEPT .ft                  : DEPTH
GR .gAPI                  : GR
RHOB .g/cm3               : RHOB
NPHI .ft3/ft3             : NPHI
DT .us/ft                 : DT
PHIE .ft3/ft3             : PHIE
RT .ohm.m                 : RT
SW .                      : SW
SO .			  : SO
CORE_POR .ft3/ft3         : CORE_POR
CORE_PERM .mD             : CORE_PERM
~Parameter
#==================================================================
~Ascii
# ...
8435.0	14.03	2.18	0.31	89.30	0.31	0.39	0.63	0.37	31.54	34.65
8435.5	13.68	2.16	0.32	90.70	0.33	0.43	0.57	0.43	31.88	33.38
8436.0	12.71	2.15	0.32	90.70	0.33	0.50	0.53	0.47	32.21	32.11
8436.5	12.94	2.18	0.30	90.60	0.31	0.58	0.52	0.48	32.54	30.83
8437.0	12.35	2.21	0.27	87.00	0.29	0.69	0.51	0.49	32.36	27.81
8437.5	12.06	2.22	0.27	87.20	0.29	0.81	0.48	0.52	31.92	23.88
8438.0	12.56	2.20	0.30	89.80	0.29	0.97	0.43	0.57	31.86	24.09
8438.5	13.85	2.17	0.30	89.30	0.30	1.32	0.36	0.64	31.87	25.10
8439.0	15.10	2.16	0.29	91.50	0.30	2.11	0.28	0.72	31.88	26.10
8439.5	15.18	2.15	0.26	91.50	0.29	3.30	0.23	0.77	31.89	27.11
8440.0	14.54	2.15	0.27	90.70	0.29	3.63	0.22	0.78	31.53	115.03
8440.5	13.17	2.13	0.28	92.05	0.29	3.48	0.22	0.78	29.18	659.30
8441.0	13.42	2.13	0.29	92.15	0.30	3.33	0.22	0.78	28.85	677.55
8441.5	13.71	2.14	0.28	91.90	0.30	3.28	0.23	0.77	28.89	595.61
8442.0	13.46	2.15	0.27	92.20	0.29	3.47	0.22	0.78	28.94	513.67
8442.5	12.18	2.16	0.26	92.20	0.29	3.43	0.23	0.77	28.99	431.73
8443.0	10.91	2.17	0.26	90.70	0.28	3.43	0.24	0.76	29.03	349.80
8443.5	10.80	2.17	0.25	89.40	0.28	3.48	0.24	0.76	29.08	267.86
8444.0	11.55	2.16	0.26	90.20	0.28	3.57	0.23	0.77	29.12	185.92
8444.5	12.47	2.15	0.26	91.70	0.28	3.54	0.23	0.77	29.17	103.98
8445.0	12.58	2.15	0.27	91.60	0.29	3.62	0.22	0.78	29.59	45.94
8445.5	12.18	2.15	0.28	91.80	0.28	4.33	0.21	0.79	30.72	34.28
8446.0	12.77	2.16	0.26	92.30	0.28	6.07	0.18	0.82	31.58	23.74
8446.5	12.56	2.18	0.25	90.80	0.27	8.27	0.16	0.84	30.98	19.06
8447.0	13.60	2.19	0.23	90.40	0.26	7.41	0.17	0.83	30.44	18.27
8447.5	13.25	2.21	0.23	89.40	0.25	5.38	0.21	0.79	30.18	37.88
8448.0	15.09	2.21	0.24	88.65	0.25	4.70	0.22	0.78	29.92	57.49
8448.5	13.57	2.20	0.25	88.55	0.26	4.84	0.21	0.79	29.66	77.11
8449.0	13.57	2.19	0.25	89.20	0.27	4.78	0.21	0.79	29.40	96.72
8449.5	13.13	2.18	0.26	90.10	0.27	4.38	0.21	0.79	29.14	116.33
8450.0	15.44	2.17	0.25	90.30	0.28	4.22	0.22	0.78	28.89	135.94
8450.5	14.75	2.17	0.26	90.60	0.28	4.59	0.21	0.79	28.63	155.56
8451.0	14.10	2.17	0.26	90.30	0.28	5.20	0.19	0.81	28.29	120.92
8451.5	12.49	2.17	0.27	90.60	0.28	5.54	0.18	0.82	28.04	12.71
8452.0	13.54	2.17	0.26	90.60	0.28	5.75	0.18	0.82	28.03	13.30
8452.5	13.25	2.18	0.25	90.75	0.28	5.94	0.18	0.82	28.03	13.89
8453.0	13.95	2.18	0.25	90.75	0.27	6.18	0.18	0.82	28.02	14.48
8453.5	13.60	2.18	0.25	90.20	0.27	6.49	0.18	0.82	28.02	15.07
8454.0	13.35	2.18	0.25	90.20	0.27	6.55	0.18	0.82	28.01	15.66
8454.5	13.10	2.18	0.25	90.00	0.27	6.50	0.18	0.82	28.01	16.24
8455.0	11.30	2.18	0.25	90.05	0.27	6.70	0.17	0.83	28.01	16.83
8455.5	11.78	2.17	0.26	90.25	0.28	6.87	0.17	0.83	28.00	17.42
8456.0	12.46	2.18	0.26	90.05	0.27	7.18	0.17	0.83	28.00	18.01
8456.5	13.34	2.19	0.26	89.55	0.27	7.22	0.17	0.83	27.99	18.60
8457.0	15.07	2.19	0.26	89.70	0.27	7.28	0.17	0.83	27.88	37.75
8457.5	13.87	2.19	0.26	88.60	0.27	7.09	0.17	0.83	27.56	92.94
8458.0	14.45	2.19	0.25	89.30	0.27	6.76	0.18	0.82	27.23	148.12
8458.5	12.89	2.20	0.25	89.20	0.27	5.91	0.19	0.81	26.91	203.30
8459.0	13.51	2.19	0.25	89.60	0.27	4.91	0.20	0.80	28.05	328.33
8459.5	12.93	2.18	0.25	90.15	0.28	4.38	0.21	0.79	29.47	466.67
8460.0	12.65	2.16	0.26	90.75	0.28	4.51	0.20	0.80	30.83	238.84
8460.5	11.16	2.14	0.28	92.20	0.29	5.03	0.19	0.81	32.18	11.01
8461.0	12.44	2.14	0.28	92.90	0.29	5.34	0.18	0.82	32.05	11.45
8461.5	13.24	2.14	0.27	92.50	0.29	5.31	0.18	0.82	31.92	11.89
8462.0	14.33	2.15	0.25	91.60	0.29	4.87	0.19	0.81	31.83	21.20
8462.5	13.63	2.15	0.26	91.90	0.28	4.53	0.20	0.80	31.74	32.21
8463.0	12.89	2.15	0.27	92.90	0.29	4.65	0.20	0.80	31.72	30.00
8463.5	11.92	2.14	0.27	92.90	0.29	4.94	0.19	0.81	31.74	20.99
8464.0	11.23	2.14	0.27	93.50	0.29	5.04	0.19	0.81	31.34	15.43
8464.5	11.77	2.14	0.27	93.80	0.29	5.12	0.18	0.82	30.53	13.32
8465.0	12.35	2.13	0.28	93.60	0.29	5.24	0.18	0.82	30.57	11.45
8465.5	13.15	2.13	0.28	93.90	0.30	5.38	0.18	0.82	30.78	9.63
8466.0	13.26	2.13	0.28	93.90	0.30	5.57	0.17	0.83	31.53	10.99
8466.5	13.97	2.13	0.28	93.60	0.30	5.64	0.17	0.83	32.56	13.99
8467.0	13.06	2.13	0.27	93.70	0.30	5.74	0.17	0.83	32.31	12.29
8467.5	12.34	2.14	0.27	93.20	0.29	5.77	0.17	0.83	32.05	10.59
8468.0	12.45	2.14	0.26	93.85	0.29	5.80	0.18	0.82	31.71	15.11
8468.5	12.92	2.15	0.25	92.55	0.28	5.80	0.18	0.82	31.40	18.28
8469.0	12.33	2.15	0.25	94.20	0.28	5.73	0.18	0.82	31.18	14.38
8469.5	12.44	2.15	0.25	94.40	0.28	5.98	0.18	0.82	30.96	10.47
8470.0	12.21	2.16	0.25	92.10	0.28	6.38	0.17	0.83	31.08	10.04
8470.5	12.86	2.17	0.25	94.00	0.27	6.79	0.17	0.83	31.38	11.41
8471.0	13.30	2.18	0.25	87.80	0.27	7.32	0.17	0.83	29.96	9.72
8471.5	13.93	2.19	0.25	90.90	0.27	7.94	0.16	0.84	28.54	8.03
8472.0	13.29	2.21	0.26	88.90	0.26	8.77	0.16	0.84	27.71	6.87
8472.5	11.55	2.24	0.26	87.50	0.25	11.32	0.14	0.86	26.88	6.56
8473.0	10.47	2.28	0.25	86.40	0.23	16.39	0.13	0.87	22.87	7.95
8473.5	9.27	2.35	0.22	88.20	0.20	33.38	0.10	0.90	18.87	9.33
8474.0	8.59	2.40	0.18	77.40	0.18	59.89	0.09	0.91	14.67	6.85
8474.5	8.60	2.42	0.15	79.20	0.17	74.21	0.09	0.91	10.46	4.37
8475.0	9.34	2.37	0.16	78.20	0.18	36.31	0.11	0.89	17.64	9.32
8475.5	9.37	2.29	0.19	78.20	0.21	15.63	0.14	0.86	26.99	15.68
8476.0	9.47	2.21	0.22	85.40	0.25	7.91	0.17	0.83	28.73	13.04
8476.5	12.00	2.17	0.25	87.85	0.28	5.33	0.19	0.81	30.47	10.41
8477.0	14.05	2.15	0.25	91.05	0.29	4.16	0.21	0.79	31.72	8.51
8477.5	14.16	2.15	0.26	90.65	0.29	3.75	0.22	0.78	32.00	8.02
8478.0	13.27	2.15	0.26	91.05	0.28	3.94	0.22	0.78	31.94	-999.25
8478.5	13.04	2.17	0.25	88.10	0.27	4.06	0.22	0.78	31.87	-999.25
8479.0	13.90	2.18	0.22	88.00	0.27	4.34	0.22	0.78	31.81	-999.25
8479.5	12.15	2.18	0.23	86.80	0.26	4.13	0.23	0.77	31.74	-999.25
8480.0	12.15	2.17	0.25	87.00	0.27	3.59	0.24	0.76	31.68	-999.25
8480.5	12.46	2.15	0.26	88.35	0.28	2.96	0.25	0.75	31.61	-999.25
8481.0	14.54	2.15	0.27	91.00	0.29	2.65	0.26	0.74	31.55	-999.25
8481.5	13.59	2.14	0.27	92.45	0.30	2.71	0.25	0.75	31.48	-999.25
8482.0	12.40	2.14	0.28	91.90	0.30	2.77	0.25	0.75	31.42	-999.25
8482.5	10.79	2.15	0.28	92.20	0.30	2.72	0.25	0.75	31.63	-999.25
8483.0	11.40	2.15	0.26	91.50	0.30	2.66	0.25	0.75	31.72	12.98
8483.5	13.35	2.14	0.25	93.60	0.29	2.67	0.26	0.74	31.17	10.60
8484.0	14.97	2.14	0.25	93.00	0.29	2.70	0.26	0.74	30.62	8.21
8484.5	14.51	2.14	0.27	93.20	0.29	2.73	0.26	0.74	29.95	7.86
8485.0	12.77	2.15	0.27	93.00	0.29	2.77	0.25	0.75	29.65	9.26
8485.5	11.15	2.16	0.28	92.45	0.29	2.80	0.25	0.75	30.32	10.07
8486.0	12.19	2.16	0.27	92.85	0.29	2.84	0.25	0.75	30.90	10.71
8486.5	13.24	2.16	0.27	93.15	0.29	2.81	0.25	0.75	31.02	10.38
8487.0	12.81	2.16	0.27	93.00	0.29	2.71	0.26	0.74	31.14	10.06
8487.5	10.85	2.16	0.28	93.15	0.29	2.66	0.26	0.74	30.63	9.46
8488.0	10.39	2.16	0.27	92.35	0.29	2.67	0.26	0.74	29.49	8.59
8488.5	11.15	2.16	0.27	92.65	0.29	2.69	0.26	0.74	29.01	7.57
8489.0	12.53	2.17	0.26	92.55	0.29	2.69	0.26	0.74	29.79	6.24
8489.5	12.37	2.18	0.28	92.45	0.28	2.67	0.26	0.74	28.54	8.02
8490.0	14.23	2.18	0.27	92.30	0.28	2.62	0.27	0.73	27.28	9.80
8490.5	14.58	2.19	0.27	92.40	0.28	2.70	0.26	0.74	26.17	10.18
8491.0	14.25	2.18	0.26	92.30	0.28	2.83	0.26	0.74	25.74	9.96
8491.5	12.29	2.18	0.26	91.80	0.28	2.92	0.25	0.75	26.61	9.10
8492.0	10.16	2.18	0.26	91.60	0.28	3.00	0.25	0.75	27.48	8.24
8492.5	9.94	2.18	0.27	91.50	0.28	3.09	0.25	0.75	28.34	7.38
8493.0	10.06	2.17	0.27	91.35	0.29	3.11	0.24	0.76	29.21	6.52
8493.5	11.03	2.17	0.26	91.15	0.29	3.02	0.25	0.75	30.05	7.83
8494.0	11.38	2.16	0.27	91.85	0.29	2.87	0.25	0.75	30.88	9.55
8494.5	11.79	2.16	0.26	91.95	0.29	2.81	0.25	0.75	31.22	10.05
8495.0	11.92	2.16	0.26	92.65	0.29	2.78	0.26	0.74	30.62	8.19
8495.5	12.10	2.17	0.26	92.95	0.28	2.72	0.26	0.74	27.92	7.00
8496.0	12.62	2.17	0.26	93.15	0.28	2.64	0.26	0.74	27.04	7.17
8496.5	13.25	2.17	0.27	92.50	0.29	2.56	0.27	0.73	29.05	8.33
8497.0	12.37	2.17	0.26	92.00	0.29	2.53	0.27	0.73	31.06	9.49
8497.5	11.21	2.16	0.27	91.60	0.29	2.49	0.27	0.73	31.35	9.25
8498.0	10.35	2.16	0.26	91.90	0.29	2.47	0.27	0.73	31.42	10.21
8498.5	10.69	2.16	0.26	92.40	0.29	2.44	0.27	0.73	31.67	14.00
8499.0	11.27	2.16	0.25	93.35	0.29	2.39	0.27	0.73	31.50	14.11
8499.5	12.45	2.15	0.26	92.75	0.29	2.29	0.28	0.72	30.91	10.53
8500.0	14.42	2.15	0.27	95.10	0.29	2.23	0.28	0.72	30.32	6.96
8500.5	14.26	2.15	0.27	93.30	0.29	2.17	0.28	0.72	29.59	7.95
