# LAS format log file from PETREL
# Project units are specified as depth units
#==================================================================
~Version information
VERS.   2.0:
WRAP.   NO:
#==================================================================
~Well
STRT .ft        8200.0 :
STOP .ft        8580.0 :
STEP .ft        0.5    :
NULL .          -999.25  :
COMP.           : COMPANY
WELL.  HW-32    : WELL
FLD.   COSTA    : FIELD
LOC.            : LOCATION
SRVC.           : SERVICE COMPANY
DATE.  2018-02-06 14:55:43   : Log Export Date {yyyy-MM-dd HH:mm:ss}
PROV.           : PROVINCE
UWI.   HW-32    : UNIQUE WELL ID
API.            : API NUMBER
#==================================================================
~Curve
DEPT .ft                  : DEPTH
GR .gAPI                  : GR
RHOB .g/cm3               : RHOB
NPHI .ft3/ft3             : NPHI
DT .us/ft                 : DT
PHIE .ft3/ft3             : PHIE
RT .ohm.m                 : RT
SW .                      : SW
SO .			  : SO
CORE_POR .ft3/ft3         : CORE_POR
CORE_PERM .mD             : CORE_PERM
~Parameter
#==================================================================
~Ascii
8371.0	37.77	2.70	0.03	57.00	0.00	14.07	-999.25	-999.25	0.86	0.01
8371.5	39.67	2.70	0.03	57.20	0.00	13.51	-999.25	-999.25	1.44	0.01
8372.0	40.36	2.69	0.02	57.00	0.01	15.18	-999.25	-999.25	1.49	0.01
8372.5	39.18	2.69	0.02	57.40	0.01	18.09	-999.25	-999.25	1.42	0.01
8373.0	38.25	2.69	0.02	56.70	0.01	21.39	-999.25	-999.25	1.11	0.01
8373.5	37.90	2.70	0.02	55.80	0.00	19.97	-999.25	-999.25	0.95	0.01
8374.0	38.55	2.69	0.02	56.70	0.01	18.75	-999.25	-999.25	1.06	0.01
8374.5	38.55	2.69	0.03	57.00	0.01	17.76	-999.25	-999.25	1.17	0.01
8375.0	39.29	2.69	0.03	57.30	0.01	16.15	-999.25	-999.25	1.77	1.44
8375.5	40.21	2.69	0.03	57.80	0.01	16.51	-999.25	-999.25	1.98	1.99
8376.0	38.16	2.69	0.03	57.50	0.00	19.49	-999.25	-999.25	1.55	0.91
8376.5	34.15	2.70	0.02	57.70	0.00	21.42	-999.25	-999.25	1.18	0.01
8377.0	33.69	2.71	0.02	56.50	0.00	23.76	-999.25	-999.25	1.15	0.01
8377.5	31.54	2.71	0.02	56.40	0.00	27.29	-999.25	-999.25	1.12	0.01
8378.0	34.34	2.71	0.02	56.30	0.00	29.02	-999.25	-999.25	1.12	0.01
8378.5	35.27	2.71	0.02	55.60	0.01	27.68	-999.25	-999.25	1.13	0.01
8379.0	39.15	2.70	0.02	55.75	0.01	27.07	-999.25	-999.25	1.02	1.15
8379.5	40.13	2.69	0.02	55.65	0.01	29.59	-999.25	-999.25	0.87	2.42
8380.0	42.78	2.70	0.01	55.25	0.00	33.97	-999.25	-999.25	0.83	1.30
8380.5	39.75	2.71	0.01	54.55	0.00	40.76	-999.25	-999.25	0.80	0.19
8381.0	39.57	2.71	0.01	54.30	0.00	43.08	-999.25	-999.25	1.99	0.01
8381.5	34.62	2.69	0.01	54.20	0.01	41.00	-999.25	-999.25	3.34	0.03
8382.0	33.43	2.67	0.01	53.80	0.02	38.29	-999.25	-999.25	4.56	0.08
8382.5	31.47	2.67	0.01	54.90	0.02	38.73	-999.25	-999.25	4.50	0.09
8383.0	30.99	2.68	0.01	54.80	0.01	49.14	-999.25	-999.25	3.15	0.05
8383.5	34.17	2.69	0.01	51.45	0.01	57.40	-999.25	-999.25	1.81	0.01
8384.0	34.39	2.69	0.01	52.15	0.01	65.50	-999.25	-999.25	1.75	0.01
8384.5	34.08	2.69	0.00	47.10	0.00	84.11	-999.25	-999.25	1.70	0.01
8385.0	29.82	2.70	0.01	41.35	0.00	69.66	-999.25	-999.25	1.36	0.01
8385.5	28.38	2.69	0.01	52.15	0.01	52.93	-999.25	-999.25	0.96	0.01
8386.0	28.37	2.63	0.03	48.90	0.03	36.62	0.63	0.37	0.90	0.04
8386.5	28.27	2.52	0.08	69.30	0.08	19.80	0.34	0.66	7.08	20.75
8387.0	26.38	2.40	0.15	76.70	0.14	14.49	0.22	0.78	16.47	52.11
8387.5	21.19	2.30	0.21	75.30	0.20	11.20	0.18	0.82	24.80	80.68
8388.0	18.50	2.24	0.23	82.30	0.24	9.08	0.17	0.83	27.58	94.53
8388.5	16.40	2.21	0.24	83.70	0.26	7.54	0.17	0.83	30.35	108.39
8389.0	18.94	2.22	0.23	76.70	0.25	6.23	0.19	0.81	29.68	68.13
8389.5	19.66	2.24	0.22	82.65	0.24	5.09	0.22	0.78	28.97	248.34
8390.0	21.82	2.25	0.22	78.05	0.24	4.34	0.25	0.75	28.25	542.13
8390.5	21.71	2.24	0.23	83.10	0.24	3.55	0.27	0.73	27.52	835.92
8391.0	20.22	2.23	0.24	87.10	0.24	4.08	0.25	0.75	27.06	817.72
8391.5	17.63	2.23	0.24	82.40	0.25	3.77	0.26	0.74	27.14	193.91
8392.0	15.32	2.25	0.22	85.00	0.24	2.34	0.33	0.67	25.39	90.32
8392.5	15.64	2.27	0.23	84.10	0.24	1.47	0.42	0.58	23.30	85.82
8393.0	15.76	2.29	0.25	81.20	0.24	1.10	0.50	0.50	24.00	283.66
8393.5	16.00	2.32	0.25	81.00	0.22	1.07	0.53	0.47	24.71	481.50
8394.0	17.16	2.38	0.21	70.55	0.19	1.36	0.55	0.45	21.47	395.92
8394.5	18.12	2.43	0.14	74.40	0.16	1.59	0.62	0.38	17.48	256.37
8395.0	19.18	2.44	0.11	65.90	0.15	1.25	0.74	0.26	16.99	-999.25
8395.5	17.56	2.41	0.16	73.85	0.16	0.94	0.77	0.23	19.72	-999.25
8396.0	17.05	2.41	0.19	68.05	0.17	0.92	0.76	0.24	21.09	-999.25
8396.5	16.09	2.46	0.17	67.50	0.14	1.39	0.76	0.24	16.80	-999.25
8397.0	17.35	2.56	0.08	68.40	0.08	2.91	0.87	0.13	6.83	-999.25
8397.5	17.32	2.63	0.02	67.70	0.04	5.18	-999.25	-999.25	1.41	1.27
8398.0	18.96	2.68	0.01	51.80	0.02	8.53	-999.25	-999.25	0.53	0.40
8398.5	20.23	2.70	0.01	57.50	0.01	11.01	-999.25	-999.25	0.47	59.89
8399.0	21.64	2.70	0.01	47.65	0.02	7.26	-999.25	-999.25	0.83	150.48
8399.5	19.91	2.66	0.02	69.35	0.03	4.54	-999.25	-999.25	2.88	250.05
8400.0	16.68	2.58	0.05	74.05	0.06	4.31	0.96	0.04	13.81	396.81
8400.5	15.93	2.46	0.11	67.85	0.12	3.76	0.54	0.46	24.75	543.56
8401.0	16.05	2.35	0.19	70.75	0.18	2.18	0.46	0.54	26.18	540.12
8401.5	17.94	2.28	0.23	87.35	0.23	1.04	0.51	0.49	28.26	515.47
8402.0	16.28	2.26	0.25	96.00	0.27	0.62	0.59	0.41	30.70	479.89
8402.5	15.82	2.24	0.26	85.50	0.28	0.51	0.62	0.38	33.13	444.31
8403.0	14.04	2.24	0.27	85.80	0.28	0.41	0.68	0.32	34.68	399.06
8403.5	13.93	2.24	0.27	87.30	0.28	0.39	0.69	0.31	31.63	303.01
8404.0	13.17	2.23	0.27	88.00	0.29	0.38	0.69	0.31	28.58	206.96
8404.5	12.71	2.21	0.28	88.30	0.29	0.38	0.67	0.33	28.39	164.60
8405.0	11.89	2.20	0.29	87.15	0.30	0.40	0.65	0.35	29.67	149.89
8405.5	13.34	2.20	0.28	88.75	0.30	0.42	0.64	0.36	31.10	141.78
8406.0	13.21	2.22	0.27	87.00	0.29	0.41	0.66	0.34	32.80	146.45
8406.5	13.80	2.23	0.27	87.20	0.28	0.41	0.68	0.32	32.55	132.68
8407.0	12.53	2.24	0.28	87.30	0.28	0.44	0.66	0.34	31.93	115.40
8407.5	13.18	2.22	0.30	87.00	0.29	0.49	0.61	0.39	31.31	98.12
8408.0	13.99	2.20	0.30	88.20	0.30	0.56	0.55	0.45	30.69	80.84
8408.5	13.05	2.19	0.29	90.90	0.30	0.60	0.53	0.47	30.07	63.56
8409.0	13.91	2.20	0.28	91.75	0.29	0.60	0.54	0.46	29.45	46.28
8409.5	13.06	2.21	0.26	90.90	0.29	0.57	0.57	0.43	28.99	33.53
8410.0	13.19	2.22	0.27	89.70	0.28	0.55	0.59	0.41	29.36	44.59
8410.5	12.15	2.21	0.26	88.60	0.28	0.53	0.59	0.41	29.72	55.66
8411.0	13.23	2.20	0.27	89.70	0.29	0.52	0.59	0.41	30.09	66.72
8411.5	13.69	2.19	0.28	90.80	0.30	0.51	0.58	0.42	30.37	67.66
8412.0	14.72	2.19	0.29	90.80	0.30	0.50	0.58	0.42	30.50	48.94
8412.5	14.08	2.19	0.30	91.30	0.31	0.49	0.57	0.43	30.34	34.66
8413.0	14.19	2.18	0.30	92.00	0.31	0.47	0.58	0.42	28.62	43.69
8413.5	12.59	2.18	0.31	92.00	0.32	0.46	0.57	0.43	27.28	51.38
8414.0	11.72	2.17	0.30	91.20	0.32	0.47	0.56	0.44	27.90	51.98
8414.5	11.37	2.17	0.31	91.85	0.32	0.46	0.57	0.43	28.51	52.58
8415.0	12.55	2.18	0.29	91.25	0.32	0.44	0.58	0.42	30.52	30.79
8415.5	14.53	2.18	0.29	91.80	0.31	0.43	0.60	0.40	30.98	27.83
8416.0	15.68	2.18	0.27	91.50	0.31	0.42	0.61	0.39	30.89	32.72
8416.5	13.47	2.17	0.28	91.30	0.31	0.41	0.62	0.38	30.80	37.61
8417.0	12.89	2.17	0.29	90.40	0.31	0.40	0.63	0.37	30.70	61.60
8417.5	11.51	2.18	0.30	90.60	0.31	0.38	0.65	0.35	30.36	78.07
8418.0	13.07	2.19	0.30	89.60	0.31	0.37	0.65	0.35	28.75	55.06
8418.5	14.00	2.19	0.30	89.90	0.31	0.35	0.66	0.34	27.14	32.06
8419.0	14.73	2.18	0.30	90.90	0.32	0.34	0.66	0.34	28.51	32.13
8419.5	13.51	2.16	0.29	92.10	0.32	0.33	0.66	0.34	29.32	30.98
8420.0	11.94	2.15	0.29	91.70	0.32	0.33	0.66	0.34	29.85	29.20
8420.5	13.39	2.16	0.28	92.70	0.32	0.33	0.67	0.33	30.37	27.43
8421.0	15.48	2.16	0.28	90.40	0.32	0.33	0.68	0.32	30.48	27.79
8421.5	15.79	2.17	0.28	89.80	0.31	0.33	0.69	0.31	30.60	28.15
8422.0	13.83	2.17	0.28	92.90	0.31	0.33	0.69	0.31	30.71	28.51
8422.5	13.07	2.17	0.27	87.80	0.31	0.33	0.70	0.30	30.82	28.87
8423.0	14.57	2.17	0.28	93.90	0.31	0.32	0.71	0.29	30.94	29.23
8423.5	14.64	2.19	0.28	85.95	0.30	0.32	0.71	0.29	31.05	29.59
8424.0	15.72	2.20	0.29	90.55	0.30	0.33	0.71	0.29	31.16	29.95
8424.5	13.71	2.22	0.28	84.30	0.29	0.36	0.71	0.29	31.28	30.31
8425.0	13.18	2.25	0.27	80.30	0.27	0.51	0.65	0.35	31.39	30.67
8425.5	12.49	2.29	0.23	80.10	0.24	0.73	0.61	0.39	31.50	31.03
8426.0	13.46	2.35	0.20	76.70	0.20	0.89	0.64	0.36	31.62	31.39
8426.5	13.69	2.39	0.17	68.00	0.18	1.11	0.66	0.34	31.73	31.75
8427.0	15.02	2.42	0.16	71.60	0.16	1.39	0.63	0.37	31.84	32.11
8427.5	15.95	2.40	0.17	66.10	0.17	1.79	0.54	0.46	31.96	32.47
8428.0	17.55	2.37	0.19	66.90	0.19	1.74	0.49	0.51	32.07	32.84
8428.5	15.41	2.33	0.22	77.10	0.21	1.54	0.47	0.53	32.18	33.20
8429.0	13.11	2.30	0.23	73.45	0.23	1.28	0.46	0.54	32.30	33.56
8429.5	10.93	2.26	0.25	80.85	0.26	1.06	0.46	0.54	32.41	33.92
8430.0	11.13	2.23	0.27	84.50	0.28	0.92	0.46	0.54	32.52	34.28
8430.5	10.21	2.19	0.29	88.10	0.30	0.80	0.46	0.54	32.64	34.64
8431.0	11.41	2.17	0.29	89.90	0.31	0.72	0.46	0.54	32.75	35.00
8431.5	11.19	2.15	0.28	91.90	0.32	0.66	0.48	0.52	32.50	49.48
8432.0	12.92	2.15	0.28	87.50	0.31	0.65	0.48	0.52	32.05	71.25
8432.5	12.88	2.15	0.29	91.70	0.31	0.67	0.49	0.51	32.49	54.46
8433.0	12.87	2.17	0.29	90.50	0.30	0.63	0.51	0.49	33.09	30.33
8433.5	12.52	2.19	0.28	92.05	0.30	0.53	0.56	0.44	32.21	28.85
8434.0	12.87	2.20	0.27	89.75	0.29	0.46	0.61	0.39	30.88	37.20
8434.5	14.49	2.20	0.28	89.20	0.30	0.41	0.64	0.36	31.21	35.92
