# LAS format log file from PETREL
# Project units are specified as depth units
#==================================================================
~Version information
VERS.   2.0:
WRAP.   NO:
#==================================================================
~Well
STRT .ft        8340.0 :
STOP .ft        8790.0 :
STEP .ft        0.5    :
NULL .          -999.25  :
COMP.           : COMPANY
WELL.  HW-31    : WELL
FLD.   COSTA    : FIELD
LOC.            : LOCATION
SRVC.           : SERVICE COMPANY
DATE.  2018-02-06 14:55:42   : Log Export Date {yyyy-MM-dd HH:mm:ss}
PROV.           : PROVINCE
UWI.   HW-31    : UNIQUE WELL ID
API.            : API NUMBER
#==================================================================
~Curve
DEPT .ft                  : DEPTH
GR .gAPI                  : GR
RHOB .g/cm3               : RHOB
NPHI .ft3/ft3             : NPHI
DT .us/ft                 : DT
PHIE .ft3/ft3             : PHIE
RT .ohm.m                 : RT
SW .                      : SW
SO . 			  : SO
CORE_POR .ft3/ft3         : CORE_POR
CORE_PERM .mD             : CORE_PERM
~Parameter
#==================================================================                                                      
~Ascii
# ...
8640.5	13.56	2.34	0.22	78.45	0.23	0.22	-999.25	-999.25	20.76	91.38
8641.0	13.56	2.33	0.24	79.20	0.24	0.21	-999.25	-999.25	22.66	59.24
8641.5	14.41	2.34	0.24	77.10	0.24	0.20	-999.25	-999.25	24.55	27.11
8642.0	15.41	2.35	0.22	78.60	0.24	0.20	-999.25	-999.25	22.90	62.46
8642.5	16.07	2.35	0.21	79.15	0.23	0.22	-999.25	-999.25	21.86	89.31
8643.0	15.23	2.34	0.21	80.45	0.24	0.21	-999.25	-999.25	24.06	71.53
8643.5	14.56	2.32	0.27	82.60	0.25	0.18	-999.25	-999.25	26.25	53.74
8644.0	12.79	2.30	0.29	83.45	0.26	0.17	-999.25	-999.25	27.33	33.80
8644.5	14.19	2.29	0.30	83.55	0.27	0.17	-999.25	-999.25	26.52	16.75
8645.0	14.09	2.29	0.27	83.50	0.26	0.16	-999.25	-999.25	26.24	13.44
8645.5	14.98	2.30	0.27	83.50	0.26	0.16	-999.25	-999.25	25.99	10.83
8646.0	12.65	2.31	0.26	83.60	0.26	0.16	-999.25	-999.25	25.77	9.56
8646.5	12.44	2.31	0.26	83.70	0.26	0.16	-999.25	-999.25	25.30	8.01
8647.0	12.77	2.31	0.25	83.65	0.26	0.17	-999.25	-999.25	24.32	5.90
8647.5	12.44	2.31	0.26	83.90	0.26	0.17	-999.25	-999.25	23.56	4.29
8648.0	11.08	2.31	0.28	83.85	0.26	0.17	-999.25	-999.25	23.96	5.31
8648.5	9.64	2.31	0.27	83.40	0.26	0.18	-999.25	-999.25	24.33	6.25
8649.0	10.42	2.31	0.27	83.35	0.26	0.17	-999.25	-999.25	24.55	6.75
8649.5	11.31	2.31	0.26	83.55	0.26	0.17	-999.25	-999.25	24.76	7.25
8650.0	12.30	2.30	0.26	83.10	0.26	0.17	-999.25	-999.25	24.78	7.09
8650.5	11.97	2.31	0.27	82.75	0.26	0.17	-999.25	-999.25	25.00	7.39
8651.0	10.57	2.32	0.27	82.30	0.25	0.18	-999.25	-999.25	25.69	8.79
8651.5	10.13	2.33	0.28	81.90	0.25	0.18	-999.25	-999.25	26.00	35.14
8652.0	9.68	2.33	0.28	82.10	0.25	0.19	-999.25	-999.25	25.56	109.92
8652.5	10.53	2.33	0.28	83.00	0.25	0.19	-999.25	-999.25	25.13	184.69
8653.0	10.60	2.31	0.28	82.80	0.26	0.18	-999.25	-999.25	24.06	150.78
8653.5	11.49	2.30	0.29	83.50	0.27	0.17	-999.25	-999.25	23.06	69.46
8654.0	11.04	2.29	0.30	84.10	0.27	0.17	-999.25	-999.25	24.05	33.13
8654.5	11.15	2.29	0.29	83.45	0.27	0.17	-999.25	-999.25	24.70	8.70
8655.0	10.92	2.30	0.28	83.75	0.26	0.17	-999.25	-999.25	24.68	7.36
8655.5	11.81	2.31	0.27	83.45	0.26	0.17	-999.25	-999.25	24.67	6.02
8656.0	10.64	2.31	0.28	83.30	0.26	0.17	-999.25	-999.25	25.00	6.31
8656.5	10.61	2.30	0.27	83.35	0.26	0.17	-999.25	-999.25	25.68	8.22
8657.0	10.17	2.31	0.27	83.45	0.26	0.17	-999.25	-999.25	24.63	5.34
8657.5	11.06	2.32	0.27	83.00	0.26	0.18	-999.25	-999.25	23.57	2.45
8658.0	11.64	2.33	0.26	83.10	0.25	0.18	-999.25	-999.25	23.96	4.90
8658.5	12.08	2.33	0.27	83.10	0.25	0.18	-999.25	-999.25	24.35	7.35
8659.0	13.41	2.31	0.25	83.20	0.26	0.18	-999.25	-999.25	24.80	8.85
8659.5	13.14	2.30	0.27	83.35	0.26	0.18	-999.25	-999.25	25.24	10.36
8660.0	12.48	2.30	0.28	83.15	0.26	0.18	-999.25	-999.25	25.64	10.28
8660.5	10.48	2.31	0.29	82.20	0.26	0.18	-999.25	-999.25	25.63	9.46
8661.0	11.31	2.32	0.30	82.05	0.25	0.18	-999.25	-999.25	24.80	7.24
8661.5	12.20	2.32	0.29	81.85	0.25	0.19	-999.25	-999.25	24.04	5.39
8662.0	12.53	2.31	0.29	81.55	0.25	0.19	-999.25	-999.25	23.35	3.90
8662.5	10.42	2.32	0.27	81.90	0.25	0.20	-999.25	-999.25	23.13	3.51
8663.0	10.36	2.33	0.27	80.60	0.24	0.20	-999.25	-999.25	23.85	5.26
8663.5	11.25	2.35	0.26	79.55	0.24	0.21	-999.25	-999.25	24.63	6.60
8664.0	13.58	2.36	0.25	79.00	0.23	0.22	-999.25	-999.25	25.51	7.15
8664.5	13.41	2.36	0.24	77.70	0.23	0.24	-999.25	-999.25	25.50	7.44
8665.0	13.19	2.36	0.24	77.10	0.23	0.24	-999.25	-999.25	23.75	7.24
8665.5	12.87	2.36	0.25	76.85	0.22	0.25	-999.25	-999.25	22.61	6.99
8666.0	13.87	2.37	0.26	75.65	0.22	0.25	-999.25	-999.25	22.65	6.65
8666.5	13.54	2.37	0.24	73.50	0.21	0.27	-999.25	-999.25	22.14	5.60
8667.0	12.70	2.37	0.24	74.35	0.21	0.30	-999.25	-999.25	20.56	3.20
8667.5	11.60	2.37	0.23	75.35	0.21	0.31	-999.25	-999.25	23.28	39.23
8668.0	12.59	2.36	0.25	77.20	0.22	0.26	-999.25	-999.25	22.99	88.79
8668.5	11.45	2.35	0.25	79.65	0.23	0.22	-999.25	-999.25	24.38	49.97
8669.0	11.56	2.34	0.25	80.70	0.24	0.21	-999.25	-999.25	25.76	11.15
8669.5	10.45	2.34	0.26	81.80	0.25	0.19	-999.25	-999.25	25.43	9.60
8670.0	12.30	2.32	0.27	82.30	0.25	0.18	-999.25	-999.25	25.09	8.05
8670.5	13.30	2.31	0.27	81.75	0.25	0.19	-999.25	-999.25	24.19	152.11
8671.0	12.53	2.32	0.27	80.60	0.25	0.20	-999.25	-999.25	23.18	323.90
8671.5	12.75	2.33	0.26	81.75	0.25	0.20	-999.25	-999.25	23.99	177.15
8672.0	12.02	2.33	0.27	82.15	0.25	0.19	-999.25	-999.25	24.80	30.39
8672.5	13.57	2.32	0.27	82.25	0.25	0.18	-999.25	-999.25	25.30	5.92
8673.0	12.68	2.31	0.28	82.35	0.26	0.18	-999.25	-999.25	25.75	4.75
8673.5	12.08	2.31	0.29	82.00	0.26	0.18	-999.25	-999.25	25.86	4.73
8674.0	10.86	2.31	0.27	81.85	0.26	0.17	-999.25	-999.25	25.77	4.62
8674.5	10.61	2.31	0.27	81.90	0.26	0.17	-999.25	-999.25	25.28	4.37
8675.0	11.17	2.32	0.26	82.40	0.26	0.18	-999.25	-999.25	24.73	4.06
8675.5	12.39	2.32	0.29	81.05	0.25	0.19	-999.25	-999.25	24.04	3.63
8676.0	12.86	2.33	0.27	80.00	0.25	0.20	-999.25	-999.25	23.36	3.20
8676.5	13.63	2.33	0.26	78.40	0.24	0.19	-999.25	-999.25	22.98	3.27
8677.0	13.64	2.35	0.24	75.90	0.24	0.21	-999.25	-999.25	22.75	3.60
8677.5	12.64	2.36	0.24	74.20	0.22	0.24	-999.25	-999.25	21.20	2.86
8678.0	12.12	2.38	0.24	71.75	0.21	0.28	-999.25	-999.25	19.39	1.91
8678.5	11.34	2.41	0.23	69.15	0.19	0.32	-999.25	-999.25	18.21	1.33
8679.0	12.89	2.44	0.22	68.40	0.18	0.38	-999.25	-999.25	17.65	1.12
8679.5	11.42	2.45	0.20	68.80	0.17	0.43	-999.25	-999.25	17.77	1.79
8680.0	11.08	2.45	0.19	69.90	0.18	0.37	-999.25	-999.25	18.56	3.34
8680.5	10.47	2.44	0.20	70.85	0.18	0.34	-999.25	-999.25	19.16	2.35
8681.0	10.91	2.43	0.21	71.15	0.20	0.29	-999.25	-999.25	18.99	1.60
8681.5	12.46	2.43	0.23	71.00	0.20	0.29	-999.25	-999.25	18.51	2.28
8682.0	12.63	2.45	0.25	68.75	0.19	0.34	-999.25	-999.25	18.04	2.95
8682.5	12.63	2.50	0.27	65.15	0.17	0.40	-999.25	-999.25	16.66	2.98
8683.0	11.41	2.57	0.23	57.50	0.15	0.47	-999.25	-999.25	13.50	1.77
8683.5	10.74	2.63	0.17	57.05	0.12	0.62	-999.25	-999.25	8.65	0.74
8684.0	10.42	2.64	0.12	58.60	0.12	0.63	-999.25	-999.25	4.98	0.20
8684.5	10.29	2.60	0.13	63.15	0.14	0.50	-999.25	-999.25	16.39	1.39
8685.0	9.07	2.51	0.16	72.90	0.18	0.33	-999.25	-999.25	24.11	5.05
8685.5	10.29	2.42	0.21	77.00	0.22	0.23	-999.25	-999.25	25.37	6.91
8686.0	10.81	2.36	0.24	80.10	0.25	0.18	-999.25	-999.25	25.20	6.57
8686.5	13.03	2.33	0.27	81.25	0.26	0.17	-999.25	-999.25	25.04	6.23
8687.0	13.47	2.32	0.28	82.50	0.26	0.17	-999.25	-999.25	24.87	5.89
8687.5	13.52	2.32	0.29	82.75	0.26	0.17	-999.25	-999.25	24.70	5.54
8688.0	12.86	2.33	0.27	82.70	0.26	0.16	-999.25	-999.25	24.54	5.20
8688.5	10.86	2.33	0.26	82.60	0.26	0.17	-999.25	-999.25	24.37	4.86
8689.0	9.57	2.32	0.26	81.55	0.26	0.17	-999.25	-999.25	24.21	4.51
8689.5	9.90	2.33	0.27	81.35	0.26	0.17	-999.25	-999.25	24.04	4.17
8690.0	10.76	2.32	0.27	80.85	0.25	0.18	-999.25	-999.25	23.87	3.83
8690.5	12.06	2.33	0.28	80.40	0.25	0.18	-999.25	-999.25	23.71	3.49
8691.0	11.84	2.33	0.28	81.05	0.25	0.18	-999.25	-999.25	23.54	3.14
8691.5	12.08	2.33	0.26	79.15	0.25	0.19	-999.25	-999.25	23.37	2.80
8692.0	12.08	2.35	0.25	78.00	0.24	0.21	-999.25	-999.25	23.21	2.46
8692.5	12.97	2.36	0.25	76.20	0.23	0.23	-999.25	-999.25	23.06	2.37
8693.0	12.62	2.37	0.26	73.60	0.22	0.25	-999.25	-999.25	22.93	2.42
8693.5	12.96	2.39	0.23	71.45	0.21	0.27	-999.25	-999.25	21.14	2.05
8694.0	12.40	2.42	0.21	70.15	0.19	0.30	-999.25	-999.25	19.35	1.68
8694.5	15.41	2.44	0.18	69.40	0.18	0.36	-999.25	-999.25	17.71	1.24
8695.0	15.52	2.44	0.18	69.40	0.17	0.38	-999.25	-999.25	18.00	1.28
8695.5	15.86	2.42	0.19	72.65	0.19	0.31	-999.25	-999.25	19.21	1.60
8696.0	12.30	2.40	0.20	74.30	0.21	0.25	-999.25	-999.25	20.43	1.92
8696.5	11.75	2.38	0.22	76.30	0.22	0.22	-999.25	-999.25	21.71	2.90
8697.0	12.64	2.36	0.24	78.70	0.23	0.21	-999.25	-999.25	23.02	4.21
8697.5	13.18	2.35	0.26	79.65	0.24	0.20	-999.25	-999.25	22.22	3.10
8698.0	11.62	2.34	0.27	80.45	0.25	0.19	-999.25	-999.25	22.64	3.10
8698.5	9.52	2.33	0.29	80.85	0.25	0.18	-999.25	-999.25	24.29	4.22
8699.0	9.31	2.33	0.28	81.10	0.25	0.18	-999.25	-999.25	25.26	32.41
8699.5	9.97	2.33	0.28	81.70	0.26	0.17	-999.25	-999.25	24.92	113.14
8700.0	9.65	2.33	0.27	81.60	0.26	0.18	-999.25	-999.25	24.76	138.64
8700.5	9.87	2.32	0.28	81.85	0.26	0.18	-999.25	-999.25	24.95	56.92
