# LAS format log file from PETREL
# Project units are specified as depth units
#==================================================================
~Version information
VERS.   2.0:
WRAP.   NO:
#==================================================================
~Well
STRT .ft        8340.0 :
STOP .ft        8790.0 :
STEP .ft        0.5    :
NULL .          -999.25  :
COMP.           : COMPANY
WELL.  HW-31    : WELL
FLD.   COSTA    : FIELD
LOC.            : LOCATION
SRVC.           : SERVICE COMPANY
DATE.  2018-02-06 14:55:42   : Log Export Date {yyyy-MM-dd HH:mm:ss}
PROV.           : PROVINCE
UWI.   HW-31    : UNIQUE WELL ID
API.            : API NUMBER
#==================================================================
~Curve
DEPT .ft                  : DEPTH
GR .gAPI                  : GR
RHOB .g/cm3               : RHOB
NPHI .ft3/ft3             : NPHI
DT .us/ft                 : DT
PHIE .ft3/ft3             : PHIE
RT .ohm.m                 : RT
SW .                      : SW
SO . 			  : SO
CORE_POR .ft3/ft3         : CORE_POR
CORE_PERM .mD             : CORE_PERM
~Parameter
#==================================================================                                                      
~Ascii
# ...
8701.0	9.54	2.31	0.26	81.85	0.26	0.18	-999.25	-999.25	25.16	3.36
8701.5	9.33	2.31	0.29	81.80	0.26	0.18	-999.25	-999.25	25.38	4.46
8702.0	9.66	2.32	0.28	81.70	0.26	0.18	-999.25	-999.25	25.60	5.56
8702.5	11.10	2.32	0.28	81.80	0.26	0.18	-999.25	-999.25	25.18	5.08
8703.0	12.41	2.32	0.27	82.05	0.26	0.18	-999.25	-999.25	24.43	3.77
8703.5	12.64	2.32	0.28	81.85	0.26	0.17	-999.25	-999.25	25.05	3.99
8704.0	12.74	2.32	0.27	81.90	0.26	0.17	-999.25	-999.25	25.67	4.21
8704.5	11.75	2.32	0.26	82.05	0.25	0.17	-999.25	-999.25	26.29	4.43
8705.0	10.53	2.33	0.26	81.20	0.25	0.18	-999.25	-999.25	26.14	3.95
8705.5	10.64	2.34	0.27	80.55	0.25	0.18	-999.25	-999.25	25.59	3.12
8706.0	12.41	2.34	0.27	79.85	0.25	0.18	-999.25	-999.25	25.12	3.56
8706.5	13.27	2.34	0.26	79.25	0.25	0.18	-999.25	-999.25	24.65	4.00
8707.0	12.61	2.34	0.26	80.30	0.24	0.19	-999.25	-999.25	24.53	3.89
8707.5	11.77	2.35	0.24	79.20	0.24	0.21	-999.25	-999.25	24.78	3.23
8708.0	11.35	2.35	0.25	77.05	0.24	0.22	-999.25	-999.25	23.73	3.02
8708.5	11.58	2.36	0.25	75.30	0.23	0.22	-999.25	-999.25	22.68	2.81
8709.0	12.10	2.38	0.24	71.40	0.22	0.24	-999.25	-999.25	21.39	2.43
8709.5	13.65	2.41	0.23	69.15	0.20	0.30	-999.25	-999.25	19.84	1.88
8710.0	13.31	2.43	0.20	67.35	0.18	0.42	-999.25	-999.25	17.28	1.24
8710.5	11.86	2.45	0.18	65.30	0.17	0.47	-999.25	-999.25	15.30	0.90
8711.0	11.42	2.46	0.16	64.15	0.16	0.56	-999.25	-999.25	15.46	1.20
8711.5	11.60	2.47	0.17	65.60	0.15	0.53	-999.25	-999.25	16.09	1.53
8712.0	11.94	2.47	0.17	63.60	0.15	0.53	-999.25	-999.25	16.96	1.87
8712.5	12.38	2.47	0.18	63.10	0.15	0.54	-999.25	-999.25	17.84	2.21
8713.0	12.38	2.48	0.16	63.85	0.15	0.53	-999.25	-999.25	16.42	1.50
8713.5	12.82	2.48	0.14	63.95	0.15	0.51	-999.25	-999.25	15.01	0.78
8714.0	10.61	2.47	0.14	66.15	0.15	0.50	-999.25	-999.25	14.14	0.54
8714.5	9.98	2.46	0.15	68.25	0.17	0.41	-999.25	-999.25	15.33	0.75
8715.0	8.89	2.43	0.17	69.85	0.19	0.31	-999.25	-999.25	17.58	1.20
8715.5	10.44	2.41	0.20	73.20	0.21	0.25	-999.25	-999.25	19.57	1.63
8716.0	10.22	2.38	0.21	74.80	0.22	0.23	-999.25	-999.25	20.26	1.97
8716.5	9.98	2.37	0.22	76.00	0.23	0.21	-999.25	-999.25	-999.25	-999.25
8717.0	9.20	2.36	0.22	78.10	0.24	0.19	-999.25	-999.25	-999.25	-999.25
8717.5	10.16	2.36	0.23	78.75	0.24	0.19	-999.25	-999.25	-999.25	-999.25
8718.0	10.04	2.37	0.25	79.20	0.24	0.19	-999.25	-999.25	-999.25	-999.25
8718.5	9.60	2.37	0.25	79.50	0.24	0.19	-999.25	-999.25	21.43	2.08
8719.0	9.09	2.36	0.27	79.40	0.24	0.19	-999.25	-999.25	22.08	2.27
8719.5	9.97	2.35	0.28	79.20	0.25	0.19	-999.25	-999.25	22.73	2.46
8720.0	10.52	2.35	0.30	79.65	0.25	0.19	-999.25	-999.25	22.78	2.65
8720.5	10.52	2.35	0.30	79.55	0.25	0.19	-999.25	-999.25	22.23	2.84
8721.0	10.18	2.35	0.28	79.50	0.25	0.19	-999.25	-999.25	22.05	2.75
8721.5	9.98	2.36	0.27	79.85	0.25	0.18	-999.25	-999.25	22.24	2.39
8722.0	9.34	2.35	0.26	80.10	0.25	0.18	-999.25	-999.25	22.41	2.96
8722.5	9.23	2.35	0.27	80.70	0.25	0.18	-999.25	-999.25	22.58	4.45
8723.0	10.17	2.35	0.28	80.70	0.25	0.18	-999.25	-999.25	22.92	4.93
8723.5	10.47	2.36	0.28	80.30	0.25	0.18	-999.25	-999.25	23.28	5.22
8724.0	11.35	2.36	0.28	80.15	0.25	0.19	-999.25	-999.25	24.02	6.30
8724.5	9.90	2.36	0.27	80.30	0.25	0.19	-999.25	-999.25	24.35	6.67
8725.0	11.23	2.35	0.27	79.90	0.25	0.19	-999.25	-999.25	23.89	5.63
8725.5	10.41	2.34	0.27	80.05	0.25	0.19	-999.25	-999.25	23.43	4.59
8726.0	12.13	2.34	0.27	80.30	0.25	0.19	-999.25	-999.25	23.34	4.06
8726.5	12.09	2.34	0.27	80.20	0.25	0.19	-999.25	-999.25	23.97	4.52
8727.0	13.47	2.34	0.26	80.35	0.25	0.19	-999.25	-999.25	23.78	3.99
8727.5	12.26	2.34	0.25	79.85	0.25	0.19	-999.25	-999.25	23.59	3.46
8728.0	11.31	2.35	0.25	79.20	0.25	0.20	-999.25	-999.25	23.45	3.09
8728.5	10.33	2.35	0.26	78.95	0.24	0.20	-999.25	-999.25	23.36	2.90
8729.0	10.66	2.36	0.26	78.05	0.24	0.20	-999.25	-999.25	-999.25	-999.25
8729.5	9.99	2.37	0.26	77.15	0.24	0.20	-999.25	-999.25	-999.25	-999.25
8730.0	9.16	2.38	0.25	76.90	0.23	0.21	-999.25	-999.25	-999.25	-999.25
8730.5	9.94	2.37	0.26	76.95	0.23	0.22	-999.25	-999.25	-999.25	-999.25
8731.0	10.38	2.36	0.27	77.40	0.23	0.21	-999.25	-999.25	22.26	2.68
8731.5	11.21	2.36	0.27	78.35	0.24	0.20	-999.25	-999.25	22.77	2.77
8732.0	9.33	2.36	0.26	79.15	0.24	0.20	-999.25	-999.25	23.28	2.85
8732.5	9.79	2.36	0.27	79.65	0.24	0.19	-999.25	-999.25	23.78	3.20
8733.0	9.78	2.34	0.27	80.60	0.25	0.19	-999.25	-999.25	24.24	4.07
8733.5	11.15	2.33	0.30	80.40	0.25	0.19	-999.25	-999.25	24.71	4.94
8734.0	10.68	2.33	0.29	80.40	0.26	0.18	-999.25	-999.25	23.72	3.09
8734.5	10.10	2.34	0.29	80.55	0.25	0.18	-999.25	-999.25	23.59	2.36
8735.0	9.40	2.35	0.28	80.65	0.25	0.18	-999.25	-999.25	24.32	2.75
8735.5	10.10	2.36	0.26	80.55	0.25	0.18	-999.25	-999.25	24.76	3.06
8736.0	10.13	2.35	0.26	80.70	0.25	0.19	-999.25	-999.25	24.91	3.30
8736.5	10.57	2.33	0.25	80.45	0.25	0.19	-999.25	-999.25	25.06	3.53
8737.0	9.74	2.32	0.25	78.70	0.25	0.19	-999.25	-999.25	25.04	3.30
8737.5	10.29	2.33	0.25	79.00	0.25	0.19	-999.25	-999.25	24.81	3.11
8738.0	10.18	2.34	0.28	78.15	0.25	0.19	-999.25	-999.25	24.48	2.98
8738.5	10.89	2.35	0.29	77.60	0.24	0.20	-999.25	-999.25	24.12	4.07
8739.0	10.56	2.35	0.28	75.75	0.24	0.21	-999.25	-999.25	23.52	11.59
8739.5	10.58	2.36	0.25	71.90	0.23	0.22	-999.25	-999.25	22.93	19.10
8740.0	11.10	2.39	0.24	70.35	0.22	0.24	-999.25	-999.25	22.13	19.45
8740.5	11.45	2.42	0.23	69.90	0.20	0.25	-999.25	-999.25	20.91	5.91
8741.0	11.54	2.43	0.21	71.05	0.20	0.25	-999.25	-999.25	18.88	23.15
8741.5	10.07	2.44	0.22	72.55	0.20	0.25	-999.25	-999.25	19.58	20.27
8742.0	10.83	2.42	0.22	75.20	0.21	0.23	-999.25	-999.25	21.68	7.03
8742.5	10.50	2.39	0.23	76.90	0.22	0.20	-999.25	-999.25	22.79	2.67
8743.0	11.09	2.35	0.23	77.45	0.24	0.18	-999.25	-999.25	23.39	2.89
8743.5	9.62	2.34	0.24	78.95	0.25	0.18	-999.25	-999.25	23.98	3.10
8744.0	9.51	2.34	0.26	79.35	0.25	0.18	-999.25	-999.25	24.24	3.04
8744.5	9.50	2.34	0.27	80.30	0.25	0.18	-999.25	-999.25	24.34	3.08
8745.0	9.53	2.33	0.28	81.00	0.26	0.17	-999.25	-999.25	24.82	3.89
8745.5	10.48	2.32	0.27	81.30	0.26	0.17	-999.25	-999.25	25.30	4.69
8746.0	10.03	2.31	0.27	81.50	0.26	0.17	-999.25	-999.25	24.56	4.21
8746.5	11.07	2.32	0.27	81.75	0.26	0.17	-999.25	-999.25	23.58	3.48
8747.0	10.24	2.33	0.26	81.50	0.26	0.17	-999.25	-999.25	23.54	2.85
8747.5	10.21	2.33	0.27	81.85	0.26	0.17	-999.25	-999.25	24.45	2.33
8748.0	9.95	2.33	0.27	81.95	0.26	0.17	-999.25	-999.25	24.24	9.44
8748.5	10.84	2.32	0.28	82.05	0.26	0.17	-999.25	-999.25	24.03	16.55
8749.0	12.14	2.32	0.26	82.40	0.26	0.17	-999.25	-999.25	23.93	14.70
8749.5	13.25	2.32	0.27	82.25	0.26	0.17	-999.25	-999.25	23.95	3.87
8750.0	11.89	2.31	0.28	82.50	0.26	0.17	-999.25	-999.25	24.20	2.89
8750.5	11.05	2.30	0.29	82.55	0.27	0.16	-999.25	-999.25	24.45	2.19
8751.0	9.61	2.31	0.28	82.50	0.26	0.17	-999.25	-999.25	24.71	2.02
8751.5	10.32	2.31	0.26	82.30	0.26	0.17	-999.25	-999.25	24.96	1.85
8752.0	11.54	2.32	0.26	82.40	0.26	0.17	-999.25	-999.25	24.58	2.55
8752.5	12.21	2.32	0.24	82.30	0.26	0.17	-999.25	-999.25	24.46	3.07
8753.0	11.53	2.33	0.24	82.25	0.26	0.17	-999.25	-999.25	24.89	2.98
8753.5	11.15	2.34	0.25	81.90	0.25	0.17	-999.25	-999.25	25.32	2.89
8754.0	9.60	2.35	0.26	81.40	0.25	0.18	-999.25	-999.25	25.38	3.27
8754.5	9.92	2.35	0.27	81.40	0.25	0.18	-999.25	-999.25	25.23	3.58
8755.0	8.08	2.35	0.26	81.45	0.25	0.18	-999.25	-999.25	24.34	3.13
8755.5	9.74	2.34	0.27	81.10	0.25	0.18	-999.25	-999.25	23.61	2.72
8756.0	9.27	2.34	0.26	81.05	0.25	0.18	-999.25	-999.25	23.72	2.51
8756.5	11.93	2.33	0.29	80.80	0.25	0.19	-999.25	-999.25	23.29	2.38
8757.0	10.21	2.34	0.28	79.20	0.25	0.19	-999.25	-999.25	22.30	2.34
8757.5	11.47	2.35	0.28	78.90	0.24	0.20	-999.25	-999.25	21.32	2.31
8758.0	10.69	2.36	0.26	78.20	0.24	0.20	-999.25	-999.25	22.80	2.22
8758.5	12.00	2.35	0.26	77.65	0.24	0.21	-999.25	-999.25	23.25	1.66
8759.0	12.66	2.35	0.25	77.55	0.24	0.22	-999.25	-999.25	22.19	0.64
8759.5	10.95	2.36	0.26	75.35	0.23	0.23	-999.25	-999.25	21.50	0.45
8760.0	11.26	2.37	0.25	73.70	0.22	0.24	-999.25	-999.25	21.19	1.09
8760.5	11.81	2.40	0.24	72.40	0.21	0.27	-999.25	-999.25	20.88	1.74
8761.0	13.97	2.41	0.22	71.50	0.20	0.29	-999.25	-999.25	20.84	1.72
