# LAS format log file from PETREL
# Project units are specified as depth units
#==================================================================
~Version information
VERS.   2.0:
WRAP.   NO:
#==================================================================
~Well
STRT .ft        7600.0 :
STOP .ft        8020.0 :
STEP .ft        0.5    :
NULL .          -999.25  :
COMP.           : COMPANY
WELL.  HW-3     : WELL
FLD.   COSTA    : FIELD
LOC.            : LOCATION
SRVC.           : SERVICE COMPANY
DATE.  2018-02-06 14:55:40   : Log Export Date {yyyy-MM-dd HH:mm:ss}
PROV.           : PROVINCE
UWI.   HW-3     : UNIQUE WELL ID
API.            : API NUMBER
#==================================================================
~Curve
DEPT .ft                  : DEPTH
GR .gAPI                  : GR
RHOB .g/cm3               : RHOB
NPHI .ft3/ft3             : NPHI
DT .us/ft                 : DT
PHIE .ft3/ft3             : PHIE
RT .ohm.m                 : RT
SW .                      : SW
SO . 			  : SO
CORE_POR .ft3/ft3         : CORE_POR
CORE_PERM .mD             : CORE_PERM
~Parameter
#==================================================================
~Ascii      
# ...
7932.0	10.75	2.36	0.15	88.86	0.30	22.63	0.09	0.91	31.90	7.20
7932.5	11.46	2.32	0.15	89.37	0.30	22.81	0.09	0.91	29.75	7.20
7933.0	11.45	2.29	0.15	89.88	0.30	23.00	0.09	0.91	27.60	7.20
7933.5	11.43	2.28	0.15	90.03	0.30	23.71	0.08	0.92	28.80	6.60
7934.0	11.60	2.27	0.15	90.18	0.29	24.42	0.08	0.92	30.00	6.00
7934.5	11.77	2.27	0.16	89.97	0.29	25.13	0.08	0.92	30.60	6.00
7935.0	11.95	2.29	0.16	89.75	0.29	25.84	0.08	0.92	31.20	6.00
7935.5	10.58	2.30	0.16	89.39	0.29	25.88	0.08	0.92	30.75	6.00
7936.0	9.22	2.32	0.16	89.03	0.29	25.93	0.08	0.92	30.30	6.00
7936.5	9.74	2.33	0.16	88.74	0.29	25.87	0.08	0.92	31.60	6.60
7937.0	9.73	2.32	0.16	88.45	0.29	25.81	0.08	0.92	32.90	7.20
7937.5	9.72	2.30	0.16	88.20	0.29	25.22	0.08	0.92	32.70	7.20
7938.0	9.71	2.28	0.16	87.94	0.28	24.64	0.09	0.91	32.50	7.20
7938.5	9.34	2.26	0.16	87.68	0.28	24.12	0.09	0.91	31.50	6.60
7939.0	8.97	2.26	0.16	87.42	0.29	23.60	0.09	0.91	30.50	6.00
7939.5	8.60	2.27	0.16	86.42	0.29	23.82	0.09	0.91	31.75	8.00
7940.0	9.13	2.28	0.16	85.42	0.30	24.04	0.08	0.92	33.00	10.00
7940.5	9.66	2.30	0.16	84.02	0.30	24.26	0.08	0.92	32.70	8.60
7941.0	10.18	2.31	0.16	82.63	0.30	24.48	0.08	0.92	32.40	7.20
7941.5	10.22	2.33	0.15	80.29	0.30	24.70	0.08	0.92	32.05	6.60
7942.0	10.25	2.36	0.15	77.96	0.30	24.92	0.08	0.92	31.70	6.00
7942.5	10.28	2.39	0.15	76.01	0.30	24.27	0.08	0.92	31.05	7.30
7943.0	10.31	2.42	0.15	74.06	0.30	23.61	0.09	0.91	30.40	8.60
7943.5	10.35	2.42	0.15	72.81	0.30	22.74	0.09	0.91	31.50	7.30
7944.0	10.38	2.42	0.15	71.56	0.31	21.88	0.09	0.91	32.60	6.00
7944.5	9.89	2.43	0.15	72.24	0.30	20.84	0.09	0.91	32.10	6.00
7945.0	9.41	2.43	0.15	72.92	0.30	19.81	0.09	0.91	31.60	6.00
7945.5	8.93	2.42	0.16	74.66	0.30	18.67	0.09	0.91	31.85	6.30
7946.0	8.44	2.39	0.16	76.39	0.30	17.55	0.10	0.90	32.10	6.60
7946.5	9.42	2.36	0.16	78.67	0.30	17.39	0.10	0.90	32.35	6.90
7947.0	10.40	2.32	0.16	80.94	0.30	17.23	0.10	0.90	32.60	7.20
7947.5	11.37	2.30	0.16	83.49	0.30	16.97	0.10	0.90	31.60	6.60
7948.0	10.82	2.29	0.16	86.05	0.30	16.72	0.10	0.90	30.60	6.00
7948.5	10.27	2.29	0.16	87.45	0.30	16.39	0.10	0.90	31.40	6.60
7949.0	9.72	2.29	0.16	88.85	0.30	16.07	0.10	0.90	32.20	7.20
7949.5	9.17	2.30	0.16	89.08	0.30	15.92	0.10	0.90	31.35	7.20
7950.0	9.69	2.31	0.15	89.31	0.30	15.77	0.10	0.90	30.50	7.20
7950.5	9.81	2.31	0.15	89.31	0.30	15.55	0.10	0.90	30.90	6.60
7951.0	9.94	2.30	0.16	89.30	0.30	15.33	0.10	0.90	31.30	6.00
7951.5	10.06	2.29	0.15	89.43	0.30	15.28	0.10	0.90	32.20	7.30
7952.0	10.18	2.29	0.15	89.57	0.30	15.24	0.10	0.90	33.10	8.60
7952.5	9.99	2.29	0.15	89.66	0.30	15.11	0.10	0.90	31.30	6.70
7953.0	9.80	2.29	0.15	89.75	0.30	14.99	0.11	0.89	29.50	4.80
7953.5	9.62	2.28	0.15	89.49	0.30	14.90	0.11	0.89	29.55	4.80
7954.0	9.74	2.27	0.15	89.23	0.30	14.80	0.11	0.89	29.60	4.80
7954.5	9.86	2.27	0.15	89.16	0.29	14.63	0.11	0.89	31.45	6.70
7955.0	9.98	2.28	0.15	89.09	0.29	14.46	0.11	0.89	33.30	8.60
7955.5	10.11	2.28	0.15	88.70	0.29	14.43	0.11	0.89	31.85	7.90
7956.0	9.83	2.28	0.14	88.31	0.29	14.39	0.11	0.89	30.40	7.20
7956.5	9.54	2.28	0.14	88.32	0.29	14.10	0.11	0.89	30.65	6.60
7957.0	9.26	2.28	0.14	88.33	0.29	13.81	0.11	0.89	30.90	6.00
7957.5	8.89	2.27	0.14	88.42	0.29	13.14	0.12	0.88	30.95	6.00
7958.0	8.52	2.27	0.15	88.52	0.29	12.46	0.12	0.88	31.00	6.00
7958.5	8.15	2.28	0.15	88.46	0.29	11.95	0.12	0.88	31.90	6.00
7959.0	8.95	2.30	0.16	88.39	0.30	11.45	0.12	0.88	32.80	6.00
7959.5	9.74	2.32	0.15	88.32	0.30	11.71	0.12	0.88	31.90	6.00
7960.0	9.37	2.32	0.15	88.24	0.30	11.98	0.12	0.88	31.00	6.00
7960.5	9.00	2.31	0.16	88.28	0.30	12.52	0.12	0.88	31.70	6.00
7961.0	8.63	2.30	0.16	88.33	0.30	13.06	0.11	0.89	32.40	6.00
7961.5	9.07	2.29	0.16	88.70	0.30	12.89	0.11	0.89	31.85	6.00
7962.0	9.51	2.28	0.16	89.08	0.30	12.72	0.11	0.89	31.30	6.00
7962.5	9.94	2.27	0.16	89.11	0.31	13.09	0.11	0.89	30.10	4.75
7963.0	9.77	2.26	0.16	89.14	0.31	13.46	0.11	0.89	28.90	3.50
7963.5	9.60	2.26	0.16	88.67	0.31	13.71	0.11	0.89	29.70	4.15
7964.0	9.42	2.27	0.16	88.21	0.31	13.96	0.11	0.89	30.50	4.80
7964.5	9.25	2.28	0.15	87.22	0.30	13.88	0.11	0.89	29.90	4.15
7965.0	9.07	2.31	0.15	86.23	0.30	13.80	0.11	0.89	29.30	3.50
7965.5	9.40	2.33	0.15	84.52	0.29	13.37	0.11	0.89	29.55	4.15
7966.0	9.72	2.35	0.15	82.81	0.29	12.94	0.12	0.88	29.80	4.80
7966.5	10.04	2.38	0.15	80.85	0.29	12.76	0.12	0.88	30.90	5.40
7967.0	10.37	2.43	0.15	78.88	0.29	12.59	0.12	0.88	32.00	6.00
7967.5	9.82	2.48	0.15	75.52	0.29	12.60	0.12	0.88	31.45	6.00
7968.0	9.27	2.50	0.15	72.16	0.29	12.61	0.12	0.88	30.90	6.00
7968.5	8.72	2.49	0.15	71.93	0.30	12.61	0.12	0.88	31.95	6.60
7969.0	9.03	2.46	0.15	71.70	0.30	12.60	0.12	0.88	33.00	7.20
7969.5	9.34	2.42	0.15	74.03	0.29	12.77	0.12	0.88	31.35	6.00
7970.0	9.65	2.39	0.16	76.37	0.28	12.97	0.12	0.88	29.70	4.80
7970.5	9.97	2.37	0.16	77.90	0.28	13.98	0.12	0.88	29.05	4.15
7971.0	10.28	2.35	0.16	79.43	0.28	15.00	0.11	0.89	28.40	3.50
7971.5	9.82	2.33	0.15	80.92	0.28	17.37	0.11	0.89	29.25	5.35
7972.0	9.36	2.31	0.15	82.41	0.27	19.74	0.10	0.90	30.10	7.20
7972.5	8.90	2.29	0.15	83.90	0.27	22.61	0.09	0.91	30.05	7.20
7973.0	9.15	2.28	0.15	85.39	0.27	25.49	0.09	0.91	30.00	7.20
7973.5	8.33	2.27	0.15	86.82	0.27	26.81	0.09	0.91	28.85	11.10
7974.0	8.63	2.26	0.15	88.25	0.27	28.13	0.09	0.91	27.70	15.00
7974.5	8.92	2.25	0.15	88.95	0.26	26.66	0.09	0.91	26.35	10.50
7975.0	9.22	2.25	0.15	89.65	0.25	24.90	0.10	0.90	25.00	6.00
7975.5	9.52	2.26	0.15	89.42	0.24	21.88	0.11	0.89	26.30	5.40
7976.0	9.81	2.27	0.15	89.19	0.23	18.88	0.12	0.88	27.60	4.80
7976.5	10.11	2.28	0.14	89.25	0.23	15.32	0.14	0.86	28.20	6.00
7977.0	10.41	2.28	0.14	89.32	0.23	11.80	0.16	0.84	28.80	7.20
7977.5	10.19	2.27	0.14	89.46	0.23	10.23	0.16	0.84	28.50	6.00
7978.0	9.97	2.27	0.14	89.59	0.24	8.68	0.17	0.83	28.20	4.80
7978.5	9.76	2.26	0.14	89.56	0.24	8.19	0.18	0.82	28.15	3.70
7979.0	9.54	2.27	0.14	89.53	0.24	7.70	0.18	0.82	28.10	2.60
7979.5	9.48	2.28	0.14	89.45	0.23	7.84	0.19	0.81	24.80	1.55
7980.0	9.41	2.29	0.14	89.36	0.22	8.04	0.20	0.80	21.50	0.50
7980.5	9.35	2.29	0.13	89.34	0.20	8.09	0.22	0.78	20.60	0.49
7981.0	9.28	2.29	0.13	89.32	0.18	8.14	0.24	0.76	19.70	0.49
7981.5	9.22	2.28	0.12	89.46	0.16	7.97	0.27	0.73	16.75	1.25
7982.0	9.02	2.27	0.11	89.60	0.14	7.82	0.31	0.69	13.80	2.00
7982.5	8.83	2.27	0.10	89.63	0.12	8.09	0.36	0.64	12.45	1.03
7983.0	8.64	2.27	0.09	89.66	0.10	8.37	0.43	0.57	11.10	0.06
7983.5	9.03	2.27	0.07	89.66	0.07	9.27	0.55	0.45	10.00	0.08
7984.0	9.43	2.27	0.06	89.66	0.05	10.18	0.81	0.19	8.90	0.10
7984.5	9.82	2.28	0.05	89.00	0.03	13.12	-999.25	-999.25	6.70	0.07
7985.0	10.21	2.29	0.04	88.33	0.01	16.07	-999.25	-999.25	4.50	0.04
7985.5	10.06	2.30	0.04	87.51	-999.25	16.49	-999.25	-999.25	3.20	0.04
7986.0	9.92	2.32	0.03	86.68	-999.25	16.91	-999.25	-999.25	1.90	0.04
7986.5	9.77	2.32	0.03	86.75	-999.25	15.42	-999.25	-999.25	4.45	0.07
7987.0	9.62	2.32	0.03	86.83	-999.25	13.90	-999.25	-999.25	7.00	0.10
7987.5	9.61	2.31	0.03	86.79	0.01	12.05	-999.25	-999.25	4.75	-999.25
7988.0	9.60	2.31	0.04	86.74	0.02	10.20	-999.25	-999.25	2.50	-999.25
7988.5	9.80	2.30	0.04	86.38	0.03	8.95	-999.25	-999.25	7.40	-999.25
7989.0	10.01	2.31	0.05	86.02	0.04	7.70	-999.25	-999.25	12.30	0.27
7989.5	10.21	2.31	0.05	85.38	0.04	7.22	-999.25	-999.25	12.15	0.23
7990.0	10.42	2.32	0.05	84.74	0.05	6.73	0.90	0.10	12.00	0.19
7990.5	10.62	2.34	0.05	84.97	0.04	7.29	-999.25	-999.25	10.55	0.16
7991.0	10.97	2.36	0.05	85.20	0.03	7.85	-999.25	-999.25	9.10	0.12
7991.5	11.32	2.36	0.04	85.58	0.02	10.02	-999.25	-999.25	7.05	0.08
7992.0	11.66	2.36	0.04	85.96	0.01	12.18	-999.25	-999.25	5.00	0.04
7992.5	12.14	2.34	0.04	85.93	0.00	17.40	-999.25	-999.25	3.40	-999.25
7993.0	12.61	2.32	0.03	85.91	-999.25	23.10	-999.25	-999.25	1.80	-999.25
7993.5	13.09	2.31	0.03	85.89	-999.25	32.02	-999.25	-999.25	1.10	-999.25
7994.0	13.56	2.30	0.03	85.86	-999.25	41.24	-999.25	-999.25	0.40	-999.25
7994.5	14.04	2.30	0.02	85.75	-999.25	50.00	-999.25	-999.25	0.70	-999.25
7995.0	14.75	2.30	0.02	85.64	-999.25	57.80	-999.25	-999.25	1.00	-999.25
7995.5	15.45	2.31	0.02	84.83	-999.25	72.49	-999.25	-999.25	0.75	-999.25
7996.0	16.16	2.32	0.02	84.03	-999.25	87.92	-999.25	-999.25	0.50	-999.25
7996.5	15.68	2.34	0.01	83.22	-999.25	106.88	-999.25	-999.25	0.50	-999.25
