# LAS format log file from PETREL
# Project units are specified as depth units
#==================================================================
~Version information
VERS.   2.0:
WRAP.   NO:
#==================================================================
~Well
STRT .ft        8200.0 :
STOP .ft        8580.0 :
STEP .ft        0.5    :
NULL .          -999.25  :
COMP.           : COMPANY
WELL.  HW-32    : WELL
FLD.   COSTA    : FIELD
LOC.            : LOCATION
SRVC.           : SERVICE COMPANY
DATE.  2018-02-06 14:55:43   : Log Export Date {yyyy-MM-dd HH:mm:ss}
PROV.           : PROVINCE
UWI.   HW-32    : UNIQUE WELL ID
API.            : API NUMBER
#==================================================================
~Curve
DEPT .ft                  : DEPTH
GR .gAPI                  : GR
RHOB .g/cm3               : RHOB
NPHI .ft3/ft3             : NPHI
DT .us/ft                 : DT
PHIE .ft3/ft3             : PHIE
RT .ohm.m                 : RT
SW .                      : SW
SO .			  : SO
CORE_POR .ft3/ft3         : CORE_POR
CORE_PERM .mD             : CORE_PERM
~Parameter
#==================================================================
~Ascii
# ...
8501.0	13.54	2.15	0.27	92.60	0.29	2.08	0.29	0.71	28.79	11.30
8501.5	11.82	2.15	0.26	94.50	0.29	2.10	0.29	0.71	29.96	9.70
8502.0	11.17	2.16	0.26	91.50	0.29	2.10	0.29	0.71	30.84	8.26
8502.5	10.25	2.17	0.26	92.50	0.28	2.06	0.30	0.70	30.12	7.63
8503.0	10.55	2.19	0.27	90.85	0.28	1.98	0.32	0.68	29.41	7.00
8503.5	11.35	2.21	0.26	87.30	0.27	1.91	0.33	0.67	27.12	5.04
8504.0	11.80	2.23	0.25	87.05	0.26	1.87	0.34	0.66	24.83	3.08
8504.5	10.70	2.24	0.25	86.30	0.26	1.81	0.35	0.65	25.61	3.67
8505.0	9.79	2.23	0.25	84.40	0.26	1.77	0.35	0.65	29.44	6.80
8505.5	10.03	2.21	0.25	85.60	0.27	1.73	0.34	0.66	30.85	7.29
8506.0	9.52	2.20	0.26	86.30	0.28	1.72	0.34	0.66	31.50	7.60
8506.5	9.62	2.19	0.27	88.70	0.29	1.74	0.32	0.68	31.39	7.72
8507.0	9.74	2.17	0.27	91.10	0.29	1.77	0.32	0.68	31.27	7.85
8507.5	11.13	2.16	0.26	91.40	0.29	1.81	0.31	0.69	30.98	7.31
8508.0	12.17	2.16	0.26	91.75	0.29	1.82	0.31	0.69	30.60	6.44
8508.5	11.93	2.15	0.26	93.85	0.29	1.80	0.31	0.69	28.87	5.63
8509.0	11.84	2.15	0.26	91.25	0.29	1.79	0.32	0.68	26.88	4.84
8509.5	11.89	2.16	0.27	93.00	0.29	1.79	0.31	0.69	29.54	6.70
8510.0	11.56	2.17	0.27	88.70	0.29	1.77	0.32	0.68	29.83	7.18
8510.5	11.65	2.20	0.27	87.00	0.28	1.75	0.33	0.67	28.45	6.69
8511.0	10.56	2.22	0.25	90.20	0.27	1.71	0.34	0.66	27.08	6.19
8511.5	10.24	2.24	0.25	87.20	0.26	1.68	0.36	0.64	26.52	5.07
8512.0	10.04	2.25	0.25	85.50	0.26	1.65	0.37	0.63	26.38	3.64
8512.5	9.94	2.26	0.24	84.20	0.25	1.63	0.39	0.61	26.94	16.45
8513.0	10.83	2.28	0.22	79.20	0.24	1.72	0.39	0.61	26.26	20.53
8513.5	10.61	2.29	0.21	79.60	0.23	1.75	0.41	0.59	24.20	13.16
8514.0	10.25	2.29	0.22	79.40	0.23	1.57	0.43	0.57	22.14	5.78
8514.5	9.33	2.28	0.23	77.00	0.24	1.37	0.44	0.56	22.68	2.54
8515.0	10.62	2.25	0.24	79.50	0.25	1.32	0.42	0.58	25.10	3.40
8515.5	11.89	2.23	0.24	81.00	0.27	1.37	0.39	0.61	26.11	4.21
8516.0	12.67	2.21	0.26	84.10	0.27	1.51	0.37	0.63	27.15	5.05
8516.5	11.59	2.20	0.26	86.35	0.28	1.67	0.34	0.66	28.24	5.98
8517.0	10.32	2.19	0.27	86.45	0.28	1.81	0.33	0.67	29.32	6.90
8517.5	10.12	2.19	0.26	87.70	0.28	1.85	0.32	0.68	29.71	7.05
8518.0	10.65	2.19	0.26	89.20	0.28	1.79	0.32	0.68	28.77	6.01
8518.5	10.80	2.19	0.26	87.90	0.28	1.76	0.33	0.67	27.90	5.59
8519.0	9.99	2.20	0.26	91.20	0.28	1.81	0.33	0.67	27.03	5.17
8519.5	8.59	2.21	0.26	86.80	0.27	1.82	0.33	0.67	26.55	4.79
8520.0	10.29	2.22	0.25	86.40	0.27	1.75	0.34	0.66	26.07	4.40
8520.5	12.05	2.23	0.23	87.90	0.26	1.67	0.36	0.64	26.63	5.53
8521.0	12.59	2.24	0.24	86.95	0.26	1.45	0.39	0.61	27.40	6.94
8521.5	11.65	2.26	0.24	83.65	0.25	1.23	0.44	0.56	23.78	4.26
8522.0	11.37	2.28	0.25	83.55	0.25	1.23	0.45	0.55	20.16	1.58
8522.5	13.00	2.29	0.23	77.55	0.24	1.34	0.44	0.56	24.91	6.74
8523.0	13.48	2.30	0.22	80.05	0.24	1.35	0.44	0.56	25.98	7.53
8523.5	12.14	2.28	0.22	81.10	0.24	1.27	0.45	0.55	26.35	7.47
8524.0	9.48	2.26	0.24	79.10	0.25	1.25	0.44	0.56	26.72	7.42
8524.5	8.13	2.23	0.26	83.20	0.27	1.27	0.41	0.59	27.09	7.37
8525.0	10.18	2.21	0.28	85.40	0.28	1.29	0.38	0.62	27.45	7.32
8525.5	11.33	2.19	0.29	87.50	0.29	1.18	0.39	0.61	27.82	7.27
8526.0	13.02	2.19	0.28	88.10	0.30	1.11	0.39	0.61	28.19	7.22
8526.5	11.94	2.19	0.28	88.50	0.30	1.05	0.40	0.60	28.56	7.17
8527.0	11.48	2.20	0.26	88.80	0.29	1.04	0.41	0.59	28.93	7.11
8527.5	10.55	2.20	0.26	89.20	0.29	1.05	0.42	0.58	29.06	6.67
8528.0	9.77	2.20	0.26	88.10	0.28	1.06	0.42	0.58	27.98	5.14
8528.5	11.20	2.21	0.26	88.25	0.28	0.94	0.45	0.55	26.90	4.11
8529.0	12.13	2.22	0.26	87.35	0.28	0.87	0.47	0.53	26.73	4.10
8529.5	12.16	2.23	0.26	87.45	0.28	0.82	0.49	0.51	26.74	4.28
8530.0	11.41	2.24	0.27	87.45	0.28	0.75	0.51	0.49	26.74	4.47
8530.5	10.91	2.24	0.27	87.25	0.28	0.66	0.54	0.46	26.74	4.65
8531.0	12.27	2.23	0.27	86.95	0.28	0.58	0.57	0.43	26.75	4.83
8531.5	13.34	2.24	0.26	87.45	0.28	0.53	0.60	0.40	26.75	5.01
8532.0	13.03	2.25	0.25	86.10	0.27	0.50	0.63	0.37	26.75	5.19
8532.5	12.43	2.26	0.25	86.10	0.27	0.52	0.64	0.36	26.76	5.38
8533.0	12.17	2.26	0.25	85.70	0.26	0.56	0.62	0.38	26.76	5.56
8533.5	12.06	2.26	0.27	85.70	0.27	0.61	0.58	0.42	26.76	5.74
8534.0	11.30	2.24	0.28	86.85	0.28	0.51	0.61	0.39	26.77	5.92
8534.5	10.96	2.22	0.28	86.55	0.29	0.43	0.63	0.37	26.77	6.11
8535.0	10.83	2.21	0.27	87.75	0.30	0.39	0.66	0.34	26.77	6.29
8535.5	11.85	2.21	0.26	88.30	0.30	0.38	0.67	0.33	26.78	6.47
8536.0	11.91	2.21	0.26	88.60	0.29	0.39	0.68	0.32	26.78	6.65
8536.5	11.81	2.21	0.27	87.80	0.29	0.40	0.67	0.33	26.78	6.83
8537.0	11.87	2.21	0.28	87.70	0.29	0.42	0.65	0.35	26.79	7.02
8537.5	12.15	2.20	0.28	86.70	0.30	0.42	0.64	0.36	26.79	7.20
8538.0	12.80	2.20	0.27	87.40	0.30	0.38	0.66	0.34	26.79	7.38
8538.5	12.97	2.20	0.27	87.90	0.30	0.34	0.69	0.31	26.80	7.56
8539.0	12.04	2.19	0.28	87.80	0.30	0.31	0.72	0.28	26.80	7.74
8539.5	12.88	2.19	0.29	88.65	0.31	0.28	0.75	0.25	26.80	7.93
8540.0	11.32	2.20	0.29	88.15	0.31	0.27	0.77	0.23	26.81	8.11
8540.5	11.32	2.21	0.27	88.05	0.30	0.27	0.77	0.23	26.87	7.93
8541.0	10.06	2.21	0.26	87.90	0.30	0.29	0.77	0.23	27.24	5.90
8541.5	10.27	2.21	0.26	88.30	0.30	0.27	0.80	0.20	27.43	4.43
8542.0	11.08	2.21	0.26	88.10	0.30	0.23	0.85	0.15	27.53	3.24
8542.5	11.39	2.20	0.26	88.45	0.30	0.22	0.87	0.13	27.09	2.95
8543.0	11.71	2.21	0.26	88.55	0.30	0.21	0.88	0.12	26.37	3.11
8543.5	11.36	2.21	0.27	88.10	0.30	0.22	0.87	0.13	26.60	3.46
8544.0	10.94	2.21	0.28	89.35	0.30	0.22	0.87	0.13	26.82	3.80
8544.5	11.39	2.21	0.28	88.45	0.31	0.21	0.87	0.13	26.89	3.86
8545.0	11.24	2.21	0.28	88.90	0.31	0.21	0.87	0.13	26.92	3.86
8545.5	11.48	2.21	0.27	88.00	0.30	0.22	0.86	0.14	26.37	3.53
8546.0	11.68	2.22	0.26	87.60	0.30	0.23	0.85	0.15	26.27	4.00
8546.5	12.05	2.23	0.25	87.90	0.29	0.24	0.85	0.15	26.74	5.32
8547.0	12.35	2.23	0.26	86.45	0.29	0.25	0.85	0.15	27.21	6.63
8547.5	11.81	2.24	0.26	87.55	0.29	0.25	0.85	0.15	27.47	8.31
8548.0	12.85	2.25	0.27	86.25	0.28	0.23	0.89	0.11	26.59	11.84
8548.5	13.00	2.27	0.26	86.50	0.27	0.22	0.95	0.05	25.69	10.89
8549.0	13.76	2.29	0.27	86.40	0.26	0.22	0.99	0.01	24.81	2.73
8549.5	13.42	2.29	0.26	83.70	0.26	0.22	1.00	0.00	24.21	2.60
8550.0	14.12	2.28	0.26	84.70	0.27	0.22	0.97	0.03	23.61	2.47
8550.5	14.34	2.27	0.26	81.20	0.27	0.23	0.95	0.05	23.95	3.59
8551.0	13.30	2.27	0.26	82.60	0.27	0.23	0.94	0.06	24.29	4.71
8551.5	12.98	2.26	0.25	82.10	0.27	0.23	0.92	0.08	24.83	4.11
8552.0	12.81	2.26	0.25	82.30	0.28	0.24	0.89	0.11	25.36	3.52
8552.5	13.11	2.26	0.25	82.20	0.28	0.26	0.88	0.12	24.63	3.00
8553.0	12.50	2.28	0.24	80.20	0.27	0.28	0.88	0.12	23.89	2.48
8553.5	12.34	2.29	0.23	79.75	0.25	0.30	0.88	0.12	23.86	2.48
8554.0	11.70	2.30	0.21	77.95	0.25	0.30	0.89	0.11	23.83	2.48
8554.5	11.87	2.29	0.21	78.80	0.25	0.29	0.91	0.09	23.85	2.44
8555.0	11.23	2.27	0.23	76.50	0.26	0.28	0.89	0.11	23.92	2.61
8555.5	11.92	2.27	0.24	77.60	0.26	0.28	0.88	0.12	24.08	3.93
8556.0	11.86	2.28	0.24	80.40	0.26	0.27	0.90	0.10	24.02	4.77
8556.5	12.29	2.29	0.23	78.80	0.26	0.27	0.91	0.09	22.81	3.09
8557.0	11.71	2.29	0.23	80.50	0.25	0.29	0.90	0.10	21.75	1.67
8557.5	11.45	2.30	0.22	76.90	0.24	0.31	0.90	0.10	21.43	1.63
8558.0	10.33	2.33	0.20	76.05	0.23	0.33	0.95	0.05	20.87	1.51
8558.5	11.40	2.37	0.18	72.35	0.20	0.37	0.99	0.01	18.99	1.00
8559.0	12.46	2.41	0.16	70.20	0.18	0.45	-999.25	-999.25	17.99	0.75
8559.5	13.26	2.43	0.16	70.60	0.17	0.50	-999.25	-999.25	17.44	0.62
8560.0	12.29	2.43	0.15	68.70	0.17	0.51	-999.25	-999.25	16.93	0.52
8560.5	12.51	2.43	0.15	68.80	0.17	0.52	-999.25	-999.25	16.63	0.51
8561.0	14.35	2.43	0.14	68.80	0.16	0.57	-999.25	-999.25	15.59	5.75
8561.5	14.78	2.45	0.12	66.90	0.15	0.64	-999.25	-999.25	14.16	13.68
8562.0	15.00	2.48	0.12	66.25	0.14	0.72	-999.25	-999.25	13.51	12.60
8562.5	14.03	2.49	0.13	65.75	0.13	0.75	-999.25	-999.25	13.26	6.89
8563.0	14.31	2.49	0.14	66.05	0.14	0.69	-999.25	-999.25	13.00	1.17
8563.5	11.50	2.47	0.14	64.35	0.15	0.64	-999.25	-999.25	14.52	0.45
8564.0	10.53	2.44	0.14	68.65	0.16	0.59	0.99	0.01	16.38	0.68
8564.5	9.50	2.43	0.14	67.00	0.17	0.56	0.99	0.01	15.92	1.08
8565.0	10.36	2.44	0.14	69.90	0.16	0.56	-999.25	-999.25	15.47	1.48
8565.5	11.55	2.45	0.13	69.40	0.15	0.66	-999.25	-999.25	14.55	1.08
8566.0	15.54	2.49	0.10	63.20	0.13	0.85	-999.25	-999.25	13.40	0.27
8566.5	21.36	2.53	0.08	65.30	0.11	1.03	-999.25	-999.25	10.00	0.15
