# LAS format log file from PETREL
# Project units are specified as depth units
#==================================================================
~Version information
VERS.   2.0:
WRAP.   NO:
#==================================================================
~Well
STRT .ft        8090.0 :
STOP .ft        8560.0 :
STEP .ft        0.5    :
NULL .          -999.25  :
COMP.           : COMPANY
WELL.  HW-30    : WELL
FLD.   COSTA    : FIELD
LOC.            : LOCATION
SRVC.           : SERVICE COMPANY
DATE.  2018-02-06 14:55:42   : Log Export Date {yyyy-MM-dd HH:mm:ss}
PROV.           : PROVINCE
UWI.   HW-30    : UNIQUE WELL ID
API.            : API NUMBER
#==================================================================
~Curve
DEPT .ft                  : DEPTH
GR .gAPI                  : GR
RHOB .g/cm3               : RHOB
NPHI .ft3/ft3             : NPHI
DT .us/ft                 : DT
PHIE .ft3/ft3             : PHIE
RT .ohm.m                 : RT
SW .                      : SW
SO . 			  : SO
CORE_POR .ft3/ft3         : CORE_POR
CORE_PERM .mD             : CORE_PERM
~Parameter
#==================================================================
~Ascii
# ...
8517.5	9.48	2.16	0.25	92.41	0.30	11.88	0.12	0.88	30.66	3.92
8518.0	9.35	2.16	0.26	92.12	0.29	11.96	0.12	0.88	30.62	4.06
8518.5	9.26	2.16	0.26	91.59	0.29	12.18	0.12	0.88	29.88	3.61
8519.0	9.34	2.16	0.27	91.17	0.29	12.60	0.12	0.88	28.84	2.92
8519.5	9.66	2.17	0.28	90.94	0.29	13.19	0.12	0.88	29.38	4.01
8520.0	10.18	2.18	0.28	90.74	0.29	13.65	0.12	0.88	29.91	5.11
8520.5	10.68	2.18	0.27	90.57	0.29	14.00	0.11	0.89	29.70	5.36
8521.0	10.73	2.19	0.27	90.49	0.29	14.20	0.11	0.89	29.36	5.48
8521.5	10.35	2.19	0.26	90.25	0.28	14.12	0.12	0.88	29.88	5.10
8522.0	10.09	2.20	0.25	89.95	0.28	14.01	0.12	0.88	30.77	4.49
8522.5	10.23	2.20	0.25	89.70	0.28	13.94	0.12	0.88	30.41	4.05
8523.0	10.61	2.20	0.24	89.51	0.28	13.97	0.12	0.88	30.06	3.61
8523.5	10.92	2.20	0.25	89.26	0.28	14.11	0.12	0.88	29.45	3.67
8524.0	11.13	2.21	0.25	88.87	0.28	14.25	0.12	0.88	28.81	3.80
8524.5	11.22	2.21	0.26	88.68	0.27	14.28	0.12	0.88	29.30	4.28
8525.0	10.95	2.21	0.26	88.73	0.27	14.18	0.12	0.88	30.20	4.88
8525.5	10.42	2.20	0.26	88.97	0.28	14.02	0.12	0.88	31.14	5.74
8526.0	10.27	2.18	0.26	89.69	0.28	13.88	0.12	0.88	32.09	6.60
8526.5	10.72	2.18	0.26	90.61	0.29	13.67	0.12	0.88	31.59	5.46
8527.0	11.22	2.17	0.26	91.55	0.29	13.29	0.11	0.89	30.83	3.93
8527.5	11.05	2.17	0.26	92.35	0.30	12.76	0.11	0.89	30.84	3.95
8528.0	10.45	2.16	0.26	92.99	0.30	12.22	0.12	0.88	31.17	4.58
8528.5	10.25	2.16	0.26	93.32	0.30	11.72	0.12	0.88	30.98	4.61
8529.0	10.42	2.15	0.26	93.29	0.30	11.27	0.12	0.88	30.79	4.64
8529.5	10.41	2.15	0.26	93.03	0.30	10.82	0.12	0.88	30.18	4.56
8530.0	10.19	2.15	0.26	92.24	0.30	10.36	0.13	0.87	29.49	4.45
8530.5	9.98	2.15	0.27	91.28	0.29	9.86	0.13	0.87	30.20	4.64
8531.0	9.87	2.16	0.27	90.34	0.29	9.31	0.14	0.86	31.65	5.00
8531.5	9.93	2.17	0.27	89.81	0.28	8.73	0.15	0.85	31.52	4.70
8532.0	10.19	2.18	0.26	90.14	0.28	8.16	0.15	0.85	31.38	4.39
8532.5	10.28	2.19	0.26	90.71	0.28	7.60	0.16	0.84	30.96	3.94
8533.0	10.05	2.20	0.25	90.71	0.28	7.02	0.17	0.83	30.35	3.39
8533.5	9.81	2.20	0.25	90.39	0.28	6.41	0.18	0.82	29.80	3.39
8534.0	9.74	2.21	0.26	89.57	0.27	5.81	0.19	0.81	29.33	3.92
8534.5	9.85	2.22	0.26	88.59	0.26	5.27	0.20	0.80	28.79	3.46
8535.0	10.00	2.23	0.25	87.86	0.26	4.84	0.22	0.78	28.25	2.89
8535.5	9.90	2.24	0.24	87.45	0.25	4.52	0.23	0.77	27.92	2.54
8536.0	9.73	2.25	0.23	86.62	0.25	4.25	0.24	0.76	27.58	2.20
8536.5	10.06	2.27	0.23	84.78	0.24	3.97	0.26	0.74	26.59	2.28
8537.0	10.53	2.28	0.23	82.74	0.23	3.62	0.28	0.72	25.47	2.45
8537.5	10.86	2.29	0.23	80.15	0.21	3.27	0.32	0.68	24.90	1.82
8538.0	11.13	2.31	0.22	78.62	0.20	3.06	0.35	0.65	24.34	1.20
8538.5	11.11	2.33	0.21	77.59	0.19	2.89	0.38	0.62	23.72	1.06
8539.0	10.97	2.35	0.20	76.27	0.18	2.71	0.42	0.58	23.09	0.93
8539.5	11.34	2.37	0.19	74.41	0.17	2.58	0.46	0.54	21.15	0.84
8540.0	12.00	2.40	0.18	71.81	0.15	2.52	0.52	0.48	19.20	0.75
8540.5	12.11	2.44	0.16	68.63	0.13	2.58	0.60	0.40	17.07	0.47
8541.0	11.80	2.48	0.13	65.57	0.10	2.77	0.72	0.28	14.94	0.19
8541.5	12.15	2.53	0.11	62.96	0.08	3.12	0.85	0.15	12.98	0.14
8542.0	14.30	2.58	0.09	60.52	0.06	3.64	0.99	0.01	11.02	0.10
8542.5	19.78	2.61	0.08	58.93	0.06	4.40	-999.25	-999.25	8.29	0.05
8543.0	29.17	2.64	0.07	58.66	0.05	5.50	-999.25	-999.25	5.40	0.01
8543.5	39.00	2.67	0.06	58.54	0.04	7.04	-999.25	-999.25	3.25	0.01
8544.0	43.86	2.68	0.06	58.60	0.04	9.06	-999.25	-999.25	1.09	0.01
8544.5	42.89	2.69	0.05	58.61	0.03	11.30	-999.25	-999.25	1.64	0.01
8545.0	38.81	2.69	0.04	57.54	0.03	13.23	-999.25	-999.25	2.18	0.01
8545.5	33.30	2.69	0.03	56.30	0.03	14.85	-999.25	-999.25	1.63	0.01
8546.0	26.70	2.70	0.03	55.89	0.03	15.68	-999.25	-999.25	0.81	0.01
8546.5	20.58	2.69	0.02	54.91	0.02	17.52	-999.25	-999.25	0.77	0.01
8547.0	16.38	2.69	0.02	53.74	0.02	19.53	-999.25	-999.25	0.77	0.01
8547.5	13.99	2.70	0.02	53.19	0.02	21.42	-999.25	-999.25	0.73	0.01
8548.0	12.59	2.70	0.01	52.94	0.02	23.00	-999.25	-999.25	0.60	0.01
8548.5	11.91	2.70	0.01	52.74	0.02	24.14	-999.25	-999.25	0.74	0.01
8549.0	11.93	2.70	0.01	52.94	0.02	24.43	-999.25	-999.25	0.92	0.01
8549.5	13.22	2.70	0.02	53.37	0.02	23.59	-999.25	-999.25	1.65	0.01
8550.0	15.72	2.71	0.02	53.72	0.02	21.90	-999.25	-999.25	2.38	0.01
8550.5	18.57	2.72	0.02	54.57	0.02	19.57	-999.25	-999.25	2.34	0.01
8551.0	23.09	2.73	0.03	56.05	0.03	16.71	-999.25	-999.25	2.30	0.01
8551.5	29.48	2.73	0.04	57.50	0.03	14.14	-999.25	-999.25	2.11	0.01
8552.0	33.94	2.73	0.04	58.76	0.03	12.74	-999.25	-999.25	1.71	0.01
8552.5	33.69	2.72	0.04	58.59	0.03	12.79	-999.25	-999.25	1.46	0.01
8553.0	30.62	2.72	0.03	57.08	0.03	14.28	-999.25	-999.25	1.20	0.01
8553.5	27.02	2.71	0.03	55.45	0.02	16.84	-999.25	-999.25	0.95	0.01
8554.0	24.38	2.72	0.03	55.27	0.02	18.69	-999.25	-999.25	0.70	0.01
8554.5	25.24	2.73	0.04	56.23	0.03	17.44	-999.25	-999.25	0.70	0.01
8555.0	30.03	2.74	0.04	57.07	0.03	14.56	-999.25	-999.25	0.95	0.01
8555.5	33.89	2.74	0.04	58.02	0.03	12.73	-999.25	-999.25	1.67	0.42
8556.0	33.02	2.74	0.03	57.93	0.03	12.53	-999.25	-999.25	2.39	0.82
8556.5	29.80	2.72	0.03	56.76	0.03	13.71	-999.25	-999.25	1.57	0.44
8557.0	27.25	2.71	0.02	55.59	0.02	16.12	-999.25	-999.25	0.75	0.06
8557.5	24.38	2.70	0.02	54.23	0.02	20.10	-999.25	-999.25	0.53	0.01
8558.0	20.31	2.71	0.01	52.65	0.02	25.89	-999.25	-999.25	0.40	0.01
8558.5	17.09	2.71	0.01	51.90	0.02	31.74	-999.25	-999.25	0.38	0.01
8559.0	16.41	2.70	0.02	52.66	0.02	33.75	-999.25	-999.25	0.40	0.01
8559.5	18.36	2.70	0.02	53.66	0.02	31.56	-999.25	-999.25	0.50	0.01
8560.0	21.96	2.69	0.02	54.31	0.02	28.55	-999.25	-999.25	0.64	0.01
