# LAS format log file from PETREL
# Project units are specified as depth units
#==================================================================
~Version information
VERS.   2.0:
WRAP.   NO:
#==================================================================
~Well
STRT .ft        7600.0 :
STOP .ft        8020.0 :
STEP .ft        0.5    :
NULL .          -999.25  :
COMP.           : COMPANY
WELL.  HW-3     : WELL
FLD.   COSTA    : FIELD
LOC.            : LOCATION
SRVC.           : SERVICE COMPANY
DATE.  2018-02-06 14:55:40   : Log Export Date {yyyy-MM-dd HH:mm:ss}
PROV.           : PROVINCE
UWI.   HW-3     : UNIQUE WELL ID
API.            : API NUMBER
#==================================================================
~Curve
DEPT .ft                  : DEPTH
GR .gAPI                  : GR
RHOB .g/cm3               : RHOB
NPHI .ft3/ft3             : NPHI
DT .us/ft                 : DT
PHIE .ft3/ft3             : PHIE
RT .ohm.m                 : RT
SW .                      : SW
SO . 			  : SO
CORE_POR .ft3/ft3         : CORE_POR
CORE_PERM .mD             : CORE_PERM
~Parameter
#==================================================================
~Ascii      
7805.0	16.28	2.24	0.04	56.07	0.02	76.28	0.73	0.27	0.40	-999.25
7805.5	18.55	2.26	0.04	56.14	-999.25	70.30	-999.25	-999.25	0.40	-999.25
7806.0	19.75	2.27	0.03	56.21	-999.25	64.33	-999.25	-999.25	0.40	-999.25
7806.5	20.95	2.25	0.04	56.55	-999.25	49.21	-999.25	-999.25	0.40	-999.25
7807.0	22.15	2.22	0.04	56.89	0.01	34.00	-999.25	-999.25	0.40	-999.25
7807.5	23.34	2.20	0.04	56.60	0.02	29.85	-999.25	-999.25	0.60	-999.25
7808.0	24.31	2.20	0.04	56.31	0.03	25.67	0.87	0.13	0.80	-999.25
7808.5	25.28	2.23	0.05	55.87	0.03	22.91	0.81	0.19	1.75	-999.25
7809.0	26.25	2.25	0.05	55.44	0.04	20.16	0.78	0.22	2.70	15.00
7809.5	27.32	2.26	0.05	55.14	0.04	19.05	0.73	0.27	1.75	-999.25
7810.0	26.67	2.28	0.04	54.84	0.04	18.19	0.68	0.32	0.80	-999.25
7810.5	26.03	2.31	0.04	54.78	0.03	21.45	0.77	0.23	1.05	-999.25
7811.0	25.38	2.33	0.04	54.72	0.03	24.75	0.93	0.07	1.30	-999.25
7811.5	24.19	2.37	0.04	54.41	0.02	31.65	-999.25	-999.25	1.00	-999.25
7812.0	23.00	2.41	0.03	54.11	0.01	38.55	-999.25	-999.25	0.70	-999.25
7812.5	21.81	2.46	0.03	53.45	-999.25	40.23	-999.25	-999.25	0.70	-999.25
7813.0	21.03	2.48	0.03	52.79	-999.25	41.93	-999.25	-999.25	0.70	-999.25
7813.5	20.26	2.49	0.03	53.99	-999.25	42.39	-999.25	-999.25	0.55	-999.25
7814.0	19.49	2.50	0.03	55.20	-999.25	42.85	-999.25	-999.25	0.40	0.06
7814.5	18.72	2.49	0.03	58.78	-999.25	43.64	-999.25	-999.25	0.55	0.04
7815.0	17.94	2.45	0.03	62.36	-999.25	44.43	-999.25	-999.25	0.70	0.01
7815.5	18.47	2.40	0.04	65.12	-999.25	42.75	-999.25	-999.25	0.90	0.14
7816.0	18.99	2.36	0.04	67.88	-999.25	41.06	-999.25	-999.25	1.10	0.27
7816.5	19.51	2.30	0.04	68.14	-999.25	40.07	-999.25	-999.25	1.10	0.19
7817.0	20.02	2.24	0.04	68.41	-999.25	39.07	-999.25	-999.25	1.10	0.12
7817.5	19.87	2.26	0.04	66.88	-999.25	38.67	-999.25	-999.25	1.25	0.19
7818.0	19.72	2.29	0.04	65.34	-999.25	38.28	-999.25	-999.25	1.40	0.27
7818.5	19.57	2.32	0.03	64.64	-999.25	39.21	-999.25	-999.25	1.10	0.18
7819.0	19.42	2.32	0.03	63.94	-999.25	40.36	-999.25	-999.25	0.80	0.10
7819.5	18.95	2.33	0.03	64.34	-999.25	42.14	-999.25	-999.25	0.80	0.10
7820.0	18.48	2.37	0.03	64.74	-999.25	43.94	-999.25	-999.25	0.80	0.10
7820.5	18.00	2.41	0.03	66.61	-999.25	52.44	-999.25	-999.25	0.85	0.10
7821.0	18.19	2.40	0.03	68.49	-999.25	60.97	-999.25	-999.25	0.90	0.10
7821.5	18.38	2.37	0.03	69.01	-999.25	55.00	-999.25	-999.25	0.80	0.08
7822.0	18.57	2.35	0.02	69.54	-999.25	55.00	-999.25	-999.25	0.70	0.06
7822.5	18.75	2.33	0.02	69.11	-999.25	55.00	-999.25	-999.25	1.00	0.09
7823.0	19.81	2.31	0.02	68.68	-999.25	55.00	-999.25	-999.25	1.30	0.12
7823.5	20.87	2.29	0.02	69.51	-999.25	55.00	-999.25	-999.25	0.95	0.09
7824.0	20.84	2.28	0.02	70.35	-999.25	55.00	-999.25	-999.25	0.60	0.06
7824.5	20.82	2.27	0.03	69.42	-999.25	55.00	-999.25	-999.25	1.50	0.06
7825.0	21.21	2.28	0.03	68.48	-999.25	55.00	-999.25	-999.25	2.40	0.06
7825.5	21.60	2.29	0.03	68.32	-999.25	55.00	-999.25	-999.25	2.50	0.06
7826.0	21.99	2.31	0.03	68.15	-999.25	55.00	-999.25	-999.25	2.60	0.06
7826.5	22.38	2.33	0.03	67.15	0.01	55.00	-999.25	-999.25	2.35	0.05
7827.0	20.81	2.35	0.04	66.14	0.03	55.00	0.63	0.37	2.10	0.04
7827.5	19.51	2.35	0.04	65.30	0.06	55.00	0.25	0.75	10.80	47.52
7828.0	18.21	2.36	0.04	64.46	0.10	57.85	0.16	0.84	19.50	95.00
7828.5	16.91	2.38	0.05	63.31	0.12	55.43	0.14	0.86	21.45	55.00
7829.0	16.17	2.39	0.06	62.16	0.14	53.01	0.12	0.88	23.40	15.00
7829.5	15.43	2.39	0.07	63.09	0.17	51.04	0.10	0.90	23.90	10.05
7830.0	14.69	2.38	0.08	64.01	0.20	49.15	0.09	0.91	24.40	5.10
7830.5	15.84	2.37	0.08	64.97	0.19	47.97	0.09	0.91	21.90	5.40
7831.0	16.99	2.37	0.09	65.94	0.19	46.78	0.10	0.90	19.40	5.70
7831.5	18.14	2.38	0.09	66.56	0.18	46.78	0.10	0.90	20.90	5.85
7832.0	18.39	2.37	0.09	67.17	0.18	46.78	0.10	0.90	22.40	6.00
7832.5	18.38	2.34	0.08	-999.25	0.15	44.76	0.12	0.88	16.90	7.60
7833.0	18.36	2.31	0.07	-999.25	0.13	42.74	0.15	0.85	11.40	9.20
7833.5	16.45	2.29	0.06	-999.25	0.10	42.58	0.18	0.82	9.80	4.69
7834.0	14.54	2.27	0.05	-999.25	0.08	42.75	0.24	0.76	8.20	0.19
7834.5	14.39	2.26	0.04	-999.25	0.05	48.98	0.38	0.62	6.35	1.00
7835.0	14.24	2.26	0.03	-999.25	0.01	55.27	-999.25	-999.25	4.50	1.80
7835.5	14.09	2.27	0.03	-999.25	-999.25	80.88	-999.25	-999.25	2.40	0.93
7836.0	13.93	2.29	0.02	-999.25	-999.25	106.56	-999.25	-999.25	0.30	0.06
7836.5	14.01	2.30	0.02	-999.25	0.01	146.12	-999.25	-999.25	7.35	0.73
7837.0	14.08	2.32	0.02	-999.25	0.04	186.31	0.24	0.76	14.40	1.40
7837.5	14.15	2.34	0.03	-999.25	0.07	168.03	0.13	0.87	17.95	2.50
7838.0	14.04	2.36	0.03	-999.25	0.10	147.32	0.10	0.90	21.50	3.60
7838.5	13.93	2.36	0.05	-999.25	0.15	123.73	0.08	0.92	23.00	4.40
7839.0	13.82	2.35	0.07	-999.25	0.18	100.20	0.07	0.93	24.50	5.20
7839.5	13.53	2.34	0.07	-999.25	0.21	89.91	0.06	0.94	24.90	12.10
7840.0	13.24	2.33	0.08	-999.25	0.23	79.82	0.06	0.94	25.30	19.00
7840.5	13.22	2.33	0.09	-999.25	0.24	76.14	0.06	0.94	28.40	51.00
7841.0	13.21	2.34	0.09	-999.25	0.25	72.47	0.06	0.94	31.50	83.00
7841.5	13.19	2.35	0.09	-999.25	0.26	68.00	0.06	0.94	31.25	49.50
7842.0	13.17	2.38	0.10	-999.25	0.27	63.54	0.06	0.94	31.00	16.00
7842.5	12.98	2.40	0.10	-999.25	0.28	61.78	0.06	0.94	31.45	23.50
7843.0	12.78	2.42	0.11	-999.25	0.29	60.02	0.05	0.95	31.90	31.00
7843.5	12.58	2.42	0.11	-999.25	0.29	57.39	0.06	0.94	28.75	73.00
7844.0	10.39	2.41	0.10	-999.25	0.28	54.76	0.06	0.94	25.60	115.00
7844.5	10.92	2.42	0.10	-999.25	0.27	50.78	0.06	0.94	24.45	167.50
7845.0	11.44	2.46	0.10	-999.25	0.27	46.76	0.07	0.93	23.30	220.00
7845.5	11.97	2.51	0.10	-999.25	0.26	42.70	0.07	0.93	26.80	131.50
7846.0	12.49	2.52	0.10	-999.25	0.26	38.64	0.08	0.92	30.30	43.00
7846.5	11.39	2.52	0.10	-999.25	0.27	41.54	0.07	0.93	31.70	34.00
7847.0	10.90	2.51	0.10	-999.25	0.28	44.45	0.07	0.93	33.10	25.00
7847.5	10.41	2.51	0.10	-999.25	0.28	47.88	0.06	0.94	32.30	151.50
7848.0	9.92	2.50	0.10	-999.25	0.28	51.33	0.06	0.94	31.50	278.00
7848.5	9.43	2.44	0.10	-999.25	0.28	53.34	0.06	0.94	31.15	160.50
7849.0	10.49	2.38	0.10	-999.25	0.28	55.37	0.06	0.94	30.80	43.00
7849.5	11.55	2.34	0.10	-999.25	0.28	59.52	0.06	0.94	28.60	25.10
7850.0	10.85	2.31	0.10	-999.25	0.28	63.70	0.06	0.94	26.40	7.20
7850.5	10.16	2.30	0.10	-999.25	0.29	75.72	0.05	0.95	26.70	25.10
7851.0	10.55	2.31	0.10	-999.25	0.30	87.60	0.04	0.96	27.00	43.00
7851.5	10.94	2.32	0.10	-999.25	0.30	97.91	0.04	0.96	29.15	26.50
7852.0	9.56	2.33	0.09	-999.25	0.31	108.23	0.04	0.96	31.30	10.00
7852.5	9.76	2.35	0.10	-999.25	0.31	107.71	0.04	0.96	32.05	130.00
7853.0	9.96	2.38	0.10	-999.25	0.31	107.19	0.04	0.96	32.80	250.00
7853.5	10.16	2.39	0.10	-999.25	0.30	104.20	0.04	0.96	33.50	134.00
7854.0	10.36	2.40	0.11	-999.25	0.30	101.21	0.04	0.96	34.20	18.00
7854.5	10.56	2.42	0.11	-999.25	0.29	101.31	0.04	0.96	34.40	18.50
7855.0	10.27	2.44	0.12	-999.25	0.29	101.42	0.04	0.96	34.60	19.00
7855.5	9.98	2.43	0.12	-999.25	0.30	101.53	0.04	0.96	33.35	22.00
7856.0	10.23	2.40	0.12	-999.25	0.30	101.65	0.04	0.96	32.10	25.00
7856.5	10.48	2.37	0.12	-999.25	0.30	104.83	0.04	0.96	28.90	25.50
7857.0	9.65	2.34	0.12	-999.25	0.30	108.00	0.04	0.96	25.70	26.00
7857.5	8.83	2.27	0.12	-999.25	0.30	107.31	0.04	0.96	29.40	29.50
7858.0	8.99	2.20	0.13	-999.25	0.30	106.57	0.04	0.96	33.10	33.00
7858.5	9.14	2.18	0.13	-999.25	0.30	102.51	0.04	0.96	33.80	30.50
7859.0	9.30	2.21	0.13	-999.25	0.31	98.45	0.04	0.96	34.50	28.00
7859.5	9.83	2.29	0.12	-999.25	0.30	91.72	0.04	0.96	35.15	55.50
7860.0	10.35	2.35	0.12	-999.25	0.30	84.96	0.04	0.96	35.80	83.00
7860.5	10.88	2.37	0.12	-999.25	0.29	81.40	0.05	0.95	34.35	57.00
7861.0	11.40	2.39	0.13	-999.25	0.29	77.83	0.05	0.95	32.90	31.00
7861.5	10.57	2.40	0.12	-999.25	0.30	71.89	0.05	0.95	33.55	34.00
7862.0	9.74	2.39	0.12	-999.25	0.30	65.68	0.05	0.95	34.20	37.00
7862.5	9.54	2.38	0.12	-999.25	0.30	59.72	0.05	0.95	33.05	102.50
7863.0	9.34	2.38	0.11	-999.25	0.30	53.80	0.05	0.95	31.90	168.00
7863.5	9.14	2.39	0.10	-999.25	0.30	52.84	0.06	0.94	32.85	96.50
7864.0	9.53	2.40	0.10	-999.25	0.29	51.89	0.06	0.94	33.80	25.00
7864.5	9.92	2.38	0.09	-999.25	0.28	51.36	0.06	0.94	31.20	22.00
7865.0	10.44	2.38	0.09	-999.25	0.27	50.83	0.06	0.94	28.60	19.00
7865.5	10.96	2.42	0.08	-999.25	0.25	49.00	0.07	0.93	24.30	99.50
7866.0	10.80	2.51	0.08	-999.25	0.23	47.32	0.08	0.92	20.00	180.00
