# LAS format log file from PETREL
# Project units are specified as depth units
#==================================================================
~Version information
VERS.   2.0:
WRAP.   NO:
#==================================================================
~Well
STRT .ft        7600.0 :
STOP .ft        8020.0 :
STEP .ft        0.5    :
NULL .          -999.25  :
COMP.           : COMPANY
WELL.  HW-3     : WELL
FLD.   COSTA    : FIELD
LOC.            : LOCATION
SRVC.           : SERVICE COMPANY
DATE.  2018-02-06 14:55:40   : Log Export Date {yyyy-MM-dd HH:mm:ss}
PROV.           : PROVINCE
UWI.   HW-3     : UNIQUE WELL ID
API.            : API NUMBER
#==================================================================
~Curve
DEPT .ft                  : DEPTH
GR .gAPI                  : GR
RHOB .g/cm3               : RHOB
NPHI .ft3/ft3             : NPHI
DT .us/ft                 : DT
PHIE .ft3/ft3             : PHIE
RT .ohm.m                 : RT
SW .                      : SW
SO . 			  : SO
CORE_POR .ft3/ft3         : CORE_POR
CORE_PERM .mD             : CORE_PERM
~Parameter
#==================================================================
~Ascii      
# ...
7866.5	11.33	2.59	0.08	-999.25	0.22	44.92	0.08	0.92	20.85	151.50
7867.0	11.22	2.63	0.08	-999.25	0.21	42.52	0.09	0.91	21.70	123.00
7867.5	11.12	2.65	0.09	-999.25	0.24	42.12	0.08	0.92	25.65	70.50
7868.0	11.02	2.71	0.09	-999.25	0.26	41.71	0.07	0.93	29.60	18.00
7868.5	10.92	2.76	0.09	-999.25	0.28	42.15	0.07	0.93	30.65	33.00
7869.0	10.82	2.76	0.10	-999.25	0.29	42.59	0.06	0.94	31.70	48.00
7869.5	11.21	2.74	0.11	-999.25	0.30	43.64	0.06	0.94	30.10	48.50
7870.0	11.61	2.75	0.12	56.03	0.31	44.69	0.06	0.94	28.50	49.00
7870.5	11.53	2.75	0.12	56.49	0.31	46.40	0.06	0.94	29.70	32.50
7871.0	11.45	2.75	0.13	56.96	0.31	48.10	0.06	0.94	30.90	16.00
7871.5	11.37	2.76	0.13	56.92	0.31	46.81	0.06	0.94	30.90	15.00
7872.0	11.29	2.76	0.14	56.88	0.31	45.51	0.06	0.94	30.90	14.00
7872.5	11.01	2.76	0.13	56.56	0.31	42.21	0.06	0.94	32.90	54.00
7873.0	10.72	2.76	0.13	56.25	0.31	38.93	0.06	0.94	34.90	94.00
7873.5	10.44	2.76	0.13	56.13	0.31	35.25	0.07	0.93	32.30	119.00
7874.0	9.80	2.76	0.12	56.02	0.31	31.60	0.07	0.93	29.70	144.00
7874.5	9.16	2.75	0.12	55.80	0.31	28.85	0.07	0.93	30.20	567.00
7875.0	8.52	2.74	0.12	55.59	0.31	26.08	0.08	0.92	30.70	990.00
7875.5	9.31	2.74	0.12	55.46	0.31	24.32	0.08	0.92	28.25	525.50
7876.0	9.03	2.75	0.12	55.33	0.31	22.57	0.08	0.92	25.80	61.00
7876.5	8.75	2.76	0.12	55.31	0.31	22.40	0.08	0.92	28.85	314.00
7877.0	8.46	2.76	0.12	55.29	0.31	22.42	0.08	0.92	31.90	567.00
7877.5	8.45	2.76	0.12	55.38	0.30	24.18	0.08	0.92	31.45	653.50
7878.0	8.44	2.75	0.12	55.46	0.30	25.94	0.08	0.92	31.00	740.00
7878.5	8.43	2.75	0.12	55.61	0.30	28.03	0.08	0.92	32.75	388.50
7879.0	8.42	2.75	0.12	55.76	0.30	30.11	0.07	0.93	34.50	37.00
7879.5	8.28	2.75	0.12	56.25	0.30	32.94	0.07	0.93	33.15	22.80
7880.0	8.13	2.73	0.12	56.74	0.29	35.78	0.07	0.93	31.80	8.60
7880.5	8.86	2.69	0.12	58.21	0.30	36.29	0.07	0.93	31.65	13.80
7881.0	9.59	2.64	0.12	59.67	0.30	36.80	0.07	0.93	31.50	19.00
7881.5	10.32	2.59	0.12	62.01	0.31	36.60	0.07	0.93	32.55	19.00
7882.0	11.05	2.54	0.11	64.34	0.32	36.40	0.06	0.94	33.60	19.00
7882.5	10.09	2.52	0.11	66.46	0.32	36.24	0.06	0.94	33.80	56.50
7883.0	9.13	2.51	0.12	68.58	0.33	36.09	0.06	0.94	34.00	94.00
7883.5	9.50	2.50	0.12	69.51	0.33	35.93	0.06	0.94	32.50	66.00
7884.0	9.86	2.49	0.12	70.43	0.32	35.78	0.06	0.94	31.00	38.00
7884.5	10.23	2.48	0.11	70.58	0.31	34.64	0.07	0.93	31.75	31.50
7885.0	10.60	2.47	0.11	70.74	0.31	33.49	0.07	0.93	32.50	25.00
7885.5	10.97	2.47	0.11	69.76	0.30	31.58	0.07	0.93	32.05	19.00
7886.0	10.82	2.48	0.10	68.78	0.30	29.67	0.07	0.93	31.60	13.00
7886.5	10.66	2.49	0.10	67.79	0.30	28.65	0.08	0.92	32.60	14.50
7887.0	11.06	2.51	0.10	66.81	0.30	27.63	0.08	0.92	33.60	16.00
7887.5	11.46	2.54	0.10	65.75	0.29	29.57	0.08	0.92	32.60	15.50
7888.0	10.63	2.57	0.11	64.68	0.28	31.51	0.08	0.92	31.60	15.00
7888.5	9.81	2.59	0.11	63.61	0.27	35.89	0.08	0.92	30.20	11.80
7889.0	9.89	2.60	0.11	62.55	0.25	40.29	0.08	0.92	28.80	8.60
7889.5	9.97	2.61	0.11	61.51	0.24	42.08	0.08	0.92	30.25	13.80
7890.0	10.05	2.61	0.10	60.48	0.22	43.87	0.08	0.92	31.70	19.00
7890.5	10.44	2.61	0.10	60.08	0.22	41.91	0.08	0.92	29.40	13.10
7891.0	10.83	2.62	0.10	59.68	0.22	39.99	0.09	0.91	27.10	7.20
7891.5	11.22	2.61	0.10	61.17	0.24	37.45	0.08	0.92	24.25	6.60
7892.0	11.62	2.60	0.11	62.65	0.25	34.91	0.08	0.92	21.40	6.00
7892.5	11.24	2.56	0.11	64.93	0.27	31.11	0.08	0.92	24.85	8.00
7893.0	10.87	2.53	0.11	67.22	0.29	27.29	0.08	0.92	28.30	10.00
7893.5	10.50	2.49	0.11	68.93	0.30	25.86	0.08	0.92	26.10	9.30
7894.0	10.82	2.47	0.12	70.65	0.30	24.43	0.08	0.92	23.90	8.60
7894.5	11.15	2.44	0.11	71.92	0.31	26.23	0.08	0.92	28.20	17.30
7895.0	11.48	2.42	0.11	73.18	0.31	28.01	0.07	0.93	32.50	26.00
7895.5	11.81	2.39	0.10	74.46	0.31	29.60	0.07	0.93	32.20	17.30
7896.0	11.45	2.36	0.10	75.73	0.31	31.18	0.07	0.93	31.90	8.60
7896.5	11.37	2.33	0.10	77.96	0.31	32.77	0.07	0.93	31.90	12.30
7897.0	11.30	2.32	0.11	80.18	0.31	34.35	0.07	0.93	31.90	16.00
7897.5	11.22	2.31	0.11	82.57	0.30	33.67	0.07	0.93	32.10	15.00
7898.0	11.39	2.31	0.11	84.96	0.30	33.00	0.07	0.93	32.30	14.00
7898.5	11.55	2.32	0.12	86.03	0.30	32.28	0.07	0.93	32.55	12.50
7899.0	11.72	2.34	0.12	87.11	0.30	31.55	0.07	0.93	32.80	11.00
7899.5	11.62	2.36	0.12	87.19	0.30	31.43	0.07	0.93	33.20	12.50
7900.0	11.51	2.37	0.12	87.27	0.31	31.31	0.07	0.93	33.60	14.00
7900.5	11.41	2.37	0.13	87.40	0.31	31.19	0.07	0.93	33.50	12.00
7901.0	11.58	2.35	0.13	87.52	0.32	31.07	0.07	0.93	33.40	10.00
7901.5	11.75	2.32	0.13	87.94	0.31	30.92	0.07	0.93	33.00	9.30
7902.0	11.91	2.28	0.14	88.36	0.31	30.77	0.07	0.93	32.60	8.60
7902.5	11.69	2.26	0.14	88.09	0.31	30.31	0.07	0.93	33.00	9.30
7903.0	11.46	2.26	0.14	87.82	0.32	29.84	0.07	0.93	33.40	10.00
7903.5	11.23	2.28	0.14	87.96	0.32	29.37	0.07	0.93	32.30	10.00
7904.0	11.01	2.28	0.14	88.09	0.32	28.90	0.07	0.93	31.20	10.00
7904.5	10.78	2.27	0.14	88.12	0.32	28.74	0.07	0.93	31.95	9.30
7905.0	11.31	2.28	0.14	88.15	0.32	28.59	0.07	0.93	32.70	8.60
7905.5	11.84	2.30	0.13	88.67	0.32	28.46	0.07	0.93	32.30	8.60
7906.0	12.36	2.33	0.13	89.19	0.32	28.33	0.07	0.93	31.90	8.60
7906.5	11.00	2.34	0.13	89.65	0.31	27.60	0.07	0.93	31.10	9.30
7907.0	9.64	2.35	0.14	90.11	0.31	26.86	0.08	0.92	30.30	10.00
7907.5	9.76	2.36	0.13	90.36	0.31	25.60	0.08	0.92	31.00	10.00
7908.0	9.88	2.36	0.13	90.62	0.30	24.34	0.08	0.92	31.70	10.00
7908.5	9.80	2.36	0.13	89.90	0.30	24.15	0.08	0.92	31.05	14.50
7909.0	9.72	2.37	0.13	89.19	0.30	23.96	0.08	0.92	30.40	19.00
7909.5	9.65	2.37	0.13	88.58	0.29	24.26	0.09	0.91	31.40	13.80
7910.0	9.57	2.38	0.13	87.97	0.28	24.56	0.09	0.91	32.40	8.60
7910.5	9.74	2.38	0.13	87.70	0.27	24.96	0.09	0.91	31.30	6.70
7911.0	9.91	2.38	0.13	87.43	0.26	25.36	0.10	0.90	30.20	4.80
7911.5	10.08	2.37	0.13	87.45	0.25	26.50	0.10	0.90	28.85	4.15
7912.0	10.47	2.36	0.13	87.47	0.23	27.64	0.10	0.90	27.50	3.50
7912.5	10.86	2.35	0.12	87.94	0.23	28.25	0.10	0.90	25.50	2.85
7913.0	11.25	2.34	0.12	88.42	0.23	28.86	0.10	0.90	23.50	2.20
7913.5	11.65	2.34	0.12	88.67	0.22	28.48	0.10	0.90	24.45	2.55
7914.0	11.64	2.33	0.12	88.91	0.22	28.10	0.10	0.90	25.40	2.90
7914.5	11.62	2.32	0.12	89.07	0.22	27.71	0.11	0.89	26.25	3.35
7915.0	11.61	2.32	0.12	89.23	0.22	27.33	0.11	0.89	27.10	3.80
7915.5	10.25	2.32	0.13	89.27	0.23	25.85	0.10	0.90	29.65	6.20
7916.0	10.10	2.34	0.13	89.31	0.24	24.38	0.10	0.90	32.20	8.60
7916.5	9.96	2.35	0.14	88.55	0.25	23.68	0.10	0.90	32.15	7.90
7917.0	10.00	2.36	0.14	87.79	0.26	22.98	0.10	0.90	32.10	7.20
7917.5	10.04	2.36	0.14	87.56	0.27	22.94	0.09	0.91	31.65	8.60
7918.0	10.08	2.36	0.14	87.34	0.28	22.89	0.09	0.91	31.20	10.00
7918.5	10.12	2.36	0.15	85.85	0.29	22.85	0.09	0.91	30.60	8.00
7919.0	10.17	2.35	0.16	84.37	0.30	22.81	0.08	0.92	30.00	6.00
7919.5	10.22	2.36	0.16	82.03	0.31	22.18	0.08	0.92	30.80	6.60
7920.0	10.28	2.39	0.17	79.68	0.31	21.54	0.08	0.92	31.60	7.20
7920.5	10.33	2.44	0.17	77.70	0.31	20.62	0.09	0.91	30.15	25.10
7921.0	10.39	2.47	0.17	75.72	0.31	19.70	0.09	0.91	28.70	43.00
7921.5	10.71	2.45	0.17	76.40	0.30	17.86	0.10	0.90	29.80	38.00
7922.0	11.04	2.40	0.17	77.07	0.30	16.00	0.10	0.90	30.90	33.00
7922.5	11.36	2.34	0.17	78.74	0.30	16.98	0.10	0.90	30.45	19.50
7923.0	11.68	2.32	0.16	80.42	0.30	17.95	0.10	0.90	30.00	6.00
7923.5	11.40	2.34	0.16	82.44	0.30	19.27	0.09	0.91	32.05	7.30
7924.0	11.12	2.39	0.15	84.46	0.30	20.59	0.09	0.91	34.10	8.60
7924.5	10.84	2.43	0.15	85.97	0.30	20.97	0.09	0.91	31.40	7.30
7925.0	10.56	2.43	0.14	87.48	0.30	21.35	0.09	0.91	28.70	6.00
7925.5	10.64	2.39	0.14	88.37	0.30	21.30	0.09	0.91	30.75	6.60
7926.0	10.72	2.35	0.14	89.26	0.30	21.25	0.09	0.91	32.80	7.20
7926.5	10.80	2.33	0.14	89.81	0.30	21.21	0.09	0.91	32.55	8.60
7927.0	10.52	2.34	0.14	90.37	0.29	21.16	0.09	0.91	32.30	10.00
7927.5	10.23	2.34	0.14	90.06	0.30	21.74	0.09	0.91	24.30	10.00
7928.0	9.95	2.36	0.14	89.76	0.30	22.31	0.09	0.91	16.30	10.00
7928.5	9.66	2.37	0.14	89.46	0.30	22.94	0.09	0.91	24.55	9.30
7929.0	9.20	2.37	0.15	89.16	0.30	23.57	0.08	0.92	32.80	8.60
7929.5	8.74	2.37	0.15	88.81	0.29	24.13	0.08	0.92	32.70	7.90
7930.0	8.28	2.39	0.15	88.46	0.29	24.68	0.09	0.91	32.60	7.20
7930.5	8.81	2.40	0.15	88.06	0.29	24.17	0.09	0.91	32.55	7.90
7931.0	9.34	2.40	0.16	87.66	0.29	23.65	0.09	0.91	32.50	8.60
7931.5	10.05	2.39	0.15	88.26	0.29	23.14	0.09	0.91	32.20	7.90
