# LAS format log file from PETREL
# Project units are specified as depth units
#==================================================================
~Version information
VERS.   2.0:
WRAP.   NO:
#==================================================================
~Well
STRT .ft        8050.0 :
STOP .ft        8330.0 :
STEP .ft        0.5    :
NULL .          -999.25  :
COMP.           : COMPANY
WELL.  HW-4     : WELL
FLD.   COSTA    : FIELD
LOC.            : LOCATION
SRVC.           : SERVICE COMPANY
DATE.  2018-02-06 14:55:39   : Log Export Date {yyyy-MM-dd HH:mm:ss}
PROV.           : PROVINCE
UWI.   HW-4     : UNIQUE WELL ID
API.            : API NUMBER
#==================================================================
~Curve
DEPT .ft                  : DEPTH
GR .gAPI                  : GR
RHOB .g/cm3               : RHOB
NPHI .ft3/ft3             : NPHI
DT .us/ft                 : DT
PHIE .ft3/ft3             : PHIE
RT .ohm.m                 : RT
SW .                      : SW
SO . 			  : SO
CORE_POR .ft3/ft3         : CORE_POR
CORE_PERM .mD             : CORE_PERM
~Parameter
#==================================================================
~Ascii
# ...
8272.0	13.00	2.35	0.20	-999.25	0.21	0.34	0.98	0.02	30.30	3.50
8272.5	13.00	2.35	0.20	-999.25	0.21	0.29	-999.25	-999.25	25.30	4.90
8273.0	13.00	2.32	0.20	-999.25	0.22	0.29	-999.25	-999.25	20.30	6.30
8273.5	14.00	2.32	0.20	-999.25	0.22	0.30	-999.25	-999.25	20.95	4.55
8274.0	15.00	2.31	0.19	-999.25	0.22	0.32	0.98	0.02	21.60	2.80
8274.5	14.00	2.32	0.19	-999.25	0.22	0.35	0.94	0.06	20.50	2.25
8275.0	14.00	2.33	0.19	-999.25	0.22	0.37	0.93	0.07	19.40	1.70
8275.5	15.00	2.34	0.19	-999.25	0.21	0.38	0.96	0.04	16.70	0.99
8276.0	16.00	2.37	0.18	-999.25	0.19	0.39	-999.25	-999.25	14.00	0.28
8276.5	15.00	2.40	0.17	-999.25	0.18	0.39	-999.25	-999.25	15.75	0.63
8277.0	13.00	2.43	0.16	-999.25	0.17	0.38	-999.25	-999.25	17.50	0.98
8277.5	12.00	2.39	0.16	-999.25	0.18	0.36	-999.25	-999.25	19.25	1.59
8278.0	12.00	2.36	0.17	-999.25	0.19	0.34	-999.25	-999.25	21.00	2.20
8278.5	12.00	2.35	0.18	-999.25	0.20	0.31	-999.25	-999.25	21.20	2.25
8279.0	12.00	2.34	0.19	-999.25	0.21	0.29	-999.25	-999.25	21.40	2.30
8279.5	12.00	2.34	0.20	-999.25	0.22	0.27	-999.25	-999.25	21.85	2.45
8280.0	12.00	2.31	0.20	-999.25	0.22	0.25	-999.25	-999.25	22.30	2.60
8280.5	13.00	2.29	0.20	-999.25	0.23	0.25	-999.25	-999.25	21.80	2.45
8281.0	13.00	2.30	0.20	-999.25	0.23	0.24	-999.25	-999.25	21.30	2.30
8281.5	12.00	2.30	0.20	-999.25	0.23	0.24	-999.25	-999.25	21.70	2.40
8282.0	13.00	2.29	0.20	-999.25	0.23	0.25	-999.25	-999.25	22.10	2.50
8282.5	13.00	2.30	0.20	-999.25	0.23	0.25	-999.25	-999.25	21.60	2.40
8283.0	12.00	2.30	0.20	-999.25	0.23	0.26	-999.25	-999.25	21.10	2.30
8283.5	12.00	2.31	0.20	-999.25	0.22	0.26	-999.25	-999.25	19.85	2.55
8284.0	12.00	2.31	0.20	-999.25	0.22	0.27	-999.25	-999.25	18.60	2.80
8284.5	12.00	2.34	0.20	-999.25	0.22	0.28	-999.25	-999.25	18.60	2.60
8285.0	13.00	2.36	0.20	-999.25	0.21	0.29	-999.25	-999.25	18.60	2.40
8285.5	13.00	2.36	0.19	-999.25	0.21	0.32	-999.25	-999.25	19.95	2.30
8286.0	14.00	2.36	0.19	-999.25	0.20	0.33	-999.25	-999.25	21.30	2.20
8286.5	13.00	2.38	0.19	-999.25	0.20	0.32	-999.25	-999.25	20.10	1.80
8287.0	12.00	2.36	0.19	-999.25	0.20	0.31	-999.25	-999.25	18.90	1.40
8287.5	11.00	2.34	0.19	-999.25	0.20	0.33	-999.25	-999.25	18.05	1.02
8288.0	11.00	2.34	0.18	-999.25	0.20	0.36	-999.25	-999.25	17.20	0.65
8288.5	11.00	2.36	0.16	-999.25	0.19	0.41	-999.25	-999.25	15.95	0.53
8289.0	11.00	2.39	0.15	-999.25	0.17	0.48	-999.25	-999.25	14.70	0.41
8289.5	12.00	2.42	0.13	-999.25	0.15	0.57	-999.25	-999.25	13.45	0.29
8290.0	14.00	2.44	0.12	-999.25	0.14	0.67	-999.25	-999.25	12.20	0.18
8290.5	15.00	2.47	0.10	-999.25	0.12	0.76	-999.25	-999.25	9.50	0.11
8291.0	15.00	2.49	0.09	-999.25	0.11	0.82	-999.25	-999.25	6.80	0.03
8291.5	13.00	2.51	0.09	-999.25	0.11	0.83	-999.25	-999.25	8.70	0.09
8292.0	13.00	2.48	0.10	-999.25	0.12	0.79	-999.25	-999.25	10.60	0.15
8292.5	12.00	2.46	0.11	-999.25	0.13	0.74	-999.25	-999.25	12.60	0.20
8293.0	13.00	2.44	0.12	-999.25	0.14	0.70	-999.25	-999.25	14.60	0.26
8293.5	12.00	2.42	0.13	-999.25	0.15	0.65	-999.25	-999.25	13.90	0.25
8294.0	11.00	2.40	0.13	-999.25	0.16	0.63	0.99	0.01	13.20	0.25
8294.5	10.00	2.40	0.13	-999.25	0.16	0.64	0.97	0.03	13.80	0.30
8295.0	10.00	2.40	0.12	-999.25	0.15	0.67	0.97	0.03	14.40	0.34
8295.5	11.00	2.41	0.12	-999.25	0.15	0.71	0.99	0.01	13.30	0.34
8296.0	12.00	2.43	0.11	-999.25	0.14	0.78	-999.25	-999.25	12.20	0.35
8296.5	12.00	2.44	0.10	-999.25	0.13	0.84	-999.25	-999.25	11.25	0.23
8297.0	14.00	2.48	0.10	-999.25	0.12	0.90	-999.25	-999.25	10.30	0.11
8297.5	13.00	2.49	0.09	-999.25	0.11	0.95	-999.25	-999.25	8.95	0.09
8298.0	12.00	2.50	0.09	-999.25	0.10	0.96	-999.25	-999.25	7.60	0.06
8298.5	10.00	2.53	0.09	-999.25	0.10	0.95	-999.25	-999.25	7.45	0.05
8299.0	11.00	2.55	0.10	-999.25	0.10	0.95	-999.25	-999.25	7.30	0.05
8299.5	13.00	2.52	0.10	-999.25	0.11	0.93	-999.25	-999.25	9.05	0.11
8300.0	14.00	2.50	0.11	-999.25	0.11	0.91	-999.25	-999.25	10.80	0.17
8300.5	13.00	2.49	0.11	-999.25	0.12	0.90	-999.25	-999.25	12.60	0.40
8301.0	12.00	2.50	0.11	-999.25	0.12	0.89	-999.25	-999.25	14.40	0.63
8301.5	12.00	2.50	0.11	-999.25	0.12	0.89	-999.25	-999.25	11.30	0.42
8302.0	13.00	2.50	0.11	-999.25	0.11	0.90	-999.25	-999.25	8.20	0.22
8302.5	13.00	2.51	0.10	-999.25	0.11	0.90	-999.25	-999.25	10.40	0.47
8303.0	14.00	2.52	0.10	-999.25	0.11	0.90	-999.25	-999.25	12.60	0.72
8303.5	15.00	2.51	0.09	-999.25	0.11	0.88	-999.25	-999.25	11.65	0.47
8304.0	14.00	2.49	0.10	-999.25	0.11	0.86	-999.25	-999.25	10.70	0.21
8304.5	13.00	2.47	0.10	-999.25	0.12	0.83	-999.25	-999.25	11.35	0.16
8305.0	11.00	2.46	0.11	-999.25	0.13	0.80	-999.25	-999.25	12.00	0.10
8305.5	10.00	2.47	0.11	-999.25	0.13	0.77	-999.25	-999.25	12.50	0.13
8306.0	9.00	2.47	0.11	-999.25	0.13	0.77	-999.25	-999.25	13.00	0.15
8306.5	9.00	2.47	0.11	-999.25	0.12	0.79	-999.25	-999.25	11.95	0.11
8307.0	10.00	2.46	0.09	-999.25	0.12	0.84	-999.25	-999.25	10.90	0.08
8307.5	11.00	2.48	0.08	-999.25	0.10	0.94	-999.25	-999.25	9.75	0.07
8308.0	12.00	2.52	0.07	-999.25	0.09	1.10	-999.25	-999.25	8.60	0.06
8308.5	13.00	2.54	0.06	-999.25	0.07	1.20	-999.25	-999.25	8.60	0.06
8309.0	13.00	2.57	0.05	-999.25	0.06	1.48	-999.25	-999.25	8.60	0.06
8309.5	13.00	2.60	0.04	-999.25	0.04	1.74	-999.25	-999.25	5.75	0.04
8310.0	12.00	2.63	0.03	-999.25	0.03	1.96	-999.25	-999.25	2.90	0.02
8310.5	13.00	2.67	0.03	-999.25	0.03	2.09	-999.25	-999.25	2.35	0.02
8311.0	14.00	2.66	0.03	-999.25	0.03	2.11	-999.25	-999.25	1.80	0.01
8311.5	14.00	2.65	0.03	-999.25	0.04	2.05	-999.25	-999.25	2.00	0.01
8312.0	12.00	2.62	0.04	-999.25	0.05	1.92	-999.25	-999.25	2.20	0.01
8312.5	12.00	2.59	0.05	-999.25	0.06	1.77	-999.25	-999.25	1.85	0.01
8313.0	12.00	2.57	0.06	-999.25	0.06	1.64	-999.25	-999.25	1.50	0.01
8313.5	11.00	2.55	0.06	-999.25	0.07	1.54	-999.25	-999.25	2.60	0.02
8314.0	11.00	2.56	0.06	-999.25	0.07	1.48	-999.25	-999.25	3.70	0.03
8314.5	13.00	2.53	0.06	-999.25	0.08	1.47	-999.25	-999.25	5.50	0.04
8315.0	14.00	2.52	0.06	-999.25	0.08	1.53	-999.25	-999.25	7.30	0.06
8315.5	14.00	2.52	0.05	-999.25	0.07	1.61	-999.25	-999.25	7.20	0.04
8316.0	15.00	2.55	0.04	-999.25	0.06	1.77	-999.25	-999.25	7.10	0.03
8316.5	17.00	2.58	0.03	-999.25	0.04	1.98	-999.25	-999.25	5.60	0.02
8317.0	21.00	2.63	0.02	-999.25	0.03	2.23	-999.25	-999.25	4.10	0.01
8317.5	25.00	2.66	0.02	-999.25	0.02	2.53	-999.25	-999.25	2.60	0.01
8318.0	29.00	2.68	0.02	-999.25	0.01	2.86	-999.25	-999.25	1.10	0.01
8318.5	33.00	2.70	0.02	-999.25	0.01	3.16	-999.25	-999.25	0.75	0.01
8319.0	32.00	2.71	0.01	-999.25	0.00	3.43	-999.25	-999.25	0.40	0.01
8319.5	32.00	2.68	0.01	-999.25	0.00	3.63	-999.25	-999.25	0.40	0.02
8320.0	34.00	2.67	0.01	-999.25	0.01	3.80	-999.25	-999.25	0.40	0.02
8320.5	32.00	2.66	0.01	-999.25	0.01	3.91	-999.25	-999.25	0.55	0.02
8321.0	32.00	2.67	0.01	-999.25	0.01	3.94	-999.25	-999.25	0.70	0.02
8321.5	31.00	2.67	0.00	-999.25	0.01	3.98	-999.25	-999.25	-999.25	-999.25
8322.0	30.00	2.64	0.00	-999.25	0.01	4.02	-999.25	-999.25	-999.25	-999.25
8322.5	31.00	2.64	0.00	-999.25	0.01	3.98	-999.25	-999.25	-999.25	-999.25
8323.0	33.00	2.66	0.00	-999.25	0.01	3.94	-999.25	-999.25	-999.25	-999.25
8323.5	33.00	2.67	0.01	-999.25	0.01	3.87	-999.25	-999.25	-999.25	-999.25
8324.0	33.00	2.69	0.01	-999.25	0.00	3.84	-999.25	-999.25	-999.25	-999.25
8324.5	33.00	2.70	0.01	-999.25	0.00	3.80	-999.25	-999.25	-999.25	-999.25
8325.0	34.00	2.69	0.01	-999.25	0.00	3.80	-999.25	-999.25	-999.25	-999.25
8325.5	35.00	2.68	0.02	-999.25	0.00	3.80	-999.25	-999.25	-999.25	-999.25
8326.0	35.00	2.68	0.02	-999.25	0.00	3.84	-999.25	-999.25	-999.25	-999.25
8326.5	34.00	2.68	0.01	-999.25	0.00	3.84	-999.25	-999.25	-999.25	-999.25
8327.0	33.00	2.68	0.01	-999.25	0.00	3.84	-999.25	-999.25	-999.25	-999.25
8327.5	33.00	2.66	0.00	-999.25	0.01	3.87	-999.25	-999.25	-999.25	-999.25
8328.0	35.00	2.65	0.00	-999.25	0.01	3.91	-999.25	-999.25	-999.25	-999.25
8328.5	35.00	2.66	0.00	-999.25	0.01	3.94	-999.25	-999.25	-999.25	-999.25
8329.0	35.00	2.67	0.00	-999.25	0.01	3.94	-999.25	-999.25	-999.25	-999.25
8329.5	35.00	2.66	0.00	-999.25	0.01	3.98	-999.25	-999.25	-999.25	-999.25
8330.0	34.00	2.67	0.00	-999.25	0.01	3.98	-999.25	-999.25	-999.25	-999.25                                                                                               
