# LAS format log file from PETREL
# Project units are specified as depth units
#==================================================================
~Version information
VERS.   2.0:
WRAP.   NO:
#==================================================================
~Well
STRT .ft        8050.0 :
STOP .ft        8330.0 :
STEP .ft        0.5    :
NULL .          -999.25  :
COMP.           : COMPANY
WELL.  HW-4     : WELL
FLD.   COSTA    : FIELD
LOC.            : LOCATION
SRVC.           : SERVICE COMPANY
DATE.  2018-02-06 14:55:39   : Log Export Date {yyyy-MM-dd HH:mm:ss}
PROV.           : PROVINCE
UWI.   HW-4     : UNIQUE WELL ID
API.            : API NUMBER
#==================================================================
~Curve
DEPT .ft                  : DEPTH
GR .gAPI                  : GR
RHOB .g/cm3               : RHOB
NPHI .ft3/ft3             : NPHI
DT .us/ft                 : DT
PHIE .ft3/ft3             : PHIE
RT .ohm.m                 : RT
SW .                      : SW
SO . 			  : SO
CORE_POR .ft3/ft3         : CORE_POR
CORE_PERM .mD             : CORE_PERM
~Parameter
#==================================================================
~Ascii
8150.0	44.00	2.68	0.10	-999.25	0.01	3.06	-999.25	-999.25	-999.25	-999.25
8150.5	41.00	2.67	0.08	-999.25	0.01	3.08	-999.25	-999.25	-999.25	-999.25
8151.0	38.00	2.68	0.06	-999.25	0.01	3.12	-999.25	-999.25	-999.25	-999.25
8151.5	34.00	2.68	0.04	-999.25	0.01	3.19	-999.25	-999.25	-999.25	-999.25
8152.0	30.00	2.68	0.03	-999.25	0.01	3.29	-999.25	-999.25	-999.25	-999.25
8152.5	31.00	2.69	0.02	-999.25	0.01	3.43	-999.25	-999.25	-999.25	-999.25
8153.0	31.00	2.68	0.02	-999.25	0.01	3.53	-999.25	-999.25	-999.25	-999.25
8153.5	29.00	2.66	0.02	-999.25	0.01	3.66	-999.25	-999.25	-999.25	-999.25
8154.0	27.00	2.67	0.02	-999.25	0.01	3.74	-999.25	-999.25	-999.25	-999.25
8154.5	30.00	2.66	0.02	-999.25	0.01	3.77	-999.25	-999.25	-999.25	-999.25
8155.0	32.00	2.66	0.02	-999.25	0.01	3.81	-999.25	-999.25	-999.25	-999.25
8155.5	32.00	2.66	0.02	-999.25	0.01	3.84	-999.25	-999.25	-999.25	-999.25
8156.0	32.00	2.67	0.02	-999.25	0.01	3.88	-999.25	-999.25	-999.25	-999.25
8156.5	30.00	2.67	0.01	-999.25	0.01	3.91	-999.25	-999.25	-999.25	-999.25
8157.0	29.00	2.68	0.01	-999.25	0.01	3.91	-999.25	-999.25	-999.25	-999.25
8157.5	29.00	2.69	0.01	-999.25	0.01	3.94	-999.25	-999.25	-999.25	-999.25
8158.0	30.00	2.67	0.01	-999.25	0.01	3.94	-999.25	-999.25	-999.25	-999.25
8158.5	32.00	2.66	0.01	-999.25	0.01	3.94	-999.25	-999.25	-999.25	-999.25
8159.0	32.00	2.66	0.01	-999.25	0.00	3.94	-999.25	-999.25	-999.25	-999.25
8159.5	30.00	2.67	0.01	-999.25	0.00	3.94	-999.25	-999.25	-999.25	-999.25
8160.0	29.00	2.68	0.01	-999.25	0.00	3.94	-999.25	-999.25	-999.25	-999.25
8160.5	28.00	2.69	0.01	-999.25	0.00	3.90	-999.25	-999.25	-999.25	-999.25
8161.0	29.00	2.69	0.01	-999.25	0.00	3.87	-999.25	-999.25	-999.25	-999.25
8161.5	30.00	2.68	0.01	-999.25	0.00	3.87	-999.25	-999.25	-999.25	-999.25
8162.0	32.00	2.66	0.01	-999.25	0.00	3.87	-999.25	-999.25	-999.25	-999.25
8162.5	34.00	2.63	0.01	-999.25	0.00	3.87	-999.25	-999.25	-999.25	-999.25
8163.0	32.00	2.64	0.01	-999.25	0.00	3.87	-999.25	-999.25	-999.25	-999.25
8163.5	32.00	2.66	0.01	-999.25	0.00	3.87	-999.25	-999.25	-999.25	-999.25
8164.0	33.00	2.68	0.01	-999.25	0.00	3.87	-999.25	-999.25	-999.25	-999.25
8164.5	32.00	2.68	0.01	-999.25	0.00	3.88	-999.25	-999.25	-999.25	-999.25
8165.0	33.00	2.68	0.01	-999.25	0.00	3.91	-999.25	-999.25	-999.25	-999.25
8165.5	33.00	2.67	0.01	-999.25	0.00	3.91	-999.25	-999.25	-999.25	-999.25
8166.0	31.00	2.69	0.01	-999.25	0.00	3.94	-999.25	-999.25	-999.25	-999.25
8166.5	29.00	2.70	0.01	-999.25	0.00	3.93	-999.25	-999.25	-999.25	-999.25
8167.0	26.00	2.69	0.01	-999.25	0.00	3.86	-999.25	-999.25	-999.25	-999.25
8167.5	23.00	2.68	0.01	-999.25	0.01	3.75	-999.25	-999.25	-999.25	-999.25
8168.0	22.00	2.65	0.02	-999.25	0.02	3.57	-999.25	-999.25	0.40	0.10
8168.5	21.00	2.62	0.04	-999.25	0.04	3.32	-999.25	-999.25	3.55	4.65
8169.0	20.00	2.59	0.05	-999.25	0.06	3.03	-999.25	-999.25	6.70	9.20
8169.5	17.00	2.54	0.07	-999.25	0.08	2.76	0.93	0.07	8.05	4.75
8170.0	17.00	2.53	0.09	-999.25	0.09	2.54	0.83	0.17	9.40	0.31
8170.5	17.00	2.51	0.09	-999.25	0.10	2.32	0.80	0.20	10.55	1.11
8171.0	16.00	2.50	0.09	-999.25	0.11	2.16	0.79	0.21	11.70	1.90
8171.5	16.00	2.47	0.09	-999.25	0.11	2.07	0.79	0.21	10.30	0.99
8172.0	17.00	2.46	0.08	-999.25	0.11	2.03	0.79	0.21	8.90	0.07
8172.5	17.00	2.47	0.08	-999.25	0.10	2.03	0.82	0.18	8.75	0.09
8173.0	19.00	2.48	0.07	-999.25	0.10	2.07	0.85	0.15	8.60	0.12
8173.5	20.00	2.49	0.07	-999.25	0.09	2.17	0.90	0.10	10.95	29.56
8174.0	21.00	2.51	0.06	-999.25	0.08	2.31	-999.25	-999.25	13.30	59.00
8174.5	20.00	2.54	0.05	-999.25	0.06	2.49	-999.25	-999.25	11.10	43.50
8175.0	19.00	2.58	0.03	-999.25	0.04	2.74	-999.25	-999.25	8.90	28.00
8175.5	20.00	2.62	0.02	-999.25	0.03	2.99	-999.25	-999.25	5.95	14.01
8176.0	21.00	2.63	0.02	-999.25	0.03	3.19	-999.25	-999.25	3.00	0.03
8176.5	20.00	2.64	0.02	-999.25	0.03	3.32	-999.25	-999.25	2.20	0.20
8177.0	18.00	2.62	0.03	-999.25	0.04	3.36	-999.25	-999.25	1.40	0.36
8177.5	16.00	2.58	0.05	-999.25	0.06	3.34	-999.25	-999.25	2.65	0.31
8178.0	14.00	2.55	0.06	-999.25	0.08	3.33	0.89	0.11	3.90	0.25
8178.5	13.00	2.51	0.08	-999.25	0.09	3.24	0.73	0.27	6.30	0.23
8179.0	12.00	2.47	0.10	-999.25	0.11	3.07	0.62	0.38	8.70	0.21
8179.5	13.00	2.44	0.11	-999.25	0.13	2.87	0.56	0.44	10.50	16.60
8180.0	13.00	2.43	0.11	-999.25	0.14	2.65	0.54	0.46	12.30	33.00
8180.5	13.00	2.40	0.12	-999.25	0.15	2.39	0.53	0.47	12.65	18.85
8181.0	14.00	2.40	0.13	-999.25	0.16	2.13	0.53	0.47	13.00	4.70
8181.5	13.00	2.38	0.14	-999.25	0.17	1.87	0.53	0.47	14.05	3.75
8182.0	12.00	2.36	0.15	-999.25	0.18	1.60	0.53	0.47	15.10	2.80
8182.5	12.00	2.34	0.17	-999.25	0.20	1.32	0.54	0.46	14.90	2.25
8183.0	12.00	2.33	0.18	-999.25	0.21	1.08	0.56	0.44	14.70	1.70
8183.5	12.00	2.32	0.19	-999.25	0.22	0.90	0.60	0.40	16.70	8.35
8184.0	12.00	2.32	0.20	-999.25	0.22	0.74	0.65	0.35	18.70	15.00
8184.5	11.00	2.31	0.21	-999.25	0.23	0.62	0.69	0.31	20.70	43.00
8185.0	12.00	2.30	0.21	-999.25	0.23	0.54	0.72	0.28	22.70	71.00
8185.5	12.00	2.29	0.21	-999.25	0.23	0.49	0.75	0.25	23.20	59.50
8186.0	12.00	2.29	0.21	-999.25	0.23	0.44	0.78	0.22	23.70	48.00
8186.5	12.00	2.30	0.21	-999.25	0.23	0.40	0.82	0.18	22.70	67.00
8187.0	12.00	2.29	0.21	-999.25	0.23	0.39	0.84	0.16	21.70	86.00
8187.5	11.00	2.30	0.21	-999.25	0.23	0.39	0.84	0.16	20.45	44.30
8188.0	11.00	2.28	0.21	-999.25	0.23	0.40	0.83	0.17	19.20	2.60
8188.5	11.00	2.31	0.20	-999.25	0.22	0.43	0.83	0.17	20.65	91.80
8189.0	10.00	2.32	0.19	-999.25	0.22	0.47	0.82	0.18	22.10	181.00
8189.5	11.00	2.32	0.19	-999.25	0.21	0.53	0.79	0.21	21.40	110.00
8190.0	11.00	2.33	0.18	-999.25	0.21	0.61	0.76	0.24	20.70	39.00
8190.5	11.00	2.36	0.16	-999.25	0.19	0.69	0.78	0.22	17.30	19.80
8191.0	12.00	2.38	0.15	-999.25	0.17	0.78	0.79	0.21	13.90	0.59
8191.5	12.00	2.40	0.14	-999.25	0.17	0.86	0.80	0.20	16.00	4.70
8192.0	12.00	2.41	0.14	-999.25	0.16	0.89	0.81	0.19	18.10	8.80
8192.5	12.00	2.41	0.13	-999.25	0.16	0.88	0.83	0.17	16.25	4.90
8193.0	12.00	2.42	0.13	-999.25	0.16	0.84	0.85	0.15	14.40	1.00
8193.5	11.00	2.41	0.14	-999.25	0.16	0.78	0.87	0.13	16.45	1.60
8194.0	9.00	2.41	0.15	-999.25	0.17	0.71	0.88	0.12	18.50	2.20
8194.5	10.00	2.38	0.16	-999.25	0.18	0.64	0.87	0.13	18.25	2.75
8195.0	9.00	2.36	0.16	-999.25	0.19	0.59	0.84	0.16	18.00	3.30
8195.5	9.00	2.34	0.17	-999.25	0.20	0.56	0.82	0.18	17.35	2.35
8196.0	9.00	2.33	0.17	-999.25	0.20	0.55	0.81	0.19	16.70	1.40
8196.5	8.00	2.33	0.17	-999.25	0.21	0.56	0.79	0.21	18.10	2.55
8197.0	8.00	2.32	0.18	-999.25	0.21	0.59	0.76	0.24	19.50	3.70
8197.5	9.00	2.32	0.18	-999.25	0.21	0.63	0.73	0.27	21.60	6.40
8198.0	10.00	2.33	0.17	-999.25	0.20	0.66	0.73	0.27	23.70	9.10
8198.5	10.00	2.35	0.17	-999.25	0.20	0.69	0.75	0.25	19.80	5.25
8199.0	11.00	2.36	0.17	-999.25	0.19	0.70	0.78	0.22	15.90	1.40
8199.5	11.00	2.39	0.16	-999.25	0.18	0.73	0.80	0.20	17.00	2.30
8200.0	12.00	2.37	0.15	-999.25	0.18	0.78	0.77	0.23	18.10	3.20
8200.5	13.00	2.37	0.15	-999.25	0.18	0.78	0.76	0.24	20.45	10.10
8201.0	13.00	2.37	0.16	-999.25	0.18	0.80	0.74	0.26	22.80	17.00
8201.5	12.00	2.37	0.16	-999.25	0.19	0.82	0.72	0.28	22.55	10.35
8202.0	10.00	2.35	0.17	-999.25	0.20	0.84	0.68	0.32	22.30	3.70
8202.5	11.00	2.36	0.17	-999.25	0.20	0.86	0.67	0.33	19.60	22.35
8203.0	12.00	2.38	0.18	-999.25	0.19	0.86	0.70	0.30	16.90	41.00
8203.5	14.00	2.39	0.17	-999.25	0.18	0.85	0.76	0.24	16.70	426.00
8204.0	14.00	2.41	0.14	-999.25	0.16	0.84	0.82	0.18	16.50	811.00
8204.5	12.00	2.43	0.13	-999.25	0.16	0.81	0.87	0.13	16.90	437.50
8205.0	10.00	2.41	0.14	-999.25	0.16	0.74	0.87	0.13	17.30	64.00
8205.5	9.00	2.39	0.16	-999.25	0.18	0.69	0.84	0.16	16.35	38.50
8206.0	10.00	2.38	0.17	-999.25	0.19	0.61	0.84	0.16	15.40	13.00
8206.5	11.00	2.34	0.17	-999.25	0.20	0.54	0.82	0.18	17.65	26.00
8207.0	11.00	2.30	0.19	-999.25	0.22	0.50	0.79	0.21	19.90	39.00
8207.5	10.00	2.29	0.20	-999.25	0.23	0.47	0.78	0.22	19.40	21.45
8208.0	10.00	2.28	0.20	-999.25	0.24	0.44	0.78	0.22	18.90	3.90
8208.5	11.00	2.26	0.20	-999.25	0.25	0.41	0.78	0.22	21.15	44.45
8209.0	11.00	2.25	0.20	-999.25	0.25	0.40	0.78	0.22	23.40	85.00
8209.5	12.00	2.26	0.21	-999.25	0.25	0.39	0.79	0.21	18.95	43.05
8210.0	12.00	2.26	0.21	-999.25	0.25	0.38	0.79	0.21	14.50	1.10
8210.5	11.00	2.26	0.21	-999.25	0.25	0.38	0.78	0.22	18.80	18.05
