# LAS format log file from PETREL
# Project units are specified as depth units
#==================================================================
~Version information
VERS.   2.0:
WRAP.   NO:
#==================================================================
~Well
STRT .ft        8050.0 :
STOP .ft        8330.0 :
STEP .ft        0.5    :
NULL .          -999.25  :
COMP.           : COMPANY
WELL.  HW-4     : WELL
FLD.   COSTA    : FIELD
LOC.            : LOCATION
SRVC.           : SERVICE COMPANY
DATE.  2018-02-06 14:55:39   : Log Export Date {yyyy-MM-dd HH:mm:ss}
PROV.           : PROVINCE
UWI.   HW-4     : UNIQUE WELL ID
API.            : API NUMBER
#==================================================================
~Curve
DEPT .ft                  : DEPTH
GR .gAPI                  : GR
RHOB .g/cm3               : RHOB
NPHI .ft3/ft3             : NPHI
DT .us/ft                 : DT
PHIE .ft3/ft3             : PHIE
RT .ohm.m                 : RT
SW .                      : SW
SO . 			  : SO
CORE_POR .ft3/ft3         : CORE_POR
CORE_PERM .mD             : CORE_PERM
~Parameter
#==================================================================
~Ascii
# ...
8211.0	10.00	2.24	0.21	-999.25	0.26	0.38	0.78	0.22	23.10	35.00
8211.5	10.00	2.25	0.21	-999.25	0.25	0.37	0.79	0.21	22.60	24.00
8212.0	10.00	2.26	0.21	-999.25	0.25	0.37	0.80	0.20	22.10	13.00
8212.5	10.00	2.25	0.22	-999.25	0.25	0.37	0.80	0.20	23.15	27.00
8213.0	11.00	2.26	0.21	-999.25	0.25	0.38	0.79	0.21	24.20	41.00
8213.5	11.00	2.25	0.21	-999.25	0.25	0.39	0.78	0.22	23.35	36.50
8214.0	12.00	2.25	0.22	-999.25	0.25	0.39	0.77	0.23	22.50	32.00
8214.5	12.00	2.26	0.21	-999.25	0.25	0.40	0.78	0.22	23.30	21.50
8215.0	12.00	2.27	0.21	-999.25	0.24	0.40	0.79	0.21	24.10	11.00
8215.5	12.00	2.28	0.22	-999.25	0.24	0.39	0.81	0.19	23.75	10.00
8216.0	11.00	2.28	0.21	-999.25	0.24	0.39	0.83	0.17	23.40	9.00
8216.5	11.00	2.29	0.20	-999.25	0.24	0.38	0.84	0.16	23.35	19.00
8217.0	11.00	2.28	0.20	-999.25	0.24	0.37	0.84	0.16	23.30	29.00
8217.5	10.00	2.27	0.21	-999.25	0.24	0.36	0.83	0.17	22.45	17.40
8218.0	10.00	2.26	0.21	-999.25	0.25	0.35	0.84	0.16	21.60	5.80
8218.5	10.00	2.26	0.20	-999.25	0.25	0.35	0.84	0.16	22.15	5.70
8219.0	10.00	2.26	0.21	-999.25	0.25	0.34	0.85	0.15	22.70	5.60
8219.5	11.00	2.27	0.21	-999.25	0.25	0.33	0.86	0.14	18.80	3.90
8220.0	10.00	2.28	0.20	-999.25	0.24	0.34	0.87	0.13	14.90	2.20
8220.5	11.00	2.29	0.19	-999.25	0.23	0.33	0.91	0.09	17.85	3.50
8221.0	10.00	2.29	0.19	-999.25	0.23	0.32	0.92	0.08	20.80	4.80
8221.5	11.00	2.28	0.19	-999.25	0.23	0.33	0.92	0.08	21.25	4.50
8222.0	11.00	2.29	0.19	-999.25	0.23	0.33	0.91	0.09	21.70	4.20
8222.5	11.00	2.28	0.19	-999.25	0.23	0.34	0.90	0.10	21.05	3.60
8223.0	10.00	2.29	0.19	-999.25	0.23	0.36	0.88	0.12	20.40	3.00
8223.5	9.00	2.30	0.19	-999.25	0.22	0.39	0.88	0.12	20.65	3.55
8224.0	10.00	2.33	0.18	-999.25	0.21	0.42	0.89	0.11	20.90	4.10
8224.5	10.00	2.34	0.17	-999.25	0.20	0.47	0.89	0.11	19.20	3.65
8225.0	10.00	2.35	0.16	-999.25	0.19	0.53	0.88	0.12	17.50	3.20
8225.5	10.00	2.37	0.14	-999.25	0.17	0.62	0.90	0.10	17.20	2.60
8226.0	11.00	2.40	0.12	-999.25	0.15	0.72	0.97	0.03	16.90	2.00
8226.5	11.00	2.46	0.11	-999.25	0.13	0.84	-999.25	-999.25	14.65	1.11
8227.0	11.00	2.47	0.11	-999.25	0.13	0.98	0.99	0.01	12.40	0.22
8227.5	10.00	2.48	0.11	-999.25	0.12	1.08	0.96	0.04	12.15	0.29
8228.0	12.00	2.46	0.11	-999.25	0.12	1.17	0.91	0.09	11.90	0.36
8228.5	13.00	2.46	0.11	-999.25	0.13	1.19	0.89	0.11	10.85	0.25
8229.0	14.00	2.46	0.10	-999.25	0.13	1.15	0.91	0.09	9.80	0.14
8229.5	14.00	2.46	0.10	-999.25	0.12	1.09	0.96	0.04	11.05	0.34
8230.0	14.00	2.48	0.10	-999.25	0.12	0.99	-999.25	-999.25	12.30	0.54
8230.5	12.00	2.48	0.10	-999.25	0.12	0.90	-999.25	-999.25	12.05	0.41
8231.0	10.00	2.47	0.12	-999.25	0.13	0.88	0.99	0.01	11.80	0.28
8231.5	9.00	2.44	0.13	-999.25	0.15	0.76	0.96	0.04	13.40	0.84
8232.0	10.00	2.41	0.14	-999.25	0.16	0.67	0.94	0.06	15.00	1.40
8232.5	11.00	2.39	0.15	-999.25	0.17	0.56	0.96	0.04	17.75	2.00
8233.0	12.00	2.39	0.16	-999.25	0.18	0.48	0.99	0.01	20.50	2.60
8233.5	12.00	2.37	0.17	-999.25	0.19	0.42	-999.25	-999.25	19.90	2.30
8234.0	11.00	2.36	0.17	-999.25	0.19	0.38	-999.25	-999.25	19.30	2.00
8234.5	10.00	2.35	0.18	-999.25	0.20	0.35	-999.25	-999.25	19.55	2.10
8235.0	11.00	2.35	0.19	-999.25	0.21	0.32	-999.25	-999.25	19.80	2.20
8235.5	11.00	2.33	0.19	-999.25	0.21	0.30	-999.25	-999.25	20.45	2.25
8236.0	12.00	2.32	0.19	-999.25	0.22	0.29	-999.25	-999.25	21.10	2.30
8236.5	12.00	2.32	0.19	-999.25	0.22	0.29	-999.25	-999.25	21.65	3.65
8237.0	12.00	2.30	0.19	-999.25	0.23	0.28	-999.25	-999.25	22.20	5.00
8237.5	10.00	2.29	0.19	-999.25	0.23	0.28	-999.25	-999.25	21.90	4.05
8238.0	10.00	2.28	0.19	-999.25	0.23	0.28	-999.25	-999.25	21.60	3.10
8238.5	10.00	2.29	0.20	-999.25	0.23	0.27	-999.25	-999.25	21.70	3.15
8239.0	10.00	2.30	0.21	-999.25	0.23	0.27	-999.25	-999.25	21.80	3.20
8239.5	10.00	2.30	0.20	-999.25	0.23	0.27	-999.25	-999.25	22.15	3.15
8240.0	10.00	2.31	0.21	-999.25	0.23	0.27	-999.25	-999.25	22.50	3.10
8240.5	8.00	2.31	0.20	-999.25	0.22	0.26	-999.25	-999.25	22.00	3.25
8241.0	7.00	2.31	0.20	-999.25	0.22	0.26	-999.25	-999.25	21.50	3.40
8241.5	8.00	2.32	0.20	-999.25	0.22	0.27	-999.25	-999.25	21.50	3.00
8242.0	9.00	2.31	0.21	-999.25	0.22	0.27	-999.25	-999.25	21.50	2.60
8242.5	9.00	2.31	0.20	-999.25	0.22	0.27	-999.25	-999.25	21.50	2.70
8243.0	10.00	2.31	0.20	-999.25	0.22	0.27	-999.25	-999.25	21.50	2.80
8243.5	11.00	2.32	0.20	-999.25	0.22	0.29	-999.25	-999.25	21.10	2.55
8244.0	11.00	2.32	0.19	-999.25	0.22	0.30	-999.25	-999.25	20.70	2.30
8244.5	10.00	2.32	0.19	-999.25	0.21	0.28	-999.25	-999.25	20.35	2.15
8245.0	11.00	2.33	0.19	-999.25	0.21	0.28	-999.25	-999.25	20.00	2.00
8245.5	10.00	2.32	0.19	-999.25	0.21	0.29	-999.25	-999.25	19.80	2.00
8246.0	10.00	2.32	0.19	-999.25	0.22	0.31	-999.25	-999.25	19.60	2.00
8246.5	11.00	2.33	0.20	-999.25	0.21	0.32	-999.25	-999.25	19.40	1.90
8247.0	11.00	2.34	0.19	-999.25	0.21	0.34	-999.25	-999.25	19.20	1.80
8247.5	11.00	2.35	0.19	-999.25	0.20	0.35	-999.25	-999.25	19.10	1.70
8248.0	11.00	2.38	0.17	-999.25	0.19	0.36	-999.25	-999.25	19.00	1.60
8248.5	11.00	2.40	0.17	-999.25	0.18	0.37	-999.25	-999.25	18.50	1.60
8249.0	11.00	2.41	0.17	-999.25	0.18	0.38	-999.25	-999.25	18.00	1.60
8249.5	11.00	2.38	0.17	-999.25	0.19	0.38	-999.25	-999.25	18.25	1.90
8250.0	11.00	2.37	0.18	-999.25	0.19	0.36	-999.25	-999.25	18.50	2.20
8250.5	11.00	2.35	0.18	-999.25	0.20	0.35	-999.25	-999.25	17.80	2.60
8251.0	11.00	2.35	0.19	-999.25	0.20	0.33	-999.25	-999.25	17.10	3.00
8251.5	11.00	2.35	0.20	-999.25	0.21	0.32	-999.25	-999.25	19.00	2.80
8252.0	11.00	2.35	0.20	-999.25	0.21	0.32	-999.25	-999.25	20.90	2.60
8252.5	11.00	2.34	0.20	-999.25	0.21	0.31	-999.25	-999.25	20.75	3.00
8253.0	13.00	2.33	0.19	-999.25	0.21	0.30	-999.25	-999.25	20.60	3.40
8253.5	13.00	2.33	0.19	-999.25	0.21	0.29	-999.25	-999.25	21.35	4.20
8254.0	13.00	2.33	0.19	-999.25	0.21	0.29	-999.25	-999.25	22.10	5.00
8254.5	12.00	2.32	0.19	-999.25	0.21	0.28	-999.25	-999.25	23.15	15.50
8255.0	12.00	2.32	0.20	-999.25	0.22	0.28	-999.25	-999.25	24.20	26.00
8255.5	11.00	2.31	0.20	-999.25	0.22	0.27	-999.25	-999.25	23.40	14.40
8256.0	10.00	2.29	0.20	-999.25	0.23	0.26	-999.25	-999.25	22.60	2.80
8256.5	10.00	2.28	0.20	-999.25	0.24	0.25	-999.25	-999.25	22.30	2.80
8257.0	10.00	2.28	0.20	-999.25	0.24	0.25	-999.25	-999.25	22.00	2.80
8257.5	10.00	2.28	0.21	-999.25	0.24	0.26	-999.25	-999.25	21.85	2.75
8258.0	9.00	2.29	0.21	-999.25	0.24	0.26	-999.25	-999.25	21.70	2.70
8258.5	10.00	2.31	0.22	-999.25	0.23	0.27	-999.25	-999.25	21.45	2.45
8259.0	10.00	2.30	0.21	-999.25	0.23	0.28	-999.25	-999.25	21.20	2.20
8259.5	10.00	2.33	0.20	-999.25	0.22	0.28	-999.25	-999.25	21.25	2.80
8260.0	10.00	2.35	0.20	-999.25	0.21	0.28	-999.25	-999.25	21.30	3.40
8260.5	10.00	2.33	0.20	-999.25	0.21	0.28	-999.25	-999.25	20.85	6.10
8261.0	10.00	2.33	0.20	-999.25	0.22	0.28	-999.25	-999.25	20.40	8.80
8261.5	10.00	2.32	0.20	-999.25	0.22	0.27	-999.25	-999.25	21.05	5.80
8262.0	11.00	2.32	0.21	-999.25	0.22	0.27	-999.25	-999.25	21.70	2.80
8262.5	10.00	2.31	0.21	-999.25	0.23	0.26	-999.25	-999.25	21.70	2.70
8263.0	10.00	2.30	0.21	-999.25	0.23	0.26	-999.25	-999.25	21.70	2.60
8263.5	10.00	2.32	0.21	-999.25	0.23	0.26	-999.25	-999.25	21.45	2.70
8264.0	10.00	2.32	0.21	-999.25	0.22	0.26	-999.25	-999.25	21.20	2.80
8264.5	11.00	2.32	0.21	-999.25	0.22	0.27	-999.25	-999.25	20.40	3.15
8265.0	10.00	2.32	0.21	-999.25	0.23	0.27	-999.25	-999.25	19.60	3.50
8265.5	10.00	2.31	0.21	-999.25	0.23	0.28	-999.25	-999.25	21.10	3.85
8266.0	10.00	2.31	0.21	-999.25	0.22	0.28	-999.25	-999.25	22.60	4.20
8266.5	10.00	2.33	0.20	-999.25	0.22	0.28	-999.25	-999.25	21.70	3.45
8267.0	10.00	2.34	0.21	-999.25	0.22	0.28	-999.25	-999.25	20.80	2.70
8267.5	11.00	2.34	0.21	-999.25	0.22	0.28	-999.25	-999.25	21.10	2.85
8268.0	12.00	2.33	0.21	-999.25	0.22	0.28	-999.25	-999.25	21.40	3.00
8268.5	13.00	2.34	0.21	-999.25	0.22	0.28	-999.25	-999.25	21.10	3.35
8269.0	13.00	2.34	0.21	-999.25	0.22	0.28	-999.25	-999.25	20.80	3.70
8269.5	14.00	2.34	0.20	-999.25	0.22	0.29	-999.25	-999.25	20.25	3.20
8270.0	12.00	2.34	0.20	-999.25	0.21	0.30	-999.25	-999.25	19.70	2.70
8270.5	11.00	2.36	0.20	-999.25	0.21	0.29	-999.25	-999.25	20.70	3.60
8271.0	12.00	2.34	0.20	-999.25	0.21	0.30	-999.25	-999.25	21.70	4.50
8271.5	12.00	2.33	0.20	-999.25	0.22	0.32	-999.25	-999.25	26.00	4.00
