# LAS format log file from PETREL
# Project units are specified as depth units
#==================================================================
~Version information
VERS.   2.0:
WRAP.   NO:
#==================================================================
~Well
STRT .ft        8030.0 :
STOP .ft        8350.0 :
STEP .ft        0.5    :
NULL .          -999.25  :
COMP.           : COMPANY
WELL.  HW-5     : WELL
FLD.   COSTA    : FIELD
LOC.            : LOCATION
SRVC.           : SERVICE COMPANY
DATE.  2018-02-06 14:55:39   : Log Export Date {yyyy-MM-dd HH:mm:ss}
PROV.           : PROVINCE
UWI.   HW-5     : UNIQUE WELL ID
API.            : API NUMBER
#==================================================================
~Curve
DEPT .ft                  : DEPTH
GR .gAPI                  : GR
RHOB .g/cm3               : RHOB
NPHI .ft3/ft3             : NPHI
DT .us/ft                 : DT
PHIE .ft3/ft3             : PHIE
RT .ohm.m                 : RT
SW .                      : SW
SO . 			  : SO
CORE_POR .ft3/ft3         : CORE_POR
CORE_PERM .mD             : CORE_PERM
~Parameter
#==================================================================
~Ascii
# ...
8306.5	14.59	2.46	0.13	64.08	0.14	0.85	0.95	0.05	10.20	0.25
8307.0	14.59	2.46	0.13	62.63	0.14	1.12	0.85	0.15	9.00	0.16
8307.5	15.39	2.49	0.12	61.03	0.13	1.22	0.88	0.12	7.55	0.09
8308.0	14.89	2.51	0.10	59.24	0.11	1.21	-999.25	-999.25	6.10	0.01
8308.5	15.09	2.55	0.08	57.69	0.09	1.20	-999.25	-999.25	6.90	0.01
8309.0	14.99	2.59	0.07	56.84	0.08	1.22	-999.25	-999.25	7.70	0.01
8309.5	15.69	2.59	0.06	56.49	0.07	1.24	-999.25	-999.25	8.35	0.11
8310.0	14.99	2.60	0.07	56.99	0.07	1.25	-999.25	-999.25	9.00	0.21
8310.5	14.19	2.63	0.07	57.59	0.08	1.27	-999.25	-999.25	8.88	0.16
8311.0	14.89	2.59	0.07	58.09	0.08	1.34	-999.25	-999.25	8.75	0.11
8311.5	15.29	2.55	0.08	58.24	0.09	1.41	-999.25	-999.25	8.63	0.06
8312.0	14.89	2.55	0.08	57.64	0.09	1.49	-999.25	-999.25	8.50	0.01
8312.5	14.69	2.54	0.07	57.29	0.09	1.53	-999.25	-999.25	7.40	0.01
8313.0	16.39	2.57	0.07	57.04	0.08	1.55	-999.25	-999.25	6.30	0.01
8313.5	16.79	2.57	0.07	56.64	0.08	1.57	-999.25	-999.25	7.15	0.01
8314.0	16.19	2.58	0.07	56.64	0.08	1.58	-999.25	-999.25	8.00	0.01
8314.5	15.19	2.59	0.07	56.29	0.08	1.46	-999.25	-999.25	6.90	0.01
8315.0	15.39	2.61	0.08	55.89	0.07	1.19	-999.25	-999.25	5.80	0.01
8315.5	16.89	2.60	0.08	55.89	0.08	0.98	-999.25	-999.25	7.35	0.10
8316.0	16.89	2.59	0.08	56.09	0.08	0.83	-999.25	-999.25	8.90	0.18
8316.5	16.99	2.58	0.09	56.89	0.09	0.79	-999.25	-999.25	11.35	0.37
8317.0	16.49	2.58	0.11	58.84	0.10	0.79	-999.25	-999.25	13.80	0.55
8317.5	16.19	2.55	0.13	61.23	0.12	0.79	-999.25	-999.25	13.55	0.99
8318.0	15.89	2.54	0.15	62.08	0.13	0.78	-999.25	-999.25	13.30	1.43
8318.5	15.49	2.54	0.15	61.48	0.13	0.84	-999.25	-999.25	11.95	1.13
8319.0	15.29	2.55	0.14	59.29	0.12	1.07	0.98	0.02	10.60	0.84
8319.5	15.09	2.56	0.12	57.79	0.11	1.41	0.95	0.05	10.10	0.60
8320.0	15.29	2.57	0.11	56.39	0.10	1.91	0.91	0.09	9.60	0.37
8320.5	14.99	2.60	0.10	55.99	0.09	2.14	0.96	0.04	6.95	0.19
8321.0	15.89	2.61	0.08	55.39	0.08	2.14	-999.25	-999.25	4.30	0.01
8321.5	16.89	2.63	0.06	54.09	0.06	2.13	-999.25	-999.25	4.95	0.01
8322.0	15.79	2.63	0.05	53.29	0.05	2.13	-999.25	-999.25	5.60	0.01
8322.5	14.59	2.63	0.04	53.84	0.05	2.13	-999.25	-999.25	4.80	0.01
8323.0	13.39	2.63	0.04	54.54	0.05	2.33	-999.25	-999.25	4.00	0.01
8323.5	13.59	2.63	0.04	54.69	0.05	3.14	-999.25	-999.25	4.30	0.01
8324.0	13.99	2.63	0.04	54.89	0.05	4.50	-999.25	-999.25	4.60	0.01
8324.5	14.09	2.63	0.04	55.04	0.04	6.85	-999.25	-999.25	3.70	0.01
8325.0	15.09	2.63	0.04	54.84	0.04	7.97	-999.25	-999.25	2.80	0.01
8325.5	16.59	2.66	0.03	54.44	0.03	7.77	-999.25	-999.25	2.30	0.01
8326.0	16.79	2.68	0.02	53.84	0.03	7.65	-999.25	-999.25	1.80	0.01
8326.5	16.39	2.70	0.02	53.04	0.02	7.69	-999.25	-999.25	1.70	0.01
8327.0	16.49	2.69	0.02	52.64	0.02	7.94	-999.25	-999.25	1.60	0.01
8327.5	16.19	2.69	0.01	52.24	0.02	8.20	-999.25	-999.25	1.85	0.01
8328.0	15.39	2.70	0.01	52.24	0.01	7.98	-999.25	-999.25	2.10	0.01
8328.5	13.79	2.72	0.01	52.04	0.01	7.02	-999.25	-999.25	2.80	0.01
8329.0	13.39	2.72	0.01	51.89	0.01	6.18	-999.25	-999.25	3.50	0.01
8329.5	13.29	2.71	0.02	52.04	0.02	5.49	-999.25	-999.25	4.20	0.14
8330.0	13.99	2.68	0.02	52.49	0.02	5.25	-999.25	-999.25	4.90	0.26
8330.5	14.29	2.66	0.02	53.24	0.03	5.23	-999.25	-999.25	4.20	0.13
8331.0	14.59	2.63	0.03	53.99	0.03	5.22	-999.25	-999.25	3.50	0.01
8331.5	14.89	2.60	0.03	54.14	0.04	5.24	-999.25	-999.25	2.95	0.01
8332.0	14.89	2.63	0.02	53.89	0.03	5.81	-999.25	-999.25	2.40	0.01
8332.5	14.69	2.67	0.02	53.29	0.02	8.10	-999.25	-999.25	1.65	0.01
8333.0	15.39	2.67	0.02	52.64	0.02	12.26	-999.25	-999.25	0.90	0.01
8333.5	18.89	2.67	0.01	52.54	0.02	20.24	-999.25	-999.25	1.55	0.01
8334.0	23.59	2.69	0.01	52.19	0.01	24.63	-999.25	-999.25	2.20	0.01
8334.5	30.38	2.72	0.01	52.54	0.01	24.24	-999.25	-999.25	2.20	0.01
8335.0	36.78	2.72	0.02	53.49	0.00	23.72	-999.25	-999.25	2.20	0.01
8335.5	37.48	2.72	0.02	53.64	0.00	25.60	-999.25	-999.25	2.10	0.01
8336.0	36.18	2.70	0.02	53.94	0.00	33.62	-999.25	-999.25	2.00	0.01
8336.5	36.48	2.68	0.01	54.24	0.01	47.68	-999.25	-999.25	2.00	0.01
8337.0	35.18	2.70	0.01	53.64	0.01	70.64	-999.25	-999.25	2.00	0.01
8337.5	30.38	2.72	0.01	53.04	0.00	81.71	-999.25	-999.25	-999.25	-999.25
8338.0	22.99	2.72	0.01	52.39	0.00	81.71	-999.25	-999.25	-999.25	-999.25
8338.5	19.49	2.72	0.01	50.84	0.00	81.71	-999.25	-999.25	-999.25	-999.25
8339.0	19.29	2.72	0.00	50.09	0.00	81.71	-999.25	-999.25	-999.25	-999.25
8339.5	19.89	2.72	0.00	50.24	0.00	81.72	-999.25	-999.25	-999.25	-999.25
8340.0	21.79	2.73	0.00	50.24	0.00	81.72	-999.25	-999.25	-999.25	-999.25
8340.5	23.89	2.72	0.00	50.09	0.00	68.23	-999.25	-999.25	-999.25	-999.25
8341.0	27.69	2.71	0.01	50.49	0.00	43.05	-999.25	-999.25	-999.25	-999.25
8341.5	33.58	2.69	0.01	51.44	0.01	29.23	-999.25	-999.25	-999.25	-999.25
8342.0	40.08	2.71	0.01	52.24	0.00	21.36	-999.25	-999.25	-999.25	-999.25
8342.5	42.88	2.71	0.02	53.44	0.00	19.44	-999.25	-999.25	-999.25	-999.25
8343.0	43.78	2.71	0.02	55.04	0.00	19.46	-999.25	-999.25	-999.25	-999.25
8343.5	44.48	2.70	0.03	56.09	0.00	20.91	-999.25	-999.25	-999.25	-999.25
8344.0	44.78	2.70	0.03	55.84	0.00	26.24	-999.25	-999.25	-999.25	-999.25
8344.5	43.68	2.70	0.02	55.29	0.00	34.21	-999.25	-999.25	-999.25	-999.25
8345.0	43.28	2.70	0.01	53.09	0.00	45.85	-999.25	-999.25	-999.25	-999.25
8345.5	41.28	2.69	0.01	51.39	0.01	51.06	-999.25	-999.25	-999.25	-999.25
8346.0	42.88	2.70	0.01	50.29	0.01	51.02	-999.25	-999.25	-999.25	-999.25
8346.5	43.18	2.72	0.01	50.14	0.00	50.97	-999.25	-999.25	-999.25	-999.25
8347.0	43.98	2.72	0.01	50.74	0.00	50.93	-999.25	-999.25	-999.25	-999.25
8347.5	44.98	2.71	0.01	51.79	0.00	50.95	-999.25	-999.25	-999.25	-999.25
8348.0	45.98	2.70	0.01	52.89	0.01	51.00	-999.25	-999.25	-999.25	-999.25
8348.5	44.48	2.71	0.01	53.59	0.01	47.35	-999.25	-999.25	-999.25	-999.25
8349.0	43.68	2.71	0.01	53.64	0.01	38.51	-999.25	-999.25	-999.25	-999.25
8349.5	43.28	2.73	0.01	52.59	0.00	32.04	-999.25	-999.25	-999.25	-999.25
8350.0	40.58	2.71	0.01	52.24	0.00	27.69	-999.25	-999.25	-999.25	-999.25                                                                                          
