# LAS format log file from PETREL
# Project units are specified as depth units
#==================================================================
~Version information
VERS.   2.0:
WRAP.   NO:
#==================================================================
~Well
STRT .ft        8030.0 :
STOP .ft        8350.0 :
STEP .ft        0.5    :
NULL .          -999.25  :
COMP.           : COMPANY
WELL.  HW-5     : WELL
FLD.   COSTA    : FIELD
LOC.            : LOCATION
SRVC.           : SERVICE COMPANY
DATE.  2018-02-06 14:55:39   : Log Export Date {yyyy-MM-dd HH:mm:ss}
PROV.           : PROVINCE
UWI.   HW-5     : UNIQUE WELL ID
API.            : API NUMBER
#==================================================================
~Curve
DEPT .ft                  : DEPTH
GR .gAPI                  : GR
RHOB .g/cm3               : RHOB
NPHI .ft3/ft3             : NPHI
DT .us/ft                 : DT
PHIE .ft3/ft3             : PHIE
RT .ohm.m                 : RT
SW .                      : SW
SO . 			  : SO
CORE_POR .ft3/ft3         : CORE_POR
CORE_PERM .mD             : CORE_PERM
~Parameter
#==================================================================
~Ascii
8182.0	42.48	2.74	0.05	58.44	0.00	12.71	-999.25	-999.25	-999.25	-999.25
8182.5	42.28	2.74	0.04	56.24	0.00	13.86	-999.25	-999.25	-999.25	-999.25
8183.0	41.98	2.75	0.03	55.29	0.00	17.46	-999.25	-999.25	-999.25	-999.25
8183.5	40.88	2.72	0.02	54.29	0.00	22.64	-999.25	-999.25	-999.25	-999.25
8184.0	40.48	2.71	0.02	53.29	0.00	29.99	-999.25	-999.25	-999.25	-999.25
8184.5	38.98	2.72	0.02	52.84	0.00	33.25	-999.25	-999.25	-999.25	-999.25
8185.0	37.68	2.71	0.01	52.44	0.00	33.15	-999.25	-999.25	-999.25	-999.25
8185.5	37.58	2.71	0.01	52.64	0.00	32.77	-999.25	-999.25	-999.25	-999.25
8186.0	40.28	2.69	0.02	53.79	0.00	32.15	-999.25	-999.25	-999.25	-999.25
8186.5	41.38	2.69	0.02	54.64	0.00	31.62	-999.25	-999.25	-999.25	-999.25
8187.0	41.08	2.68	0.02	54.79	0.00	32.02	-999.25	-999.25	-999.25	-999.25
8187.5	39.68	2.68	0.02	54.14	0.00	34.15	-999.25	-999.25	-999.25	-999.25
8188.0	37.18	2.69	0.01	53.34	0.00	36.72	-999.25	-999.25	-999.25	-999.25
8188.5	36.68	2.69	0.01	52.39	0.00	39.33	-999.25	-999.25	-999.25	-999.25
8189.0	37.28	2.73	0.01	51.99	0.00	40.24	-999.25	-999.25	-999.25	-999.25
8189.5	37.48	2.73	0.01	52.09	0.00	40.36	-999.25	-999.25	-999.25	-999.25
8190.0	37.88	2.70	0.01	52.44	0.00	40.45	-999.25	-999.25	-999.25	-999.25
8190.5	38.78	2.71	0.01	52.69	0.00	40.49	-999.25	-999.25	-999.25	-999.25
8191.0	40.38	2.71	0.01	52.89	0.00	40.31	-999.25	-999.25	-999.25	-999.25
8191.5	41.58	2.71	0.01	53.24	0.00	40.12	-999.25	-999.25	-999.25	-999.25
8192.0	42.88	2.72	0.01	53.19	0.00	42.89	-999.25	-999.25	-999.25	-999.25
8192.5	43.98	2.72	0.01	52.19	0.00	53.40	-999.25	-999.25	-999.25	-999.25
8193.0	41.28	2.73	0.01	51.04	0.00	69.08	-999.25	-999.25	0.10	0.01
8193.5	37.08	2.71	0.00	49.99	0.00	91.48	-999.25	-999.25	0.10	0.01
8194.0	37.38	2.71	0.00	49.09	0.00	101.34	-999.25	-999.25	0.10	0.01
8194.5	40.28	2.70	0.00	49.44	0.00	101.33	-999.25	-999.25	0.15	0.01
8195.0	44.18	2.70	0.00	49.69	0.00	101.32	-999.25	-999.25	0.20	0.01
8195.5	45.18	2.71	0.00	49.89	0.00	101.31	-999.25	-999.25	0.20	0.01
8196.0	44.18	2.73	0.00	50.09	0.00	101.32	-999.25	-999.25	0.20	0.01
8196.5	40.68	2.74	0.00	50.49	0.00	101.33	-999.25	-999.25	0.15	0.01
8197.0	38.68	2.74	0.00	50.54	0.00	101.34	-999.25	-999.25	0.10	0.01
8197.5	34.68	2.72	0.01	50.69	0.00	79.01	-999.25	-999.25	0.45	0.07
8198.0	30.18	2.70	0.01	50.89	0.00	43.28	-999.25	-999.25	0.80	0.13
8198.5	25.39	2.69	0.01	51.19	0.00	26.83	-999.25	-999.25	1.40	0.30
8199.0	24.09	2.68	0.01	51.24	0.01	18.45	-999.25	-999.25	2.00	0.46
8199.5	23.79	2.68	0.01	51.84	0.01	16.47	-999.25	-999.25	2.00	0.67
8200.0	23.69	2.66	0.01	52.19	0.01	16.41	-999.25	-999.25	2.00	0.87
8200.5	23.39	2.68	0.01	52.24	0.01	16.36	-999.25	-999.25	2.45	2.88
8201.0	24.09	2.69	0.01	52.34	0.01	16.37	-999.25	-999.25	2.90	4.88
8201.5	26.09	2.68	0.01	52.24	0.01	16.42	-999.25	-999.25	2.80	6.35
8202.0	27.59	2.67	0.01	51.99	0.01	18.58	-999.25	-999.25	2.70	7.81
8202.5	27.39	2.70	0.01	51.59	0.01	28.02	-999.25	-999.25	1.85	4.07
8203.0	27.69	2.70	0.00	50.94	0.00	47.87	-999.25	-999.25	1.00	0.33
8203.5	25.79	2.72	0.00	50.29	0.00	96.42	-999.25	-999.25	0.70	0.25
8204.0	23.79	2.72	0.00	50.24	0.00	130.26	-999.25	-999.25	0.40	0.18
8204.5	23.59	2.72	0.00	50.09	0.00	130.26	-999.25	-999.25	0.25	0.09
8205.0	24.49	2.74	0.00	49.89	0.00	130.26	-999.25	-999.25	0.10	0.01
8205.5	23.39	2.74	0.00	50.09	0.00	130.26	-999.25	-999.25	0.10	0.01
8206.0	21.79	2.72	0.00	50.49	0.00	130.26	-999.25	-999.25	0.10	0.01
8206.5	20.29	2.71	0.00	50.49	0.00	130.26	-999.25	-999.25	0.10	0.09
8207.0	20.29	2.71	0.00	50.69	0.01	86.93	-999.25	-999.25	0.10	0.16
8207.5	19.69	2.72	0.01	51.09	0.00	36.22	-999.25	-999.25	1.00	0.55
8208.0	19.39	2.72	0.01	51.29	0.00	19.36	-999.25	-999.25	1.90	0.93
8208.5	18.99	2.70	0.01	51.84	0.01	12.14	-999.25	-999.25	1.40	0.47
8209.0	17.79	2.68	0.01	52.44	0.02	10.53	-999.25	-999.25	0.90	0.01
8209.5	17.99	2.66	0.02	52.64	0.02	10.52	-999.25	-999.25	2.35	0.01
8210.0	18.99	2.66	0.02	53.29	0.03	10.53	-999.25	-999.25	3.80	0.01
8210.5	18.39	2.64	0.03	54.49	0.04	10.63	-999.25	-999.25	4.60	0.01
8211.0	17.29	2.63	0.04	56.19	0.05	8.88	0.87	0.13	5.40	0.01
8211.5	16.79	2.61	0.06	57.89	0.06	5.55	0.87	0.13	6.80	0.01
8212.0	17.39	2.59	0.07	59.39	0.07	3.75	0.89	0.11	8.20	0.01
8212.5	16.09	2.60	0.08	59.59	0.08	2.73	0.95	0.05	8.40	0.01
8213.0	15.49	2.59	0.08	59.59	0.08	2.49	0.95	0.05	8.60	0.01
8213.5	14.99	2.57	0.08	59.44	0.09	2.50	0.90	0.10	9.35	0.24
8214.0	14.59	2.54	0.08	59.44	0.09	2.50	0.86	0.14	10.10	0.47
8214.5	14.99	2.55	0.09	59.99	0.09	2.49	0.83	0.17	11.60	0.49
8215.0	15.19	2.54	0.09	61.03	0.10	2.48	0.80	0.20	13.10	0.52
8215.5	15.79	2.53	0.10	61.78	0.10	2.47	0.76	0.24	12.55	0.42
8216.0	16.59	2.52	0.10	62.48	0.11	2.47	0.73	0.27	12.00	0.33
8216.5	16.59	2.52	0.10	62.23	0.11	2.47	0.72	0.28	9.75	0.17
8217.0	15.79	2.51	0.09	61.28	0.10	2.67	0.72	0.28	7.50	0.01
8217.5	16.79	2.51	0.08	59.99	0.10	3.45	0.69	0.31	7.95	0.01
8218.0	16.59	2.53	0.06	58.69	0.08	4.66	0.68	0.32	8.40	0.01
8218.5	15.79	2.55	0.06	57.44	0.08	6.53	0.63	0.37	8.00	0.01
8219.0	16.39	2.56	0.06	57.29	0.07	7.34	0.61	0.39	7.60	0.01
8219.5	16.69	2.55	0.06	57.09	0.07	7.13	0.63	0.37	7.55	0.01
8220.0	17.39	2.58	0.06	57.24	0.07	6.85	0.67	0.33	7.50	0.01
8220.5	16.59	2.58	0.06	57.44	0.07	6.68	0.69	0.31	6.95	0.01
8221.0	16.39	2.57	0.06	57.04	0.07	6.68	0.69	0.31	6.40	0.01
8221.5	16.99	2.57	0.05	57.04	0.07	6.90	0.72	0.28	5.70	0.01
8222.0	16.59	2.59	0.05	56.64	0.06	7.19	0.77	0.23	5.00	0.01
8222.5	16.39	2.59	0.04	55.69	0.05	7.42	0.84	0.16	5.20	0.01
8223.0	15.79	2.61	0.04	55.54	0.05	7.55	0.87	0.13	5.40	0.01
8223.5	16.29	2.59	0.04	55.69	0.05	7.56	0.85	0.15	6.40	0.09
8224.0	16.19	2.60	0.05	55.84	0.05	7.02	0.86	0.14	7.40	0.17
8224.5	16.49	2.62	0.05	56.29	0.06	5.78	0.90	0.10	8.15	0.09
8225.0	16.19	2.59	0.06	56.99	0.06	4.82	0.86	0.14	8.90	0.01
8225.5	15.99	2.57	0.06	57.44	0.07	4.11	0.82	0.18	9.15	0.01
8226.0	16.39	2.55	0.07	58.04	0.08	3.90	0.76	0.24	9.40	0.01
8226.5	16.89	2.54	0.07	58.59	0.09	3.88	0.73	0.27	9.90	0.11
8227.0	18.19	2.53	0.07	59.59	0.09	3.85	0.72	0.28	10.40	0.21
8227.5	17.69	2.53	0.07	60.44	0.09	3.85	0.69	0.31	9.00	0.11
8228.0	16.59	2.53	0.08	60.49	0.09	3.95	0.69	0.31	7.60	0.01
8228.5	17.59	2.53	0.07	58.84	0.08	4.06	0.75	0.25	4.85	0.01
8229.0	18.69	2.56	0.05	56.19	0.06	4.18	0.92	0.08	2.10	0.01
8229.5	19.19	2.61	0.04	54.09	0.05	4.22	-999.25	-999.25	4.00	0.01
8230.0	20.39	2.67	0.03	53.24	0.03	4.23	-999.25	-999.25	5.90	0.01
8230.5	18.59	2.68	0.03	53.64	0.03	4.24	-999.25	-999.25	7.25	0.11
8231.0	15.49	2.67	0.04	55.44	0.04	4.27	-999.25	-999.25	8.60	0.21
8231.5	14.89	2.63	0.06	57.34	0.06	4.29	-999.25	-999.25	8.55	0.11
8232.0	14.59	2.57	0.07	58.39	0.08	4.31	0.76	0.24	8.50	0.01
8232.5	14.19	2.52	0.08	59.69	0.09	3.96	0.66	0.34	10.40	0.24
8233.0	15.49	2.51	0.09	60.49	0.10	3.09	0.67	0.33	12.30	0.47
8233.5	15.99	2.51	0.10	61.68	0.11	2.45	0.71	0.29	13.15	0.49
8234.0	15.39	2.51	0.11	63.48	0.12	2.00	0.75	0.25	14.00	0.51
8234.5	15.29	2.49	0.11	64.38	0.12	1.86	0.75	0.25	14.35	0.63
8235.0	14.99	2.49	0.11	64.48	0.12	1.84	0.73	0.27	14.70	0.75
8235.5	15.39	2.48	0.12	64.38	0.13	1.84	0.71	0.29	14.50	-999.25
8236.0	15.29	2.48	0.12	63.73	0.13	1.84	0.71	0.29	14.30	-999.25
8236.5	15.09	2.47	0.11	62.63	0.13	1.84	0.71	0.29	12.15	-999.25
8237.0	15.49	2.48	0.11	61.33	0.12	1.86	0.73	0.27	10.00	0.20
8237.5	16.39	2.50	0.10	60.39	0.11	1.90	0.78	0.22	11.40	0.38
8238.0	17.29	2.52	0.09	60.44	0.11	1.95	0.83	0.17	12.80	0.57
8238.5	17.89	2.52	0.09	60.99	0.11	2.01	0.82	0.18	13.45	0.60
8239.0	18.19	2.51	0.10	62.13	0.11	2.04	0.79	0.21	14.10	0.62
8239.5	17.89	2.51	0.10	62.58	0.11	2.02	0.76	0.24	11.80	0.31
8240.0	16.59	2.50	0.10	61.68	0.11	1.97	0.77	0.23	9.50	0.01
8240.5	16.89	2.51	0.10	60.39	0.11	1.86	0.81	0.19	11.40	0.33
8241.0	17.69	2.53	0.10	59.44	0.10	1.78	0.88	0.12	13.30	0.64
8241.5	17.19	2.54	0.09	59.74	0.10	1.72	0.92	0.08	12.65	0.50
8242.0	15.29	2.52	0.09	61.08	0.11	1.72	0.88	0.12	12.00	0.36
8242.5	14.69	2.51	0.10	62.63	0.12	1.73	0.81	0.19	12.65	0.31
8243.0	15.39	2.48	0.11	63.48	0.12	1.73	0.77	0.23	13.30	0.26
8243.5	15.39	2.50	0.11	62.98	0.12	1.72	0.80	0.20	10.35	0.13
8244.0	15.89	2.52	0.10	61.58	0.11	1.81	0.85	0.15	7.40	0.01
8244.5	16.59	2.53	0.08	59.39	0.10	2.17	0.86	0.14	6.90	0.01
