# LAS format log file from PETREL
# Project units are specified as depth units
#==================================================================
~Version information
VERS.   2.0:
WRAP.   NO:
#==================================================================
~Well
STRT .ft        8030.0 :
STOP .ft        8350.0 :
STEP .ft        0.5    :
NULL .          -999.25  :
COMP.           : COMPANY
WELL.  HW-5     : WELL
FLD.   COSTA    : FIELD
LOC.            : LOCATION
SRVC.           : SERVICE COMPANY
DATE.  2018-02-06 14:55:39   : Log Export Date {yyyy-MM-dd HH:mm:ss}
PROV.           : PROVINCE
UWI.   HW-5     : UNIQUE WELL ID
API.            : API NUMBER
#==================================================================
~Curve
DEPT .ft                  : DEPTH
GR .gAPI                  : GR
RHOB .g/cm3               : RHOB
NPHI .ft3/ft3             : NPHI
DT .us/ft                 : DT
PHIE .ft3/ft3             : PHIE
RT .ohm.m                 : RT
SW .                      : SW
SO . 			  : SO
CORE_POR .ft3/ft3         : CORE_POR
CORE_PERM .mD             : CORE_PERM
~Parameter
#==================================================================
~Ascii
# ...
8245.0	17.49	2.54	0.07	57.04	0.08	2.68	0.89	0.11	6.40	0.01
8245.5	16.99	2.56	0.06	55.44	0.07	3.35	0.94	0.06	6.10	0.01
8246.0	16.29	2.59	0.05	54.69	0.06	3.61	-999.25	-999.25	5.80	0.01
8246.5	15.89	2.60	0.04	55.04	0.06	3.57	-999.25	-999.25	5.70	0.01
8247.0	15.29	2.61	0.04	55.04	0.05	3.53	-999.25	-999.25	5.60	0.01
8247.5	15.59	2.60	0.04	55.04	0.05	3.51	-999.25	-999.25	4.60	0.01
8248.0	16.69	2.61	0.04	54.89	0.05	3.55	-999.25	-999.25	3.60	0.01
8248.5	17.49	2.61	0.04	54.14	0.05	3.60	-999.25	-999.25	5.00	0.01
8249.0	18.29	2.62	0.04	53.84	0.05	3.45	-999.25	-999.25	6.40	0.01
8249.5	19.99	2.64	0.04	53.69	0.05	2.93	-999.25	-999.25	6.70	0.01
8250.0	19.79	2.64	0.05	54.49	0.05	2.49	-999.25	-999.25	7.00	0.01
8250.5	17.49	2.63	0.05	55.29	0.05	2.16	-999.25	-999.25	6.15	0.01
8251.0	17.79	2.61	0.05	55.99	0.06	2.07	-999.25	-999.25	5.30	0.01
8251.5	17.39	2.60	0.06	56.39	0.06	2.07	-999.25	-999.25	6.95	0.01
8252.0	16.79	2.57	0.06	55.59	0.07	2.07	-999.25	-999.25	8.60	0.01
8252.5	16.99	2.60	0.06	55.29	0.07	2.07	-999.25	-999.25	9.20	0.12
8253.0	17.19	2.60	0.06	55.84	0.07	1.82	-999.25	-999.25	9.80	0.22
8253.5	16.49	2.61	0.07	57.59	0.07	1.31	-999.25	-999.25	10.85	0.34
8254.0	15.59	2.58	0.09	59.89	0.09	0.98	-999.25	-999.25	11.90	0.47
8254.5	15.39	2.53	0.11	61.83	0.10	0.77	-999.25	-999.25	12.85	0.58
8255.0	16.59	2.52	0.12	61.83	0.12	0.72	-999.25	-999.25	13.80	0.70
8255.5	16.79	2.52	0.13	63.08	0.12	0.72	-999.25	-999.25	13.55	0.62
8256.0	16.49	2.51	0.13	63.38	0.13	0.72	-999.25	-999.25	13.30	0.54
8256.5	16.39	2.51	0.14	64.18	0.13	0.72	-999.25	-999.25	13.70	0.59
8257.0	16.59	2.53	0.14	64.38	0.13	0.69	-999.25	-999.25	14.10	0.64
8257.5	15.89	2.51	0.14	64.38	0.13	0.64	-999.25	-999.25	12.15	0.44
8258.0	15.69	2.49	0.14	64.18	0.14	0.60	-999.25	-999.25	10.20	0.24
8258.5	14.79	2.49	0.14	63.83	0.14	0.56	-999.25	-999.25	12.05	0.51
8259.0	15.49	2.51	0.15	63.98	0.14	0.55	-999.25	-999.25	13.90	0.78
8259.5	15.59	2.51	0.15	64.48	0.14	0.56	-999.25	-999.25	14.20	0.85
8260.0	14.49	2.51	0.15	64.88	0.14	0.56	-999.25	-999.25	14.50	0.91
8260.5	14.59	2.51	0.15	64.93	0.14	0.57	-999.25	-999.25	14.20	0.89
8261.0	14.89	2.51	0.15	64.88	0.14	0.58	-999.25	-999.25	13.90	0.88
8261.5	15.39	2.50	0.15	64.48	0.14	0.62	-999.25	-999.25	14.20	1.54
8262.0	14.29	2.48	0.15	64.18	0.15	0.66	-999.25	-999.25	14.50	2.20
8262.5	13.59	2.48	0.16	64.38	0.15	0.70	0.99	0.01	14.60	1.53
8263.0	13.29	2.50	0.16	64.68	0.15	0.71	0.99	0.01	14.70	0.87
8263.5	14.09	2.50	0.16	64.83	0.14	0.71	-999.25	-999.25	12.15	0.50
8264.0	15.39	2.48	0.15	64.43	0.14	0.70	-999.25	-999.25	9.60	0.14
8264.5	16.19	2.50	0.14	63.78	0.14	0.71	-999.25	-999.25	10.00	0.18
8265.0	16.89	2.50	0.14	63.43	0.14	0.75	-999.25	-999.25	10.40	0.22
8265.5	17.39	2.48	0.13	62.93	0.13	0.79	-999.25	-999.25	10.30	0.21
8266.0	17.09	2.51	0.12	63.03	0.13	0.83	-999.25	-999.25	10.20	0.20
8266.5	16.69	2.51	0.12	62.78	0.12	0.85	-999.25	-999.25	9.95	0.31
8267.0	16.39	2.51	0.11	61.78	0.12	0.84	-999.25	-999.25	9.70	0.42
8267.5	16.29	2.54	0.10	60.39	0.11	0.83	-999.25	-999.25	10.55	0.48
8268.0	16.99	2.55	0.10	59.84	0.10	0.83	-999.25	-999.25	11.40	0.54
8268.5	18.29	2.57	0.10	59.79	0.10	0.82	-999.25	-999.25	10.85	0.27
8269.0	17.29	2.56	0.11	60.84	0.10	0.82	-999.25	-999.25	10.30	0.01
8269.5	16.49	2.56	0.12	62.13	0.11	0.82	-999.25	-999.25	11.40	0.13
8270.0	16.09	2.59	0.13	63.38	0.11	0.80	-999.25	-999.25	12.50	0.25
8270.5	16.39	2.57	0.14	63.83	0.12	0.71	-999.25	-999.25	12.40	0.33
8271.0	16.49	2.54	0.14	64.28	0.13	0.64	-999.25	-999.25	12.30	0.40
8271.5	16.89	2.52	0.14	64.48	0.13	0.58	-999.25	-999.25	12.20	0.34
8272.0	16.89	2.52	0.14	64.48	0.13	0.56	-999.25	-999.25	12.10	0.29
8272.5	16.79	2.53	0.13	64.23	0.13	0.57	-999.25	-999.25	12.90	0.41
8273.0	16.29	2.53	0.13	64.08	0.13	0.58	-999.25	-999.25	13.70	0.52
8273.5	15.89	2.55	0.13	63.98	0.13	0.57	-999.25	-999.25	13.65	0.51
8274.0	15.39	2.52	0.13	64.08	0.13	0.57	-999.25	-999.25	13.60	0.51
8274.5	15.19	2.51	0.14	64.28	0.13	0.57	-999.25	-999.25	13.20	0.46
8275.0	15.19	2.50	0.14	64.53	0.14	0.56	-999.25	-999.25	12.80	0.40
8275.5	15.79	2.49	0.14	64.58	0.14	0.55	-999.25	-999.25	13.05	0.42
8276.0	15.69	2.48	0.14	64.78	0.14	0.55	-999.25	-999.25	13.30	0.44
8276.5	15.79	2.48	0.14	64.68	0.14	0.55	-999.25	-999.25	13.05	0.44
8277.0	16.29	2.49	0.13	64.68	0.14	0.58	-999.25	-999.25	12.80	0.44
8277.5	16.39	2.49	0.13	64.48	0.13	0.67	-999.25	-999.25	12.00	0.36
8278.0	15.99	2.50	0.12	64.03	0.13	0.80	-999.25	-999.25	11.20	0.28
8278.5	17.29	2.52	0.12	62.88	0.12	0.97	-999.25	-999.25	10.10	0.22
8279.0	18.69	2.54	0.11	62.03	0.11	1.04	-999.25	-999.25	9.00	0.16
8279.5	19.79	2.54	0.10	60.44	0.10	1.04	-999.25	-999.25	8.10	0.09
8280.0	20.09	2.55	0.09	58.79	0.09	1.04	-999.25	-999.25	7.20	0.01
8280.5	20.59	2.59	0.08	57.84	0.08	1.02	-999.25	-999.25	8.40	0.09
8281.0	19.79	2.61	0.08	57.44	0.08	1.01	-999.25	-999.25	9.60	0.16
8281.5	18.89	2.57	0.09	58.24	0.09	1.00	-999.25	-999.25	10.25	0.20
8282.0	17.99	2.54	0.10	59.39	0.10	0.99	-999.25	-999.25	10.90	0.24
8282.5	16.59	2.53	0.11	60.34	0.11	0.96	-999.25	-999.25	10.60	0.23
8283.0	16.19	2.52	0.11	60.69	0.11	0.93	-999.25	-999.25	10.30	0.22
8283.5	16.19	2.53	0.11	60.94	0.11	0.93	-999.25	-999.25	10.50	0.24
8284.0	16.79	2.55	0.11	61.23	0.11	0.94	-999.25	-999.25	10.70	0.26
8284.5	16.39	2.56	0.11	61.18	0.11	0.90	-999.25	-999.25	11.20	0.33
8285.0	15.79	2.55	0.12	61.68	0.11	0.73	-999.25	-999.25	11.70	0.40
8285.5	15.29	2.53	0.12	61.88	0.12	0.58	-999.25	-999.25	11.90	0.46
8286.0	14.79	2.50	0.13	62.28	0.13	0.49	-999.25	-999.25	12.10	0.51
8286.5	15.09	2.50	0.15	63.08	0.14	0.46	-999.25	-999.25	13.75	0.74
8287.0	14.19	2.51	0.16	63.88	0.15	0.46	-999.25	-999.25	15.40	0.96
8287.5	14.19	2.49	0.18	65.28	0.16	0.46	-999.25	-999.25	15.25	1.31
8288.0	13.59	2.48	0.19	65.78	0.17	0.46	-999.25	-999.25	15.10	1.66
8288.5	12.79	2.47	0.20	66.08	0.17	0.46	-999.25	-999.25	16.80	2.58
8289.0	12.89	2.49	0.20	66.33	0.17	0.46	-999.25	-999.25	18.50	3.49
8289.5	12.99	2.49	0.19	66.28	0.17	0.46	-999.25	-999.25	17.40	2.22
8290.0	13.09	2.49	0.19	65.98	0.16	0.46	-999.25	-999.25	16.30	0.96
8290.5	13.29	2.49	0.18	66.08	0.16	0.46	-999.25	-999.25	15.00	0.70
8291.0	14.09	2.48	0.16	65.83	0.15	0.46	-999.25	-999.25	13.70	0.44
8291.5	15.39	2.47	0.15	65.78	0.15	0.49	-999.25	-999.25	13.30	0.47
8292.0	16.79	2.47	0.13	65.58	0.14	0.63	-999.25	-999.25	12.90	0.50
8292.5	16.69	2.50	0.12	64.38	0.12	0.83	-999.25	-999.25	10.15	0.25
8293.0	17.09	2.54	0.10	62.63	0.10	1.16	-999.25	-999.25	7.40	0.01
8293.5	17.39	2.56	0.08	60.09	0.09	1.30	-999.25	-999.25	6.60	0.01
8294.0	18.49	2.60	0.07	58.44	0.07	1.30	-999.25	-999.25	5.80	0.01
8294.5	18.39	2.62	0.07	57.04	0.07	1.29	-999.25	-999.25	7.15	0.08
8295.0	17.19	2.61	0.07	57.64	0.07	1.29	-999.25	-999.25	8.50	0.14
8295.5	16.09	2.57	0.08	58.84	0.08	1.29	-999.25	-999.25	9.80	0.23
8296.0	16.19	2.55	0.09	59.89	0.09	1.30	-999.25	-999.25	11.10	0.31
8296.5	16.79	2.55	0.09	60.29	0.10	1.26	-999.25	-999.25	10.35	0.26
8297.0	15.59	2.54	0.10	60.24	0.10	1.13	-999.25	-999.25	9.60	0.22
8297.5	15.79	2.56	0.09	59.64	0.09	1.02	-999.25	-999.25	9.15	0.11
8298.0	15.69	2.58	0.09	58.89	0.09	0.92	-999.25	-999.25	8.70	0.01
8298.5	15.49	2.58	0.09	58.74	0.09	0.89	-999.25	-999.25	10.00	0.15
8299.0	14.99	2.58	0.10	59.69	0.10	0.89	-999.25	-999.25	11.30	0.28
8299.5	13.19	2.52	0.11	60.89	0.11	0.90	-999.25	-999.25	11.45	0.29
8300.0	13.69	2.51	0.11	61.78	0.12	0.90	-999.25	-999.25	11.60	0.30
8300.5	13.89	2.50	0.12	61.83	0.12	0.90	-999.25	-999.25	10.25	0.23
8301.0	14.49	2.50	0.12	61.68	0.12	0.85	-999.25	-999.25	8.90	0.16
8301.5	15.29	2.50	0.11	61.28	0.12	0.72	-999.25	-999.25	10.70	0.28
8302.0	15.29	2.52	0.12	61.48	0.12	0.62	-999.25	-999.25	12.50	0.40
8302.5	13.69	2.51	0.13	61.78	0.13	0.54	-999.25	-999.25	13.65	0.56
8303.0	12.59	2.50	0.14	62.88	0.14	0.52	-999.25	-999.25	14.80	0.71
8303.5	12.59	2.49	0.14	64.03	0.14	0.52	-999.25	-999.25	15.45	0.80
8304.0	12.59	2.50	0.15	64.48	0.14	0.51	-999.25	-999.25	16.10	0.88
8304.5	12.39	2.50	0.15	64.88	0.15	0.50	-999.25	-999.25	15.75	0.85
8305.0	12.99	2.48	0.15	65.23	0.15	0.49	-999.25	-999.25	15.40	0.82
8305.5	12.59	2.45	0.15	65.38	0.15	0.53	-999.25	-999.25	13.40	0.58
8306.0	13.49	2.46	0.14	64.83	0.15	0.66	-999.25	-999.25	11.40	0.34
