# LAS format log file from PETREL
# Project units are specified as depth units
#==================================================================
~Version information
VERS.   2.0:
WRAP.   NO:
#==================================================================
~Well
STRT .ft        8155.0 :
STOP .ft        8816.0 :
STEP .ft        0.5    :
NULL .          -999.25  :
COMP.           : COMPANY
WELL.  HW-8     : WELL
FLD.   COSTA    : FIELD
LOC.            : LOCATION
SRVC.           : SERVICE COMPANY
DATE.  2018-02-06 14:55:38   : Log Export Date {yyyy-MM-dd HH:mm:ss}
PROV.           : PROVINCE
UWI.   HW-8     : UNIQUE WELL ID
API.            : API NUMBER
#==================================================================
~Curve
DEPT .ft                  : DEPTH
GR .gAPI                  : GR
RHOB .g/cm3               : RHOB
NPHI .ft3/ft3             : NPHI
DT .us/ft                 : DT
PHIE .ft3/ft3             : PHIE
RT .ohm.m                 : RT
SW .                      : SW
SO . 			  : SO
CORE_POR .ft3/ft3         : CORE_POR
CORE_PERM .mD             : CORE_PERM
~Parameter
#==================================================================
~Ascii
# ...
8740.5	9.52	2.33	0.20	-999.25	0.22	0.23	-999.25	-999.25	25.55	2.13
8741.0	9.52	2.32	0.21	-999.25	0.22	0.22	-999.25	-999.25	26.70	2.68
8741.5	9.85	2.31	0.22	-999.25	0.23	0.23	-999.25	-999.25	25.40	2.13
8742.0	10.18	2.30	0.23	-999.25	0.24	0.23	-999.25	-999.25	24.10	1.59
8742.5	10.40	2.30	0.23	-999.25	0.24	0.22	-999.25	-999.25	23.95	2.21
8743.0	10.63	2.29	0.23	-999.25	0.24	0.21	-999.25	-999.25	23.80	2.84
8743.5	10.15	2.29	0.24	-999.25	0.25	0.20	-999.25	-999.25	24.90	2.52
8744.0	9.68	2.29	0.25	-999.25	0.25	0.20	-999.25	-999.25	26.00	2.21
8744.5	9.22	2.29	0.24	-999.25	0.25	0.20	-999.25	-999.25	25.30	1.75
8745.0	8.76	2.29	0.24	-999.25	0.25	0.20	-999.25	-999.25	24.60	1.29
8745.5	9.12	2.29	0.25	-999.25	0.25	0.21	-999.25	-999.25	24.55	1.60
8746.0	9.48	2.28	0.25	-999.25	0.25	0.21	-999.25	-999.25	24.50	1.90
8746.5	9.31	2.28	0.25	-999.25	0.25	0.21	-999.25	-999.25	24.30	1.29
8747.0	9.13	2.27	0.24	-999.25	0.25	0.21	-999.25	-999.25	24.10	0.67
8747.5	8.59	2.27	0.24	-999.25	0.25	0.20	-999.25	-999.25	25.40	1.36
8748.0	8.05	2.27	0.24	-999.25	0.25	0.20	-999.25	-999.25	26.70	2.05
8748.5	8.60	2.27	0.24	-999.25	0.26	0.20	-999.25	-999.25	26.10	1.82
8749.0	9.16	2.26	0.25	-999.25	0.26	0.20	-999.25	-999.25	25.50	1.59
8749.5	9.77	2.26	0.25	-999.25	0.26	0.19	-999.25	-999.25	25.60	1.86
8750.0	10.37	2.26	0.24	-999.25	0.26	0.19	-999.25	-999.25	25.70	2.13
8750.5	10.56	2.26	0.24	-999.25	0.26	0.19	-999.25	-999.25	25.85	2.21
8751.0	10.76	2.25	0.24	-999.25	0.26	0.19	-999.25	-999.25	26.00	2.29
8751.5	10.48	2.25	0.24	-999.25	0.26	0.19	-999.25	-999.25	26.55	2.33
8752.0	10.21	2.25	0.24	-999.25	0.26	0.20	-999.25	-999.25	27.10	2.36
8752.5	10.60	2.25	0.24	-999.25	0.26	0.20	-999.25	-999.25	25.75	2.25
8753.0	11.00	2.25	0.25	-999.25	0.26	0.20	-999.25	-999.25	24.40	2.13
8753.5	11.01	2.25	0.25	-999.25	0.26	0.20	-999.25	-999.25	25.55	2.57
8754.0	11.02	2.25	0.25	-999.25	0.26	0.20	-999.25	-999.25	26.70	3.00
8754.5	10.65	2.26	0.25	-999.25	0.26	0.21	-999.25	-999.25	26.00	2.41
8755.0	10.29	2.27	0.25	-999.25	0.26	0.21	-999.25	-999.25	25.30	1.82
8755.5	10.24	2.27	0.25	-999.25	0.26	0.21	-999.25	-999.25	24.45	1.82
8756.0	10.20	2.27	0.25	-999.25	0.26	0.21	-999.25	-999.25	23.60	1.82
8756.5	10.66	2.27	0.26	-999.25	0.26	0.21	-999.25	-999.25	23.10	1.75
8757.0	11.12	2.26	0.26	-999.25	0.26	0.20	-999.25	-999.25	22.60	1.67
8757.5	11.01	2.27	0.26	-999.25	0.26	0.20	-999.25	-999.25	23.60	1.83
8758.0	10.90	2.27	0.26	-999.25	0.26	0.19	-999.25	-999.25	24.60	1.98
8758.5	10.43	2.28	0.26	-999.25	0.26	0.19	-999.25	-999.25	24.75	1.63
8759.0	9.95	2.28	0.25	-999.25	0.26	0.19	-999.25	-999.25	24.90	1.29
8759.5	10.38	2.28	0.25	-999.25	0.26	0.19	-999.25	-999.25	24.05	1.71
8760.0	10.81	2.27	0.25	-999.25	0.26	0.19	-999.25	-999.25	23.20	2.13
8760.5	10.91	2.27	0.25	-999.25	0.26	0.19	-999.25	-999.25	22.70	1.24
8761.0	11.02	2.27	0.25	-999.25	0.26	0.19	-999.25	-999.25	22.20	0.35
8761.5	11.04	2.28	0.25	-999.25	0.25	0.19	-999.25	-999.25	19.55	0.25
8762.0	11.06	2.28	0.24	-999.25	0.25	0.20	-999.25	-999.25	16.90	0.15
8762.5	11.09	2.28	0.24	-999.25	0.25	0.20	-999.25	-999.25	19.05	0.34
8763.0	11.11	2.28	0.24	-999.25	0.25	0.20	-999.25	-999.25	21.20	0.54
8763.5	11.20	2.28	0.24	-999.25	0.25	0.20	-999.25	-999.25	22.25	0.52
8764.0	11.30	2.27	0.24	-999.25	0.25	0.20	-999.25	-999.25	23.30	0.51
8764.5	10.69	2.27	0.24	-999.25	0.26	0.19	-999.25	-999.25	21.20	0.44
8765.0	10.09	2.26	0.25	-999.25	0.26	0.19	-999.25	-999.25	19.10	0.36
8765.5	10.19	2.26	0.25	-999.25	0.26	0.19	-999.25	-999.25	20.75	0.52
8766.0	10.30	2.25	0.25	-999.25	0.26	0.19	-999.25	-999.25	22.40	0.67
8766.5	10.56	2.26	0.25	-999.25	0.26	0.20	-999.25	-999.25	19.95	0.49
8767.0	10.82	2.27	0.25	-999.25	0.25	0.20	-999.25	-999.25	17.50	0.31
8767.5	11.30	2.29	0.24	-999.25	0.25	0.21	-999.25	-999.25	16.80	0.25
8768.0	11.77	2.31	0.24	-999.25	0.24	0.22	-999.25	-999.25	16.10	0.19
8768.5	12.33	2.32	0.22	-999.25	0.23	0.23	-999.25	-999.25	13.55	0.14
8769.0	12.89	2.33	0.21	-999.25	0.22	0.24	-999.25	-999.25	11.00	0.10
8769.5	13.70	2.36	0.19	-999.25	0.20	0.25	-999.25	-999.25	13.10	0.14
8770.0	14.52	2.39	0.17	-999.25	0.18	0.29	-999.25	-999.25	15.20	0.17
8770.5	14.93	2.41	0.16	-999.25	0.17	0.35	-999.25	-999.25	15.60	0.22
8771.0	15.33	2.43	0.15	-999.25	0.16	0.38	-999.25	-999.25	16.00	0.27
8771.5	15.07	2.42	0.15	-999.25	0.16	0.40	-999.25	-999.25	16.80	0.30
8772.0	14.81	2.42	0.16	-999.25	0.17	0.38	-999.25	-999.25	17.60	0.32
8772.5	15.01	2.41	0.16	-999.25	0.17	0.39	-999.25	-999.25	16.85	0.30
8773.0	15.21	2.40	0.17	-999.25	0.18	0.40	-999.25	-999.25	16.10	0.28
8773.5	15.52	2.41	0.17	-999.25	0.17	0.42	-999.25	-999.25	17.00	0.86
8774.0	15.84	2.42	0.17	-999.25	0.17	0.44	-999.25	-999.25	17.90	1.44
8774.5	15.39	2.42	0.18	-999.25	0.17	0.45	-999.25	-999.25	20.05	1.44
8775.0	14.94	2.42	0.18	-999.25	0.18	0.46	-999.25	-999.25	22.20	1.44
8775.5	14.87	2.40	0.19	-999.25	0.19	0.44	-999.25	-999.25	22.05	1.29
8776.0	14.80	2.39	0.20	-999.25	0.20	0.39	-999.25	-999.25	21.90	1.14
8776.5	14.28	2.36	0.21	-999.25	0.21	0.34	-999.25	-999.25	21.65	1.40
8777.0	13.77	2.33	0.22	-999.25	0.23	0.31	-999.25	-999.25	21.40	1.67
8777.5	13.49	2.33	0.23	-999.25	0.23	0.31	-999.25	-999.25	21.75	1.44
8778.0	13.21	2.32	0.23	-999.25	0.23	0.30	-999.25	-999.25	22.10	1.21
8778.5	13.52	2.32	0.23	-999.25	0.23	0.30	-999.25	-999.25	21.75	1.21
8779.0	13.84	2.31	0.23	-999.25	0.24	0.29	-999.25	-999.25	21.40	1.21
8779.5	14.14	2.30	0.23	-999.25	0.24	0.29	-999.25	-999.25	21.55	1.06
8780.0	14.43	2.29	0.22	-999.25	0.24	0.27	-999.25	-999.25	21.70	0.91
8780.5	14.48	2.28	0.22	-999.25	0.24	0.27	-999.25	-999.25	20.35	0.62
8781.0	14.54	2.27	0.22	-999.25	0.24	0.26	-999.25	-999.25	19.00	0.33
8781.5	14.18	2.28	0.21	-999.25	0.24	0.26	-999.25	-999.25	15.40	0.19
8782.0	13.81	2.28	0.20	-999.25	0.23	0.27	-999.25	-999.25	11.80	0.04
8782.5	13.08	2.30	0.19	-999.25	0.22	0.27	-999.25	-999.25	10.05	0.04
8783.0	12.35	2.32	0.17	-999.25	0.20	0.27	-999.25	-999.25	8.30	0.04
8783.5	11.68	2.36	0.15	-999.25	0.19	0.29	-999.25	-999.25	9.00	0.06
8784.0	11.01	2.39	0.14	-999.25	0.17	0.40	-999.25	-999.25	9.70	0.07
8784.5	11.05	2.41	0.13	-999.25	0.15	0.58	-999.25	-999.25	7.75	0.04
8785.0	11.09	2.44	0.11	-999.25	0.14	0.89	-999.25	-999.25	5.80	0.01
8785.5	11.13	2.47	0.11	-999.25	0.12	1.01	-999.25	-999.25	7.85	0.04
8786.0	11.17	2.50	0.10	-999.25	0.11	0.98	-999.25	-999.25	9.90	0.06
8786.5	11.23	2.52	0.10	-999.25	0.11	0.96	-999.25	-999.25	10.85	0.06
8787.0	11.29	2.53	0.10	-999.25	0.10	0.96	-999.25	-999.25	11.80	0.07
8787.5	11.27	2.53	0.10	-999.25	0.10	1.02	-999.25	-999.25	12.15	0.32
8788.0	11.25	2.52	0.11	-999.25	0.11	1.13	-999.25	-999.25	12.50	0.57
8788.5	11.39	2.51	0.11	-999.25	0.11	1.17	-999.25	-999.25	11.95	0.33
8789.0	11.52	2.50	0.12	-999.25	0.12	1.16	-999.25	-999.25	11.40	0.09
8789.5	11.53	2.48	0.13	-999.25	0.13	1.09	-999.25	-999.25	11.75	0.11
8790.0	11.55	2.47	0.13	-999.25	0.13	0.94	-999.25	-999.25	12.10	0.12
8790.5	11.03	2.46	0.13	-999.25	0.14	0.82	-999.25	-999.25	13.20	0.14
8791.0	10.51	2.45	0.14	-999.25	0.15	0.74	-999.25	-999.25	14.30	0.16
8791.5	10.95	2.44	0.14	-999.25	0.15	0.72	-999.25	-999.25	13.00	0.13
8792.0	11.39	2.44	0.14	-999.25	0.15	0.72	-999.25	-999.25	11.70	0.10
8792.5	11.50	2.44	0.14	-999.25	0.15	0.71	-999.25	-999.25	10.90	0.06
8793.0	11.61	2.44	0.14	-999.25	0.15	0.71	-999.25	-999.25	10.10	0.02
8793.5	11.22	2.45	0.13	-999.25	0.14	0.70	-999.25	-999.25	6.50	0.02
8794.0	10.83	2.47	0.12	-999.25	0.13	0.70	-999.25	-999.25	2.90	0.01
8794.5	11.06	2.51	0.10	-999.25	0.11	0.70	-999.25	-999.25	1.80	0.02
8795.0	11.28	2.54	0.08	-999.25	0.09	0.81	-999.25	-999.25	0.70	0.02
8795.5	11.55	2.59	0.07	-999.25	0.07	1.36	-999.25	-999.25	0.90	0.02
8796.0	11.82	2.64	0.05	-999.25	0.04	3.14	-999.25	-999.25	1.10	0.01
8796.5	11.52	2.67	0.04	-999.25	0.03	8.71	-999.25	-999.25	0.90	0.01
8797.0	11.21	2.71	0.02	-999.25	0.02	11.29	-999.25	-999.25	0.70	0.01
8797.5	11.00	2.71	0.02	-999.25	0.01	9.64	-999.25	-999.25	-999.25	-999.25
8798.0	10.79	2.71	0.01	-999.25	0.01	8.78	-999.25	-999.25	-999.25	-999.25
8798.5	11.20	2.69	0.01	-999.25	0.02	8.87	-999.25	-999.25	-999.25	-999.25
8799.0	11.62	2.68	0.02	-999.25	0.02	12.57	-999.25	-999.25	-999.25	-999.25
