# LAS format log file from PETREL
# Project units are specified as depth units
#==================================================================
~Version information
VERS.   2.0:
WRAP.   NO:
#==================================================================
~Well
STRT .ft        8155.0 :
STOP .ft        8816.0 :
STEP .ft        0.5    :
NULL .          -999.25  :
COMP.           : COMPANY
WELL.  HW-8     : WELL
FLD.   COSTA    : FIELD
LOC.            : LOCATION
SRVC.           : SERVICE COMPANY
DATE.  2018-02-06 14:55:38   : Log Export Date {yyyy-MM-dd HH:mm:ss}
PROV.           : PROVINCE
UWI.   HW-8     : UNIQUE WELL ID
API.            : API NUMBER
#==================================================================
~Curve
DEPT .ft                  : DEPTH
GR .gAPI                  : GR
RHOB .g/cm3               : RHOB
NPHI .ft3/ft3             : NPHI
DT .us/ft                 : DT
PHIE .ft3/ft3             : PHIE
RT .ohm.m                 : RT
SW .                      : SW
SO . 			  : SO
CORE_POR .ft3/ft3         : CORE_POR
CORE_PERM .mD             : CORE_PERM
~Parameter
#==================================================================
~Ascii
8621.0	35.26	2.70	0.04	-999.25	0.03	13.86	-999.25	-999.25	0.70	0.01
8621.5	36.26	2.69	0.04	-999.25	0.03	13.04	-999.25	-999.25	0.70	0.01
8622.0	37.25	2.69	0.04	-999.25	0.03	13.69	-999.25	-999.25	0.70	0.01
8622.5	36.65	2.69	0.04	-999.25	0.03	15.62	-999.25	-999.25	0.70	0.01
8623.0	36.04	2.69	0.04	-999.25	0.03	17.36	-999.25	-999.25	0.70	0.01
8623.5	36.23	2.69	0.04	-999.25	0.03	17.30	-999.25	-999.25	0.70	0.01
8624.0	36.42	2.69	0.04	-999.25	0.03	16.82	-999.25	-999.25	0.70	0.01
8624.5	36.45	2.69	0.04	-999.25	0.03	17.38	-999.25	-999.25	0.70	0.01
8625.0	36.48	2.69	0.04	-999.25	0.03	20.13	-999.25	-999.25	0.70	0.01
8625.5	35.76	2.68	0.04	-999.25	0.03	24.61	-999.25	-999.25	0.70	0.01
8626.0	35.05	2.68	0.04	-999.25	0.03	27.63	-999.25	-999.25	0.70	0.01
8626.5	33.78	2.68	0.04	-999.25	0.03	28.49	-999.25	-999.25	0.70	0.01
8627.0	32.52	2.68	0.03	-999.25	0.03	27.85	-999.25	-999.25	0.70	0.01
8627.5	33.29	2.68	0.03	-999.25	0.03	27.12	-999.25	-999.25	0.70	0.01
8628.0	34.07	2.69	0.03	-999.25	0.03	26.71	-999.25	-999.25	0.70	0.01
8628.5	33.06	2.69	0.03	-999.25	0.03	26.78	-999.25	-999.25	0.70	0.01
8629.0	32.05	2.69	0.03	-999.25	0.03	27.32	-999.25	-999.25	0.70	0.01
8629.5	31.50	2.69	0.03	-999.25	0.02	27.95	-999.25	-999.25	0.70	0.01
8630.0	30.95	2.69	0.03	-999.25	0.02	28.37	-999.25	-999.25	0.70	0.01
8630.5	31.83	2.70	0.03	-999.25	0.02	28.68	-999.25	-999.25	0.70	0.01
8631.0	32.72	2.71	0.03	-999.25	0.02	28.94	-999.25	-999.25	0.70	0.01
8631.5	32.54	2.70	0.03	-999.25	0.03	29.12	-999.25	-999.25	0.70	0.01
8632.0	32.36	2.70	0.04	-999.25	0.03	29.26	-999.25	-999.25	0.70	0.01
8632.5	31.89	2.69	0.03	-999.25	0.02	27.47	-999.25	-999.25	0.70	0.01
8633.0	31.41	2.69	0.03	-999.25	0.02	27.61	-999.25	-999.25	0.70	0.01
8633.5	30.34	2.68	0.02	-999.25	0.02	30.58	-999.25	-999.25	0.70	0.01
8634.0	29.28	2.68	0.02	-999.25	0.02	34.31	-999.25	-999.25	0.70	0.01
8634.5	28.66	2.68	0.02	-999.25	0.02	44.08	-999.25	-999.25	0.70	0.01
8635.0	28.03	2.68	0.02	-999.25	0.02	55.12	-999.25	-999.25	0.70	0.01
8635.5	27.48	2.68	0.02	-999.25	0.02	59.45	-999.25	-999.25	0.70	0.01
8636.0	26.93	2.68	0.01	-999.25	0.02	59.35	-999.25	-999.25	0.70	0.01
8636.5	29.50	2.70	0.01	-999.25	0.01	59.35	-999.25	-999.25	0.70	0.01
8637.0	32.08	2.72	0.01	-999.25	0.00	59.40	-999.25	-999.25	0.70	0.01
8637.5	33.10	2.71	0.01	-999.25	0.00	59.11	-999.25	-999.25	0.55	0.01
8638.0	34.11	2.71	0.01	-999.25	0.01	58.76	-999.25	-999.25	0.40	0.01
8638.5	32.47	2.69	0.02	-999.25	0.02	58.89	-999.25	-999.25	0.75	0.01
8639.0	30.82	2.67	0.02	-999.25	0.02	59.39	-999.25	-999.25	1.10	0.01
8639.5	29.17	2.65	0.02	-999.25	0.03	60.18	0.80	0.20	1.70	0.02
8640.0	27.51	2.64	0.03	-999.25	0.03	60.90	0.66	0.34	2.30	0.02
8640.5	24.92	2.62	0.05	-999.25	0.05	57.79	0.47	0.53	5.65	0.18
8641.0	22.33	2.59	0.06	-999.25	0.06	44.16	0.40	0.60	9.00	0.34
8641.5	20.51	2.54	0.08	-999.25	0.09	19.13	0.43	0.57	11.15	0.36
8642.0	18.70	2.48	0.10	-999.25	0.12	7.80	0.52	0.48	13.30	0.37
8642.5	17.64	2.45	0.11	-999.25	0.13	3.64	0.69	0.31	13.35	0.51
8643.0	16.58	2.43	0.12	-999.25	0.15	2.07	0.83	0.17	13.40	0.65
8643.5	15.72	2.44	0.12	-999.25	0.14	1.74	0.93	0.07	12.95	0.61
8644.0	14.85	2.46	0.13	-999.25	0.14	1.72	0.97	0.03	12.50	0.57
8644.5	16.17	2.46	0.13	-999.25	0.14	1.72	0.97	0.03	12.65	1.12
8645.0	17.48	2.46	0.13	-999.25	0.14	1.70	0.97	0.03	12.80	1.67
8645.5	18.08	2.45	0.13	-999.25	0.14	1.69	0.96	0.04	8.65	0.84
8646.0	18.68	2.45	0.13	-999.25	0.14	1.71	0.94	0.06	4.50	0.01
8646.5	19.93	2.47	0.12	-999.25	0.13	1.80	0.98	0.02	7.60	0.04
8647.0	21.18	2.49	0.12	-999.25	0.12	2.03	-999.25	-999.25	10.70	0.06
8647.5	22.23	2.51	0.11	-999.25	0.11	2.26	-999.25	-999.25	12.70	8.70
8648.0	23.28	2.52	0.10	-999.25	0.10	2.49	-999.25	-999.25	14.70	17.34
8648.5	19.75	2.51	0.10	-999.25	0.11	2.53	-999.25	-999.25	12.75	8.70
8649.0	16.21	2.49	0.10	-999.25	0.11	2.48	0.97	0.03	10.80	0.06
8649.5	14.18	2.48	0.10	-999.25	0.12	2.46	0.93	0.07	12.10	0.13
8650.0	12.15	2.47	0.11	-999.25	0.12	2.41	0.89	0.11	13.40	0.19
8650.5	12.61	2.47	0.11	-999.25	0.12	2.42	0.91	0.09	11.90	0.13
8651.0	13.08	2.48	0.11	-999.25	0.12	2.42	0.92	0.08	10.40	0.06
8651.5	13.38	2.48	0.11	-999.25	0.12	2.43	0.91	0.09	11.75	0.45
8652.0	13.67	2.48	0.11	-999.25	0.12	2.29	0.93	0.07	13.10	0.84
8652.5	13.59	2.47	0.12	-999.25	0.13	2.03	0.95	0.05	13.05	1.60
8653.0	13.50	2.46	0.12	-999.25	0.13	1.83	0.97	0.03	13.00	2.36
8653.5	13.11	2.46	0.12	-999.25	0.13	1.70	0.99	0.01	14.60	3.61
8654.0	12.72	2.46	0.13	-999.25	0.14	1.66	0.98	0.02	16.20	4.85
8654.5	12.53	2.43	0.14	-999.25	0.16	1.66	0.87	0.13	18.80	3.57
8655.0	12.34	2.40	0.16	-999.25	0.17	1.63	0.78	0.22	21.40	2.29
8655.5	11.07	2.37	0.18	-999.25	0.20	1.62	0.69	0.31	23.10	30.30
8656.0	9.81	2.33	0.21	-999.25	0.22	1.30	0.70	0.30	24.80	58.31
8656.5	10.52	2.32	0.21	-999.25	0.22	0.73	0.91	0.09	25.15	37.39
8657.0	11.24	2.31	0.22	-999.25	0.23	0.46	-999.25	-999.25	25.50	16.47
8657.5	11.09	2.29	0.22	-999.25	0.24	0.35	-999.25	-999.25	24.70	17.78
8658.0	10.93	2.27	0.22	-999.25	0.24	0.32	-999.25	-999.25	23.90	19.09
8658.5	9.97	2.26	0.23	-999.25	0.25	0.34	-999.25	-999.25	26.05	87.97
8659.0	9.01	2.25	0.24	-999.25	0.26	0.36	-999.25	-999.25	28.20	156.84
8659.5	9.69	2.25	0.24	-999.25	0.26	0.35	-999.25	-999.25	27.10	87.09
8660.0	10.38	2.25	0.24	-999.25	0.26	0.33	-999.25	-999.25	26.00	17.34
8660.5	10.40	2.25	0.24	-999.25	0.26	0.33	-999.25	-999.25	24.10	10.60
8661.0	10.43	2.25	0.24	-999.25	0.26	0.30	-999.25	-999.25	22.20	3.87
8661.5	9.98	2.26	0.24	-999.25	0.25	0.29	-999.25	-999.25	22.70	2.92
8662.0	9.53	2.27	0.24	-999.25	0.25	0.28	-999.25	-999.25	23.20	1.98
8662.5	9.26	2.28	0.24	-999.25	0.25	0.27	-999.25	-999.25	23.55	2.17
8663.0	8.99	2.28	0.24	-999.25	0.25	0.26	-999.25	-999.25	23.90	2.36
8663.5	9.13	2.28	0.23	-999.25	0.25	0.25	-999.25	-999.25	23.05	2.44
8664.0	9.27	2.28	0.23	-999.25	0.24	0.25	-999.25	-999.25	22.20	2.52
8664.5	9.98	2.30	0.22	-999.25	0.23	0.25	-999.25	-999.25	20.80	1.48
8665.0	10.68	2.32	0.21	-999.25	0.22	0.25	-999.25	-999.25	19.40	0.44
8665.5	10.32	2.33	0.20	-999.25	0.22	0.25	-999.25	-999.25	20.90	0.83
8666.0	9.96	2.33	0.20	-999.25	0.21	0.25	-999.25	-999.25	22.40	1.21
8666.5	10.19	2.33	0.20	-999.25	0.22	0.26	-999.25	-999.25	23.05	3.39
8667.0	10.43	2.32	0.20	-999.25	0.22	0.26	-999.25	-999.25	23.70	5.58
8667.5	10.68	2.31	0.21	-999.25	0.23	0.27	-999.25	-999.25	23.80	14.99
8668.0	10.92	2.29	0.22	-999.25	0.24	0.27	-999.25	-999.25	23.90	24.41
8668.5	10.48	2.30	0.22	-999.25	0.24	0.29	-999.25	-999.25	23.00	13.82
8669.0	10.04	2.30	0.23	-999.25	0.24	0.30	-999.25	-999.25	22.10	3.23
8669.5	9.69	2.30	0.23	-999.25	0.24	0.31	-999.25	-999.25	22.35	4.20
8670.0	9.34	2.30	0.23	-999.25	0.24	0.32	-999.25	-999.25	22.60	5.17
8670.5	10.26	2.30	0.23	-999.25	0.24	0.32	-999.25	-999.25	22.70	5.09
8671.0	11.17	2.30	0.22	-999.25	0.24	0.33	-999.25	-999.25	22.80	5.01
8671.5	10.94	2.31	0.23	-999.25	0.23	0.33	-999.25	-999.25	21.65	14.71
8672.0	10.70	2.31	0.23	-999.25	0.23	0.33	-999.25	-999.25	20.50	24.41
8672.5	10.93	2.31	0.23	-999.25	0.23	0.33	-999.25	-999.25	21.60	21.75
8673.0	11.16	2.31	0.22	-999.25	0.23	0.33	-999.25	-999.25	22.70	19.09
8673.5	11.43	2.32	0.22	-999.25	0.23	0.34	-999.25	-999.25	21.70	10.57
8674.0	11.70	2.32	0.22	-999.25	0.23	0.34	-999.25	-999.25	20.70	2.05
8674.5	11.51	2.32	0.22	-999.25	0.23	0.34	-999.25	-999.25	19.35	9.26
8675.0	11.31	2.32	0.21	-999.25	0.22	0.34	-999.25	-999.25	18.00	16.47
8675.5	10.97	2.33	0.21	-999.25	0.22	0.38	-999.25	-999.25	15.30	9.26
8676.0	10.63	2.34	0.20	-999.25	0.21	0.44	-999.25	-999.25	12.60	2.05
8676.5	10.28	2.36	0.19	-999.25	0.20	0.51	-999.25	-999.25	15.35	14.57
8677.0	9.94	2.38	0.18	-999.25	0.19	0.54	-999.25	-999.25	18.10	27.09
8677.5	10.49	2.39	0.17	-999.25	0.18	0.53	-999.25	-999.25	21.60	205.38
8678.0	11.04	2.41	0.16	-999.25	0.17	0.52	-999.25	-999.25	25.10	383.68
8678.5	11.51	2.41	0.16	-999.25	0.17	0.53	-999.25	-999.25	24.75	326.54
8679.0	11.98	2.42	0.16	-999.25	0.16	0.55	-999.25	-999.25	24.40	269.39
8679.5	11.56	2.38	0.17	-999.25	0.18	0.56	-999.25	-999.25	24.60	153.22
8680.0	11.14	2.35	0.18	-999.25	0.20	0.57	-999.25	-999.25	24.80	37.04
8680.5	10.63	2.33	0.20	-999.25	0.21	0.57	-999.25	-999.25	24.15	21.15
8681.0	10.11	2.31	0.21	-999.25	0.23	0.56	-999.25	-999.25	23.50	5.25
