# LAS format log file from PETREL
# Project units are specified as depth units
#==================================================================
~Version information
VERS.   2.0:
WRAP.   NO:
#==================================================================
~Well
STRT .ft        8155.0 :
STOP .ft        8816.0 :
STEP .ft        0.5    :
NULL .          -999.25  :
COMP.           : COMPANY
WELL.  HW-8     : WELL
FLD.   COSTA    : FIELD
LOC.            : LOCATION
SRVC.           : SERVICE COMPANY
DATE.  2018-02-06 14:55:38   : Log Export Date {yyyy-MM-dd HH:mm:ss}
PROV.           : PROVINCE
UWI.   HW-8     : UNIQUE WELL ID
API.            : API NUMBER
#==================================================================
~Curve
DEPT .ft                  : DEPTH
GR .gAPI                  : GR
RHOB .g/cm3               : RHOB
NPHI .ft3/ft3             : NPHI
DT .us/ft                 : DT
PHIE .ft3/ft3             : PHIE
RT .ohm.m                 : RT
SW .                      : SW
SO . 			  : SO
CORE_POR .ft3/ft3         : CORE_POR
CORE_PERM .mD             : CORE_PERM
~Parameter
#==================================================================
~Ascii
# ...
8681.5	10.14	2.31	0.22	-999.25	0.23	0.50	-999.25	-999.25	25.30	21.15
8682.0	10.17	2.30	0.23	-999.25	0.24	0.41	-999.25	-999.25	27.10	37.04
8682.5	9.80	2.29	0.24	-999.25	0.24	0.32	-999.25	-999.25	25.65	28.51
8683.0	9.42	2.28	0.24	-999.25	0.25	0.26	-999.25	-999.25	24.20	19.98
8683.5	8.98	2.29	0.24	-999.25	0.25	0.26	-999.25	-999.25	24.60	17.79
8684.0	8.55	2.29	0.24	-999.25	0.25	0.26	-999.25	-999.25	25.00	15.60
8684.5	9.63	2.29	0.24	-999.25	0.25	0.26	-999.25	-999.25	25.35	16.47
8685.0	10.71	2.29	0.24	-999.25	0.24	0.26	-999.25	-999.25	25.70	17.34
8685.5	10.53	2.28	0.24	-999.25	0.25	0.26	-999.25	-999.25	25.85	13.04
8686.0	10.35	2.27	0.24	-999.25	0.25	0.26	-999.25	-999.25	26.00	8.74
8686.5	9.73	2.27	0.24	-999.25	0.25	0.26	-999.25	-999.25	25.70	93.21
8687.0	9.11	2.27	0.24	-999.25	0.25	0.26	-999.25	-999.25	25.40	177.67
8687.5	9.39	2.27	0.24	-999.25	0.25	0.26	-999.25	-999.25	25.70	94.90
8688.0	9.66	2.27	0.24	-999.25	0.25	0.26	-999.25	-999.25	26.00	12.14
8688.5	10.13	2.28	0.24	-999.25	0.25	0.26	-999.25	-999.25	25.75	7.41
8689.0	10.59	2.29	0.24	-999.25	0.25	0.26	-999.25	-999.25	25.50	2.68
8689.5	10.03	2.29	0.24	-999.25	0.24	0.26	-999.25	-999.25	24.20	3.32
8690.0	9.47	2.29	0.23	-999.25	0.24	0.26	-999.25	-999.25	22.90	3.95
8690.5	10.48	2.29	0.23	-999.25	0.24	0.26	-999.25	-999.25	25.10	4.97
8691.0	11.48	2.29	0.24	-999.25	0.25	0.26	-999.25	-999.25	27.30	5.99
8691.5	11.34	2.29	0.24	-999.25	0.25	0.26	-999.25	-999.25	23.10	3.79
8692.0	11.19	2.29	0.24	-999.25	0.25	0.26	-999.25	-999.25	18.90	1.59
8692.5	10.69	2.30	0.23	-999.25	0.24	0.26	-999.25	-999.25	19.10	1.09
8693.0	10.20	2.30	0.23	-999.25	0.24	0.26	-999.25	-999.25	19.30	0.59
8693.5	10.49	2.30	0.23	-999.25	0.24	0.27	-999.25	-999.25	20.10	2.19
8694.0	10.78	2.30	0.22	-999.25	0.24	0.27	-999.25	-999.25	20.90	3.79
8694.5	10.52	2.31	0.22	-999.25	0.23	0.29	-999.25	-999.25	21.35	3.04
8695.0	10.25	2.31	0.22	-999.25	0.23	0.36	-999.25	-999.25	21.80	2.29
8695.5	10.31	2.32	0.21	-999.25	0.22	0.45	-999.25	-999.25	18.05	1.30
8696.0	10.36	2.33	0.20	-999.25	0.21	0.56	-999.25	-999.25	14.30	0.32
8696.5	11.58	2.36	0.18	-999.25	0.20	0.59	-999.25	-999.25	15.50	0.66
8697.0	12.80	2.39	0.17	-999.25	0.18	0.57	-999.25	-999.25	16.70	0.99
8697.5	13.44	2.42	0.15	-999.25	0.16	0.55	-999.25	-999.25	17.40	0.69
8698.0	14.08	2.45	0.14	-999.25	0.14	0.59	-999.25	-999.25	18.10	0.39
8698.5	14.02	2.43	0.14	-999.25	0.15	0.59	-999.25	-999.25	18.45	0.53
8699.0	13.96	2.41	0.14	-999.25	0.16	0.60	-999.25	-999.25	18.80	0.67
8699.5	13.35	2.38	0.16	-999.25	0.18	0.59	-999.25	-999.25	20.20	1.13
8700.0	12.73	2.35	0.18	-999.25	0.20	0.54	-999.25	-999.25	21.60	1.59
8700.5	12.27	2.34	0.19	-999.25	0.21	0.41	-999.25	-999.25	21.95	1.94
8701.0	11.81	2.32	0.20	-999.25	0.22	0.34	-999.25	-999.25	22.30	2.29
8701.5	11.60	2.32	0.21	-999.25	0.22	0.28	-999.25	-999.25	22.20	1.56
8702.0	11.39	2.31	0.21	-999.25	0.23	0.26	-999.25	-999.25	22.10	0.84
8702.5	11.41	2.31	0.22	-999.25	0.23	0.26	-999.25	-999.25	22.70	1.37
8703.0	11.43	2.30	0.23	-999.25	0.24	0.27	-999.25	-999.25	23.30	1.90
8703.5	11.10	2.30	0.23	-999.25	0.24	0.26	-999.25	-999.25	24.30	1.90
8704.0	10.78	2.29	0.23	-999.25	0.24	0.25	-999.25	-999.25	25.30	1.90
8704.5	11.04	2.29	0.23	-999.25	0.24	0.25	-999.25	-999.25	25.50	2.49
8705.0	11.30	2.29	0.24	-999.25	0.24	0.24	-999.25	-999.25	25.70	3.07
8705.5	10.82	2.29	0.24	-999.25	0.25	0.23	-999.25	-999.25	24.70	2.44
8706.0	10.34	2.28	0.24	-999.25	0.25	0.21	-999.25	-999.25	23.70	1.82
8706.5	10.63	2.28	0.25	-999.25	0.25	0.20	-999.25	-999.25	25.15	2.85
8707.0	10.91	2.28	0.25	-999.25	0.25	0.20	-999.25	-999.25	26.60	3.87
8707.5	11.43	2.28	0.25	-999.25	0.25	0.20	-999.25	-999.25	26.10	3.27
8708.0	11.94	2.27	0.25	-999.25	0.26	0.20	-999.25	-999.25	25.60	2.68
8708.5	12.24	2.27	0.25	-999.25	0.26	0.20	-999.25	-999.25	25.25	1.87
8709.0	12.54	2.26	0.25	-999.25	0.26	0.20	-999.25	-999.25	24.90	1.06
8709.5	12.57	2.26	0.25	-999.25	0.26	0.20	-999.25	-999.25	25.10	1.29
8710.0	12.60	2.26	0.25	-999.25	0.26	0.20	-999.25	-999.25	25.30	1.51
8710.5	11.93	2.27	0.25	-999.25	0.26	0.20	-999.25	-999.25	25.45	1.51
8711.0	11.26	2.28	0.25	-999.25	0.26	0.20	-999.25	-999.25	25.60	1.51
8711.5	10.72	2.28	0.26	-999.25	0.26	0.20	-999.25	-999.25	25.10	1.71
8712.0	10.17	2.28	0.26	-999.25	0.26	0.20	-999.25	-999.25	24.60	1.90
8712.5	10.08	2.28	0.26	-999.25	0.26	0.20	-999.25	-999.25	24.45	1.67
8713.0	9.99	2.28	0.26	-999.25	0.26	0.20	-999.25	-999.25	24.30	1.44
8713.5	9.57	2.27	0.26	-999.25	0.26	0.20	-999.25	-999.25	24.85	1.37
8714.0	9.15	2.26	0.25	-999.25	0.26	0.20	-999.25	-999.25	25.40	1.29
8714.5	9.35	2.27	0.25	-999.25	0.26	0.20	-999.25	-999.25	24.70	1.37
8715.0	9.55	2.27	0.25	-999.25	0.26	0.20	-999.25	-999.25	24.00	1.44
8715.5	9.24	2.27	0.25	-999.25	0.26	0.21	-999.25	-999.25	24.15	1.52
8716.0	8.93	2.27	0.25	-999.25	0.26	0.21	-999.25	-999.25	24.30	1.59
8716.5	8.87	2.28	0.25	-999.25	0.26	0.22	-999.25	-999.25	23.45	1.25
8717.0	8.81	2.28	0.25	-999.25	0.26	0.23	-999.25	-999.25	22.60	0.91
8717.5	9.70	2.28	0.25	-999.25	0.25	0.23	-999.25	-999.25	21.55	0.67
8718.0	10.59	2.27	0.24	-999.25	0.25	0.23	-999.25	-999.25	20.50	0.42
8718.5	10.75	2.30	0.23	-999.25	0.24	0.25	-999.25	-999.25	17.30	0.25
8719.0	10.91	2.32	0.22	-999.25	0.23	0.30	-999.25	-999.25	14.10	0.09
8719.5	11.44	2.35	0.20	-999.25	0.21	0.38	-999.25	-999.25	15.30	0.19
8720.0	11.97	2.38	0.18	-999.25	0.19	0.49	-999.25	-999.25	16.50	0.28
8720.5	12.45	2.40	0.16	-999.25	0.17	0.51	-999.25	-999.25	17.10	0.33
8721.0	12.93	2.43	0.15	-999.25	0.16	0.49	-999.25	-999.25	17.70	0.37
8721.5	12.99	2.43	0.15	-999.25	0.16	0.49	-999.25	-999.25	18.35	0.52
8722.0	13.06	2.43	0.15	-999.25	0.16	0.47	-999.25	-999.25	19.00	0.66
8722.5	12.56	2.40	0.16	-999.25	0.17	0.49	-999.25	-999.25	19.50	0.60
8723.0	12.05	2.38	0.16	-999.25	0.18	0.51	-999.25	-999.25	20.00	0.53
8723.5	12.04	2.37	0.17	-999.25	0.19	0.49	-999.25	-999.25	20.65	0.60
8724.0	12.03	2.36	0.18	-999.25	0.19	0.44	-999.25	-999.25	21.30	0.66
8724.5	11.61	2.36	0.19	-999.25	0.20	0.39	-999.25	-999.25	20.35	0.56
8725.0	11.19	2.35	0.19	-999.25	0.21	0.36	-999.25	-999.25	19.40	0.45
8725.5	11.15	2.34	0.20	-999.25	0.21	0.33	-999.25	-999.25	19.50	0.54
8726.0	11.12	2.33	0.20	-999.25	0.22	0.34	-999.25	-999.25	19.60	0.63
8726.5	11.34	2.33	0.20	-999.25	0.21	0.34	-999.25	-999.25	18.45	0.50
8727.0	11.56	2.33	0.19	-999.25	0.21	0.35	-999.25	-999.25	17.30	0.37
8727.5	11.55	2.34	0.19	-999.25	0.21	0.35	-999.25	-999.25	16.90	0.26
8728.0	11.53	2.35	0.19	-999.25	0.20	0.38	-999.25	-999.25	16.50	0.15
8728.5	11.68	2.37	0.18	-999.25	0.20	0.41	-999.25	-999.25	18.00	0.38
8729.0	11.83	2.38	0.18	-999.25	0.19	0.44	-999.25	-999.25	19.50	0.62
8729.5	11.49	2.37	0.18	-999.25	0.19	0.44	-999.25	-999.25	19.60	0.69
8730.0	11.16	2.36	0.18	-999.25	0.19	0.44	-999.25	-999.25	19.70	0.76
8730.5	11.21	2.35	0.18	-999.25	0.20	0.43	-999.25	-999.25	17.95	0.49
8731.0	11.26	2.34	0.19	-999.25	0.21	0.44	-999.25	-999.25	16.20	0.23
8731.5	11.28	2.35	0.19	-999.25	0.20	0.46	-999.25	-999.25	13.25	0.14
8732.0	11.30	2.36	0.19	-999.25	0.20	0.50	-999.25	-999.25	10.30	0.04
8732.5	11.38	2.38	0.17	-999.25	0.19	0.56	-999.25	-999.25	11.50	0.21
8733.0	11.45	2.39	0.16	-999.25	0.18	0.61	-999.25	-999.25	12.70	0.38
8733.5	11.60	2.42	0.14	-999.25	0.16	0.63	-999.25	-999.25	15.25	0.38
8734.0	11.74	2.45	0.12	-999.25	0.14	0.64	-999.25	-999.25	17.80	0.37
8734.5	11.45	2.46	0.13	-999.25	0.14	0.64	-999.25	-999.25	17.40	0.32
8735.0	11.16	2.47	0.14	-999.25	0.14	0.56	-999.25	-999.25	17.00	0.28
8735.5	10.36	2.44	0.15	-999.25	0.15	0.55	-999.25	-999.25	14.00	0.16
8736.0	9.56	2.41	0.16	-999.25	0.17	0.58	-999.25	-999.25	11.00	0.04
8736.5	10.07	2.40	0.16	-999.25	0.17	0.62	-999.25	-999.25	14.10	0.15
8737.0	10.58	2.40	0.16	-999.25	0.17	0.62	-999.25	-999.25	17.20	0.25
8737.5	11.36	2.41	0.15	-999.25	0.17	0.63	-999.25	-999.25	19.45	0.38
8738.0	12.14	2.42	0.15	-999.25	0.16	0.63	-999.25	-999.25	21.70	0.52
8738.5	11.80	2.41	0.16	-999.25	0.17	0.63	-999.25	-999.25	21.95	0.60
8739.0	11.45	2.40	0.17	-999.25	0.18	0.55	-999.25	-999.25	22.20	0.67
8739.5	10.48	2.37	0.18	-999.25	0.19	0.39	-999.25	-999.25	23.30	1.13
8740.0	9.52	2.34	0.19	-999.25	0.21	0.29	-999.25	-999.25	24.40	1.59
