# LAS format log file from PETREL
# Project units are specified as depth units
#==================================================================
~Version information
VERS.   2.0:
WRAP.   NO:
#==================================================================
~Well
STRT .ft        8060.0 :
STOP .ft        8795.0 :
STEP .ft        0.5    :
NULL .          -999.25  :
COMP.           : COMPANY
WELL.  HW-9     : WELL
FLD.   COSTA    : FIELD
LOC.            : LOCATION
SRVC.           : SERVICE COMPANY
DATE.  2018-02-06 14:55:38   : Log Export Date {yyyy-MM-dd HH:mm:ss}
PROV.           : PROVINCE
UWI.   HW-9     : UNIQUE WELL ID
API.            : API NUMBER
#==================================================================
~Curve
DEPT .ft                  : DEPTH
GR .gAPI                  : GR
RHOB .g/cm3               : RHOB
NPHI .ft3/ft3             : NPHI
DT .us/ft                 : DT
PHIE .ft3/ft3             : PHIE
RT .ohm.m                 : RT
SW .                      : SW
SO . 			  : SO
CORE_POR .ft3/ft3         : CORE_POR
CORE_PERM .mD             : CORE_PERM
~Parameter
#==================================================================
~Ascii
8592.0	23.54	2.70	0.03	-999.25	0.01	15.28	-999.25	-999.25	-999.25	-999.25
8592.5	25.01	2.73	0.03	-999.25	0.00	15.23	-999.25	-999.25	-999.25	-999.25
8593.0	25.59	2.73	0.03	-999.25	0.00	15.26	-999.25	-999.25	-999.25	-999.25
8593.5	25.21	2.70	0.04	-999.25	0.00	15.32	-999.25	-999.25	-999.25	-999.25
8594.0	24.65	2.69	0.03	-999.25	0.01	15.38	-999.25	-999.25	-999.25	-999.25
8594.5	24.21	2.69	0.03	-999.25	0.01	15.40	-999.25	-999.25	-999.25	-999.25
8595.0	24.75	2.70	0.03	-999.25	0.01	15.44	-999.25	-999.25	-999.25	-999.25
8595.5	24.13	2.71	0.03	-999.25	0.00	15.52	-999.25	-999.25	-999.25	-999.25
8596.0	24.96	2.71	0.03	-999.25	0.00	15.66	-999.25	-999.25	-999.25	-999.25
8596.5	25.09	2.70	0.04	-999.25	0.00	15.82	-999.25	-999.25	-999.25	-999.25
8597.0	24.59	2.70	0.04	-999.25	0.01	15.99	-999.25	-999.25	-999.25	-999.25
8597.5	24.80	2.71	0.03	-999.25	0.01	16.15	-999.25	-999.25	-999.25	-999.25
8598.0	25.04	2.71	0.03	-999.25	0.01	16.32	-999.25	-999.25	-999.25	-999.25
8598.5	25.28	2.72	0.03	-999.25	0.00	16.53	-999.25	-999.25	-999.25	-999.25
8599.0	25.86	2.72	0.03	-999.25	0.00	16.78	-999.25	-999.25	-999.25	-999.25
8599.5	26.60	2.72	0.03	-999.25	0.00	17.07	-999.25	-999.25	-999.25	-999.25
8600.0	26.72	2.70	0.02	-999.25	0.00	17.22	-999.25	-999.25	-999.25	-999.25
8600.5	26.18	2.69	0.02	-999.25	0.00	17.09	-999.25	-999.25	-999.25	-999.25
8601.0	25.08	2.69	0.02	-999.25	0.01	18.05	-999.25	-999.25	-999.25	-999.25
8601.5	24.83	2.69	0.02	-999.25	0.00	22.31	-999.25	-999.25	-999.25	-999.25
8602.0	24.33	2.69	0.02	-999.25	0.00	28.89	-999.25	-999.25	-999.25	-999.25
8602.5	23.58	2.70	0.02	-999.25	0.00	38.92	-999.25	-999.25	-999.25	-999.25
8603.0	22.60	2.72	0.01	-999.25	0.00	43.50	-999.25	-999.25	-999.25	-999.25
8603.5	21.30	2.72	0.01	-999.25	0.00	43.51	-999.25	-999.25	-999.25	-999.25
8604.0	20.79	2.71	0.01	-999.25	0.00	43.53	-999.25	-999.25	-999.25	-999.25
8604.5	20.58	2.70	0.01	-999.25	0.00	43.53	-999.25	-999.25	-999.25	-999.25
8605.0	21.12	2.70	0.01	-999.25	0.00	43.45	-999.25	-999.25	-999.25	-999.25
8605.5	22.40	2.70	0.01	-999.25	0.00	43.34	-999.25	-999.25	-999.25	-999.25
8606.0	23.12	2.70	0.01	-999.25	0.00	43.28	-999.25	-999.25	-999.25	-999.25
8606.5	23.93	2.69	0.01	-999.25	0.00	43.30	-999.25	-999.25	-999.25	-999.25
8607.0	24.68	2.67	0.02	-999.25	0.01	43.40	-999.25	-999.25	-999.25	-999.25
8607.5	23.67	2.65	0.02	-999.25	0.01	43.47	-999.25	-999.25	-999.25	-999.25
8608.0	22.66	2.63	0.03	-999.25	0.02	43.49	-999.25	-999.25	-999.25	-999.25
8608.5	20.69	2.59	0.05	-999.25	0.04	26.68	0.88	0.12	5.50	0.76
8609.0	17.94	2.54	0.07	-999.25	0.07	9.80	0.83	0.17	10.60	1.51
8609.5	14.82	2.46	0.10	-999.25	0.10	4.94	0.75	0.25	14.70	215.96
8610.0	12.18	2.40	0.14	-999.25	0.14	3.01	0.72	0.28	18.80	430.42
8610.5	11.21	2.39	0.15	-999.25	0.16	2.62	0.68	0.32	17.80	260.48
8611.0	10.97	2.39	0.15	-999.25	0.16	2.62	0.67	0.33	16.80	90.54
8611.5	11.14	2.39	0.15	-999.25	0.16	2.63	0.67	0.33	16.65	70.69
8612.0	11.66	2.41	0.15	-999.25	0.16	2.65	0.68	0.32	16.50	50.85
8612.5	12.18	2.43	0.14	-999.25	0.14	2.72	0.73	0.27	14.05	29.79
8613.0	12.75	2.46	0.13	-999.25	0.13	2.91	0.80	0.20	11.60	8.74
8613.5	13.35	2.52	0.12	-999.25	0.11	3.14	0.92	0.08	9.60	4.55
8614.0	14.13	2.57	0.10	-999.25	0.09	3.36	-999.25	-999.25	7.60	0.35
8614.5	14.43	2.59	0.09	-999.25	0.08	3.39	-999.25	-999.25	6.85	0.37
8615.0	14.23	2.59	0.07	-999.25	0.07	3.27	-999.25	-999.25	6.10	0.38
8615.5	15.07	2.57	0.07	-999.25	0.07	3.11	-999.25	-999.25	6.45	0.21
8616.0	15.92	2.54	0.08	-999.25	0.08	2.93	-999.25	-999.25	6.80	0.04
8616.5	15.07	2.50	0.10	-999.25	0.10	2.76	-999.25	-999.25	10.65	1.24
8617.0	12.95	2.42	0.12	-999.25	0.13	2.74	0.80	0.20	14.50	2.44
8617.5	11.09	2.39	0.15	-999.25	0.16	2.76	0.65	0.35	16.15	16.12
8618.0	10.21	2.37	0.17	-999.25	0.18	2.89	0.55	0.45	17.80	29.79
8618.5	10.14	2.34	0.19	-999.25	0.20	2.46	0.55	0.45	20.40	199.46
8619.0	9.89	2.32	0.20	-999.25	0.21	1.52	0.66	0.34	23.00	369.14
8619.5	8.91	2.31	0.20	-999.25	0.22	1.02	0.79	0.21	21.10	226.49
8620.0	8.55	2.31	0.21	-999.25	0.22	0.75	0.90	0.10	19.20	83.84
8620.5	8.40	2.31	0.22	-999.25	0.23	0.68	0.93	0.07	21.05	258.57
8621.0	8.13	2.31	0.22	-999.25	0.23	0.68	0.93	0.07	22.90	433.29
8621.5	7.76	2.33	0.21	-999.25	0.22	0.68	0.95	0.05	21.10	219.68
8622.0	7.20	2.34	0.21	-999.25	0.21	0.67	0.99	0.01	19.30	6.08
8622.5	6.88	2.34	0.20	-999.25	0.20	0.67	-999.25	-999.25	18.85	3.68
8623.0	6.78	2.36	0.19	-999.25	0.20	0.67	-999.25	-999.25	18.40	1.29
8623.5	7.68	2.37	0.18	-999.25	0.19	0.67	-999.25	-999.25	17.60	1.67
8624.0	8.66	2.37	0.17	-999.25	0.18	0.67	-999.25	-999.25	16.80	2.05
8624.5	8.57	2.39	0.16	-999.25	0.17	0.66	-999.25	-999.25	14.60	1.27
8625.0	7.76	2.42	0.15	-999.25	0.16	0.69	-999.25	-999.25	12.40	0.49
8625.5	6.81	2.44	0.13	-999.25	0.14	0.76	-999.25	-999.25	11.50	0.32
8626.0	6.88	2.45	0.12	-999.25	0.13	0.84	-999.25	-999.25	10.60	0.15
8626.5	7.55	2.46	0.12	-999.25	0.13	0.95	-999.25	-999.25	13.40	1.18
8627.0	7.20	2.46	0.12	-999.25	0.13	0.99	-999.25	-999.25	16.20	2.21
8627.5	6.84	2.44	0.13	-999.25	0.14	1.00	-999.25	-999.25	14.50	2.17
8628.0	6.70	2.43	0.13	-999.25	0.14	1.00	-999.25	-999.25	12.80	2.13
8628.5	6.94	2.43	0.13	-999.25	0.14	0.99	-999.25	-999.25	13.30	1.25
8629.0	7.18	2.45	0.13	-999.25	0.14	0.98	-999.25	-999.25	13.80	0.37
8629.5	7.20	2.43	0.13	-999.25	0.14	0.98	-999.25	-999.25	14.90	0.83
8630.0	7.14	2.42	0.14	-999.25	0.15	0.97	-999.25	-999.25	16.00	1.29
8630.5	7.15	2.43	0.15	-999.25	0.15	0.96	-999.25	-999.25	17.70	11.08
8631.0	7.67	2.42	0.15	-999.25	0.16	0.95	-999.25	-999.25	19.40	20.86
8631.5	8.03	2.41	0.15	-999.25	0.16	0.94	-999.25	-999.25	18.45	11.93
8632.0	8.03	2.40	0.15	-999.25	0.16	0.93	-999.25	-999.25	17.50	3.00
8632.5	8.03	2.40	0.15	-999.25	0.16	0.92	-999.25	-999.25	13.45	1.56
8633.0	8.21	2.41	0.14	-999.25	0.15	0.93	-999.25	-999.25	9.40	0.13
8633.5	8.40	2.42	0.14	-999.25	0.15	0.94	-999.25	-999.25	12.05	0.26
8634.0	8.41	2.42	0.15	-999.25	0.16	0.87	-999.25	-999.25	14.70	0.39
8634.5	8.19	2.40	0.16	-999.25	0.17	0.67	-999.25	-999.25	17.10	0.76
8635.0	8.63	2.37	0.17	-999.25	0.18	0.52	-999.25	-999.25	19.50	1.14
8635.5	8.20	2.36	0.19	-999.25	0.19	0.42	-999.25	-999.25	19.00	0.99
8636.0	7.78	2.34	0.19	-999.25	0.20	0.39	-999.25	-999.25	18.50	0.84
8636.5	7.79	2.33	0.19	-999.25	0.21	0.39	-999.25	-999.25	18.85	0.88
8637.0	7.87	2.32	0.19	-999.25	0.21	0.40	-999.25	-999.25	19.20	0.91
8637.5	7.78	2.33	0.19	-999.25	0.21	0.40	-999.25	-999.25	20.65	3.78
8638.0	7.68	2.33	0.19	-999.25	0.21	0.40	-999.25	-999.25	22.10	6.65
8638.5	7.57	2.32	0.20	-999.25	0.21	0.40	-999.25	-999.25	19.85	4.16
8639.0	7.26	2.32	0.20	-999.25	0.22	0.40	-999.25	-999.25	17.60	1.67
8639.5	6.92	2.32	0.21	-999.25	0.22	0.42	-999.25	-999.25	18.00	2.57
8640.0	6.63	2.33	0.21	-999.25	0.22	0.47	-999.25	-999.25	18.40	3.47
8640.5	6.35	2.33	0.20	-999.25	0.21	0.54	-999.25	-999.25	18.95	4.78
8641.0	7.13	2.32	0.20	-999.25	0.22	0.61	-999.25	-999.25	19.50	6.08
8641.5	7.99	2.31	0.20	-999.25	0.22	0.63	-999.25	-999.25	19.65	10.84
8642.0	7.62	2.30	0.20	-999.25	0.22	0.63	1.00	0.00	19.80	15.60
8642.5	7.42	2.31	0.20	-999.25	0.22	0.62	-999.25	-999.25	18.05	9.86
8643.0	7.48	2.32	0.20	-999.25	0.21	0.63	-999.25	-999.25	16.30	4.12
8643.5	7.53	2.34	0.20	-999.25	0.21	0.63	-999.25	-999.25	17.00	9.43
8644.0	8.19	2.36	0.20	-999.25	0.20	0.64	-999.25	-999.25	17.70	14.73
8644.5	9.39	2.38	0.19	-999.25	0.19	0.64	-999.25	-999.25	15.95	11.32
8645.0	10.59	2.40	0.18	-999.25	0.18	0.64	-999.25	-999.25	14.20	7.90
8645.5	11.36	2.40	0.16	-999.25	0.17	0.64	-999.25	-999.25	16.25	9.60
8646.0	10.80	2.36	0.15	-999.25	0.17	0.64	-999.25	-999.25	18.30	11.29
8646.5	9.59	2.32	0.17	-999.25	0.18	0.65	-999.25	-999.25	19.25	12.58
8647.0	7.84	2.29	0.18	-999.25	0.20	0.61	-999.25	-999.25	20.20	13.86
8647.5	6.95	2.29	0.20	-999.25	0.22	0.50	-999.25	-999.25	23.50	107.76
8648.0	6.61	2.27	0.22	-999.25	0.24	0.42	-999.25	-999.25	26.80	201.65
8648.5	6.61	2.26	0.24	-999.25	0.25	0.36	-999.25	-999.25	25.85	109.94
8649.0	6.66	2.27	0.24	-999.25	0.25	0.35	-999.25	-999.25	24.90	18.22
8649.5	6.74	2.27	0.24	-999.25	0.25	0.36	-999.25	-999.25	25.75	22.66
8650.0	7.03	2.26	0.25	-999.25	0.26	0.36	-999.25	-999.25	26.60	27.09
8650.5	7.46	2.26	0.24	-999.25	0.26	0.36	-999.25	-999.25	25.25	20.48
