# LAS format log file from PETREL
# Project units are specified as depth units
#==================================================================
~Version information
VERS.   2.0:
WRAP.   NO:
#==================================================================
~Well
STRT .ft        8060.0 :
STOP .ft        8795.0 :
STEP .ft        0.5    :
NULL .          -999.25  :
COMP.           : COMPANY
WELL.  HW-9     : WELL
FLD.   COSTA    : FIELD
LOC.            : LOCATION
SRVC.           : SERVICE COMPANY
DATE.  2018-02-06 14:55:38   : Log Export Date {yyyy-MM-dd HH:mm:ss}
PROV.           : PROVINCE
UWI.   HW-9     : UNIQUE WELL ID
API.            : API NUMBER
#==================================================================
~Curve
DEPT .ft                  : DEPTH
GR .gAPI                  : GR
RHOB .g/cm3               : RHOB
NPHI .ft3/ft3             : NPHI
DT .us/ft                 : DT
PHIE .ft3/ft3             : PHIE
RT .ohm.m                 : RT
SW .                      : SW
SO . 			  : SO
CORE_POR .ft3/ft3         : CORE_POR
CORE_PERM .mD             : CORE_PERM
~Parameter
#==================================================================
~Ascii
# ...
8710.5	6.86	2.29	0.24	-999.25	0.25	0.17	-999.25	-999.25	20.74	2.31
8711.0	6.68	2.29	0.24	-999.25	0.26	0.17	-999.25	-999.25	20.92	2.44
8711.5	6.83	2.29	0.24	-999.25	0.25	0.17	-999.25	-999.25	21.11	2.57
8712.0	7.20	2.30	0.24	-999.25	0.25	0.17	-999.25	-999.25	21.30	2.70
8712.5	7.92	2.30	0.24	-999.25	0.25	0.17	-999.25	-999.25	21.49	2.83
8713.0	8.29	2.30	0.24	-999.25	0.25	0.17	-999.25	-999.25	21.67	2.96
8713.5	8.06	2.29	0.24	-999.25	0.25	0.18	-999.25	-999.25	21.86	3.09
8714.0	7.45	2.30	0.24	-999.25	0.25	0.18	-999.25	-999.25	22.05	3.21
8714.5	6.85	2.30	0.25	-999.25	0.25	0.19	-999.25	-999.25	22.24	3.34
8715.0	6.51	2.31	0.24	-999.25	0.25	0.19	-999.25	-999.25	22.42	3.47
8715.5	6.32	2.32	0.24	-999.25	0.25	0.19	-999.25	-999.25	22.61	3.60
8716.0	6.14	2.31	0.24	-999.25	0.25	0.19	-999.25	-999.25	22.80	3.73
8716.5	6.02	2.31	0.24	-999.25	0.25	0.18	-999.25	-999.25	22.99	3.86
8717.0	6.52	2.31	0.25	-999.25	0.25	0.17	-999.25	-999.25	23.17	3.99
8717.5	6.77	2.31	0.25	-999.25	0.26	0.17	-999.25	-999.25	23.36	4.12
8718.0	6.77	2.30	0.25	-999.25	0.26	0.16	-999.25	-999.25	23.55	4.24
8718.5	6.74	2.29	0.24	-999.25	0.25	0.16	-999.25	-999.25	23.74	4.37
8719.0	6.49	2.28	0.24	-999.25	0.25	0.16	-999.25	-999.25	23.92	4.50
8719.5	6.23	2.29	0.24	-999.25	0.25	0.17	-999.25	-999.25	24.11	4.63
8720.0	6.71	2.29	0.24	-999.25	0.25	0.17	-999.25	-999.25	24.30	4.76
8720.5	7.59	2.28	0.24	-999.25	0.26	0.16	-999.25	-999.25	24.60	4.48
8721.0	8.55	2.28	0.24	-999.25	0.26	0.16	-999.25	-999.25	24.90	4.20
8721.5	7.83	2.28	0.24	-999.25	0.25	0.16	-999.25	-999.25	24.55	3.44
8722.0	7.64	2.28	0.23	-999.25	0.25	0.16	-999.25	-999.25	24.20	2.68
8722.5	7.64	2.29	0.23	-999.25	0.25	0.16	-999.25	-999.25	24.70	2.88
8723.0	7.34	2.28	0.24	-999.25	0.26	0.16	-999.25	-999.25	25.20	3.07
8723.5	7.14	2.26	0.24	-999.25	0.26	0.16	-999.25	-999.25	23.40	1.66
8724.0	6.99	2.26	0.24	-999.25	0.26	0.16	-999.25	-999.25	21.60	0.25
8724.5	7.09	2.26	0.24	-999.25	0.26	0.16	-999.25	-999.25	22.35	0.85
8725.0	7.36	2.28	0.24	-999.25	0.26	0.16	-999.25	-999.25	23.10	1.44
8725.5	7.62	2.29	0.24	-999.25	0.26	0.16	-999.25	-999.25	22.70	1.22
8726.0	7.87	2.28	0.24	-999.25	0.26	0.16	-999.25	-999.25	22.30	0.99
8726.5	7.87	2.29	0.24	-999.25	0.26	0.16	-999.25	-999.25	23.15	1.72
8727.0	7.87	2.27	0.25	-999.25	0.26	0.16	-999.25	-999.25	24.00	2.44
8727.5	7.67	2.28	0.25	-999.25	0.26	0.17	-999.25	-999.25	23.95	2.24
8728.0	7.46	2.27	0.25	-999.25	0.26	0.17	-999.25	-999.25	23.90	2.05
8728.5	7.25	2.27	0.25	-999.25	0.26	0.17	-999.25	-999.25	23.80	1.67
8729.0	7.91	2.27	0.24	-999.25	0.26	0.16	-999.25	-999.25	23.70	1.29
8729.5	8.35	2.28	0.24	-999.25	0.26	0.16	-999.25	-999.25	25.15	2.11
8730.0	8.35	2.28	0.24	-999.25	0.26	0.16	-999.25	-999.25	26.60	2.92
8730.5	8.35	2.27	0.24	-999.25	0.26	0.16	-999.25	-999.25	25.85	2.03
8731.0	8.07	2.27	0.25	-999.25	0.26	0.16	-999.25	-999.25	25.10	1.14
8731.5	7.30	2.27	0.25	-999.25	0.27	0.16	-999.25	-999.25	24.85	1.60
8732.0	6.72	2.25	0.24	-999.25	0.27	0.16	-999.25	-999.25	24.60	2.05
8732.5	6.15	2.25	0.25	-999.25	0.27	0.16	-999.25	-999.25	24.25	2.33
8733.0	6.03	2.26	0.25	-999.25	0.27	0.16	-999.25	-999.25	23.90	2.60
8733.5	6.50	2.27	0.26	-999.25	0.27	0.16	-999.25	-999.25	24.15	2.44
8734.0	7.00	2.28	0.26	-999.25	0.27	0.16	-999.25	-999.25	24.40	2.29
8734.5	7.93	2.29	0.25	-999.25	0.26	0.16	-999.25	-999.25	24.55	2.17
8735.0	7.29	2.29	0.25	-999.25	0.26	0.16	-999.25	-999.25	24.70	2.05
8735.5	6.60	2.27	0.25	-999.25	0.26	0.16	-999.25	-999.25	24.65	2.13
8736.0	6.55	2.27	0.24	-999.25	0.26	0.15	-999.25	-999.25	24.60	2.21
8736.5	6.49	2.27	0.24	-999.25	0.26	0.15	-999.25	-999.25	24.90	2.40
8737.0	6.32	2.27	0.24	-999.25	0.26	0.15	-999.25	-999.25	25.20	2.60
8737.5	5.89	2.28	0.24	-999.25	0.26	0.15	-999.25	-999.25	24.70	1.98
8738.0	5.84	2.27	0.24	-999.25	0.25	0.15	-999.25	-999.25	24.20	1.36
8738.5	6.21	2.27	0.24	-999.25	0.25	0.15	-999.25	-999.25	24.55	1.94
8739.0	6.58	2.29	0.23	-999.25	0.24	0.16	-999.25	-999.25	24.90	2.52
8739.5	6.97	2.30	0.22	-999.25	0.23	0.16	-999.25	-999.25	24.50	2.17
8740.0	7.60	2.32	0.22	-999.25	0.22	0.16	-999.25	-999.25	24.10	1.82
8740.5	8.30	2.32	0.21	-999.25	0.22	0.19	-999.25	-999.25	23.25	1.75
8741.0	8.22	2.34	0.20	-999.25	0.21	0.21	-999.25	-999.25	22.40	1.67
8741.5	7.82	2.35	0.19	-999.25	0.20	0.25	-999.25	-999.25	22.60	1.67
8742.0	7.56	2.38	0.18	-999.25	0.19	0.27	-999.25	-999.25	22.80	1.67
8742.5	7.56	2.40	0.17	-999.25	0.18	0.27	-999.25	-999.25	17.85	0.96
8743.0	7.66	2.43	0.15	-999.25	0.17	0.27	-999.25	-999.25	12.90	0.25
8743.5	8.06	2.45	0.15	-999.25	0.17	0.27	-999.25	-999.25	14.90	0.45
8744.0	8.21	2.41	0.17	-999.25	0.18	0.27	-999.25	-999.25	16.90	0.65
8744.5	7.75	2.38	0.18	-999.25	0.19	0.27	-999.25	-999.25	19.05	0.86
8745.0	7.28	2.34	0.20	-999.25	0.21	0.27	-999.25	-999.25	21.20	1.06
8745.5	7.37	2.33	0.21	-999.25	0.22	0.25	-999.25	-999.25	21.10	1.14
8746.0	7.50	2.32	0.21	-999.25	0.22	0.23	-999.25	-999.25	21.00	1.21
8746.5	8.33	2.31	0.22	-999.25	0.23	0.21	-999.25	-999.25	22.05	1.71
8747.0	8.72	2.31	0.22	-999.25	0.23	0.19	-999.25	-999.25	23.10	2.21
8747.5	8.21	2.31	0.23	-999.25	0.24	0.19	-999.25	-999.25	21.85	1.56
8748.0	7.85	2.32	0.23	-999.25	0.23	0.19	-999.25	-999.25	20.60	0.91
8748.5	7.50	2.34	0.22	-999.25	0.23	0.20	-999.25	-999.25	21.85	1.29
8749.0	7.64	2.34	0.22	-999.25	0.22	0.20	-999.25	-999.25	23.10	1.67
8749.5	7.97	2.34	0.22	-999.25	0.22	0.20	-999.25	-999.25	21.95	1.79
8750.0	8.29	2.32	0.22	-999.25	0.22	0.20	-999.25	-999.25	20.80	1.90
8750.5	8.85	2.31	0.22	-999.25	0.23	0.20	-999.25	-999.25	21.90	1.98
8751.0	8.93	2.30	0.22	-999.25	0.23	0.20	-999.25	-999.25	23.00	2.05
8751.5	8.55	2.30	0.22	-999.25	0.23	0.20	-999.25	-999.25	22.35	1.48
8752.0	8.18	2.31	0.21	-999.25	0.23	0.20	-999.25	-999.25	21.70	0.91
8752.5	7.90	2.31	0.21	-999.25	0.23	0.19	-999.25	-999.25	19.70	0.68
8753.0	7.61	2.31	0.20	-999.25	0.23	0.19	-999.25	-999.25	17.70	0.45
8753.5	7.15	2.32	0.20	-999.25	0.22	0.19	-999.25	-999.25	15.45	0.31
8754.0	6.85	2.34	0.19	-999.25	0.21	0.20	-999.25	-999.25	13.20	0.17
8754.5	7.20	2.36	0.19	-999.25	0.20	0.20	-999.25	-999.25	10.90	0.13
8755.0	7.45	2.39	0.17	-999.25	0.18	0.20	-999.25	-999.25	8.60	0.09
8755.5	7.64	2.40	0.16	-999.25	0.17	0.22	-999.25	-999.25	7.20	0.05
8756.0	8.50	2.42	0.14	-999.25	0.15	0.28	-999.25	-999.25	5.80	0.02
8756.5	8.36	2.44	0.13	-999.25	0.14	0.39	-999.25	-999.25	7.00	0.03
8757.0	8.21	2.47	0.12	-999.25	0.12	0.58	-999.25	-999.25	8.20	0.04
8757.5	8.24	2.50	0.11	-999.25	0.11	0.67	-999.25	-999.25	8.20	0.05
8758.0	8.30	2.53	0.10	-999.25	0.10	0.67	-999.25	-999.25	8.20	0.06
8758.5	8.69	2.55	0.10	-999.25	0.10	0.67	-999.25	-999.25	9.70	0.10
8759.0	9.50	2.55	0.10	-999.25	0.10	0.67	-999.25	-999.25	11.20	0.14
8759.5	9.35	2.53	0.11	-999.25	0.11	0.67	-999.25	-999.25	11.20	0.13
8760.0	8.84	2.50	0.12	-999.25	0.12	0.67	-999.25	-999.25	11.20	0.13
8760.5	8.92	2.49	0.12	-999.25	0.12	0.67	-999.25	-999.25	12.15	0.13
8761.0	9.29	2.49	0.13	-999.25	0.12	0.67	-999.25	-999.25	13.10	0.13
8761.5	9.21	2.50	0.12	-999.25	0.12	0.66	-999.25	-999.25	10.45	0.09
8762.0	9.14	2.50	0.12	-999.25	0.12	0.65	-999.25	-999.25	7.80	0.05
8762.5	8.68	2.49	0.12	-999.25	0.12	0.63	-999.25	-999.25	9.50	0.05
8763.0	8.14	2.47	0.12	-999.25	0.13	0.62	-999.25	-999.25	11.20	0.06
8763.5	7.51	2.48	0.12	-999.25	0.13	0.61	-999.25	-999.25	8.95	0.04
8764.0	6.99	2.48	0.11	-999.25	0.12	0.62	-999.25	-999.25	6.70	0.02
8764.5	7.34	2.49	0.11	-999.25	0.12	0.65	-999.25	-999.25	5.25	0.02
8765.0	7.90	2.51	0.11	-999.25	0.11	0.70	-999.25	-999.25	3.80	0.01
8765.5	8.10	2.52	0.10	-999.25	0.10	0.79	-999.25	-999.25	2.10	0.01
8766.0	7.96	2.54	0.08	-999.25	0.08	0.92	-999.25	-999.25	0.40	0.01
8766.5	7.91	2.57	0.06	-999.25	0.06	1.10	-999.25	-999.25	0.40	0.01
8767.0	8.02	2.62	0.04	-999.25	0.04	1.28	-999.25	-999.25	0.40	0.01
8767.5	8.39	2.67	0.01	-999.25	-999.25	-999.25	-999.25	-999.25	-999.25	-999.25
8768.0	8.26	2.70	0.00	-999.25	-999.25	-999.25	-999.25	-999.25	-999.25	-999.25
8768.5	7.91	2.70	0.00	-999.25	-999.25	-999.25	-999.25	-999.25	-999.25	-999.25
8769.0	8.30	2.68	0.00	-999.25	-999.25	-999.25	-999.25	-999.25	-999.25	-999.25
8769.5	8.78	2.68	0.00	-999.25	-999.25	-999.25	-999.25	-999.25	-999.25	-999.25
