# LAS format log file from PETREL
# Project units are specified as depth units
#==================================================================
~Version information
VERS.   2.0:
WRAP.   NO:
#==================================================================
~Well
STRT .ft        8060.0 :
STOP .ft        8795.0 :
STEP .ft        0.5    :
NULL .          -999.25  :
COMP.           : COMPANY
WELL.  HW-9     : WELL
FLD.   COSTA    : FIELD
LOC.            : LOCATION
SRVC.           : SERVICE COMPANY
DATE.  2018-02-06 14:55:38   : Log Export Date {yyyy-MM-dd HH:mm:ss}
PROV.           : PROVINCE
UWI.   HW-9     : UNIQUE WELL ID
API.            : API NUMBER
#==================================================================
~Curve
DEPT .ft                  : DEPTH
GR .gAPI                  : GR
RHOB .g/cm3               : RHOB
NPHI .ft3/ft3             : NPHI
DT .us/ft                 : DT
PHIE .ft3/ft3             : PHIE
RT .ohm.m                 : RT
SW .                      : SW
SO . 			  : SO
CORE_POR .ft3/ft3         : CORE_POR
CORE_PERM .mD             : CORE_PERM
~Parameter
#==================================================================
~Ascii
# ...
8651.0	8.02	2.26	0.25	-999.25	0.26	0.36	-999.25	-999.25	23.90	13.86
8651.5	7.91	2.27	0.24	-999.25	0.26	0.37	-999.25	-999.25	24.25	43.62
8652.0	6.95	2.27	0.25	-999.25	0.26	0.37	-999.25	-999.25	24.60	73.38
8652.5	6.52	2.27	0.25	-999.25	0.25	0.37	-999.25	-999.25	24.60	108.70
8653.0	6.64	2.27	0.24	-999.25	0.25	0.36	-999.25	-999.25	24.60	144.02
8653.5	6.77	2.27	0.23	-999.25	0.25	0.35	-999.25	-999.25	25.45	114.89
8654.0	7.53	2.26	0.23	-999.25	0.25	0.34	-999.25	-999.25	26.30	85.75
8654.5	7.67	2.25	0.24	-999.25	0.25	0.34	-999.25	-999.25	25.20	51.98
8655.0	7.30	2.26	0.24	-999.25	0.25	0.33	-999.25	-999.25	24.10	18.22
8655.5	7.47	2.26	0.24	-999.25	0.25	0.33	-999.25	-999.25	24.05	115.46
8656.0	7.10	2.27	0.24	-999.25	0.25	0.33	-999.25	-999.25	24.00	212.70
8656.5	6.41	2.28	0.24	-999.25	0.25	0.33	-999.25	-999.25	23.65	162.35
8657.0	7.00	2.26	0.24	-999.25	0.25	0.33	-999.25	-999.25	23.30	111.99
8657.5	7.74	2.25	0.23	-999.25	0.25	0.33	-999.25	-999.25	22.95	61.64
8658.0	7.91	2.25	0.23	-999.25	0.25	0.32	-999.25	-999.25	22.60	11.29
8658.5	7.92	2.26	0.24	-999.25	0.25	0.29	-999.25	-999.25	23.25	7.30
8659.0	7.56	2.27	0.24	-999.25	0.25	0.26	-999.25	-999.25	23.90	3.31
8659.5	8.60	2.28	0.24	-999.25	0.25	0.24	-999.25	-999.25	24.05	3.91
8660.0	8.31	2.28	0.24	-999.25	0.25	0.23	-999.25	-999.25	24.20	4.52
8660.5	7.93	2.27	0.24	-999.25	0.25	0.23	-999.25	-999.25	24.80	4.77
8661.0	7.13	2.26	0.24	-999.25	0.25	0.23	-999.25	-999.25	25.40	5.01
8661.5	6.25	2.26	0.24	-999.25	0.25	0.23	-999.25	-999.25	23.80	4.16
8662.0	6.33	2.27	0.23	-999.25	0.25	0.23	-999.25	-999.25	22.20	3.31
8662.5	6.59	2.28	0.23	-999.25	0.25	0.23	-999.25	-999.25	22.70	3.71
8663.0	6.89	2.29	0.23	-999.25	0.24	0.23	-999.25	-999.25	23.20	4.12
8663.5	7.19	2.30	0.22	-999.25	0.23	0.24	-999.25	-999.25	22.05	2.93
8664.0	7.64	2.31	0.21	-999.25	0.23	0.28	-999.25	-999.25	20.90	1.74
8664.5	8.44	2.32	0.21	-999.25	0.22	0.33	-999.25	-999.25	20.85	1.89
8665.0	9.24	2.35	0.20	-999.25	0.20	0.39	-999.25	-999.25	20.80	2.05
8665.5	10.20	2.38	0.18	-999.25	0.19	0.41	-999.25	-999.25	17.85	1.63
8666.0	11.28	2.41	0.16	-999.25	0.17	0.42	-999.25	-999.25	14.90	1.21
8666.5	12.24	2.45	0.15	-999.25	0.15	0.42	-999.25	-999.25	15.20	0.90
8667.0	11.37	2.45	0.13	-999.25	0.15	0.43	-999.25	-999.25	15.50	0.60
8667.5	10.80	2.45	0.13	-999.25	0.15	0.44	-999.25	-999.25	17.50	1.40
8668.0	9.76	2.44	0.14	-999.25	0.16	0.44	-999.25	-999.25	19.50	2.21
8668.5	8.38	2.41	0.15	-999.25	0.17	0.44	-999.25	-999.25	18.15	1.56
8669.0	8.32	2.39	0.16	-999.25	0.17	0.43	-999.25	-999.25	16.80	0.91
8669.5	8.47	2.39	0.17	-999.25	0.18	0.41	-999.25	-999.25	18.15	1.29
8670.0	8.28	2.39	0.17	-999.25	0.18	0.39	-999.25	-999.25	19.50	1.67
8670.5	7.97	2.40	0.17	-999.25	0.18	0.38	-999.25	-999.25	17.80	1.10
8671.0	7.73	2.42	0.16	-999.25	0.17	0.37	-999.25	-999.25	16.10	0.53
8671.5	7.80	2.42	0.15	-999.25	0.17	0.38	-999.25	-999.25	15.95	0.46
8672.0	7.87	2.42	0.15	-999.25	0.17	0.39	-999.25	-999.25	15.80	0.39
8672.5	8.89	2.40	0.15	-999.25	0.17	0.39	-999.25	-999.25	17.00	0.65
8673.0	8.24	2.38	0.16	-999.25	0.18	0.37	-999.25	-999.25	18.20	0.91
8673.5	7.90	2.37	0.18	-999.25	0.19	0.31	-999.25	-999.25	19.50	1.18
8674.0	7.72	2.35	0.19	-999.25	0.20	0.27	-999.25	-999.25	20.80	1.44
8674.5	7.54	2.33	0.20	-999.25	0.22	0.24	-999.25	-999.25	21.80	1.83
8675.0	7.40	2.31	0.20	-999.25	0.22	0.23	-999.25	-999.25	22.80	2.21
8675.5	7.40	2.32	0.20	-999.25	0.22	0.22	-999.25	-999.25	23.10	2.17
8676.0	7.40	2.32	0.21	-999.25	0.22	0.22	-999.25	-999.25	23.40	2.13
8676.5	7.49	2.32	0.21	-999.25	0.23	0.22	-999.25	-999.25	23.55	2.68
8677.0	7.48	2.30	0.22	-999.25	0.23	0.22	-999.25	-999.25	23.70	3.23
8677.5	7.11	2.28	0.22	-999.25	0.24	0.22	-999.25	-999.25	23.70	10.28
8678.0	7.03	2.28	0.23	-999.25	0.24	0.22	-999.25	-999.25	23.70	17.34
8678.5	7.23	2.28	0.23	-999.25	0.25	0.21	-999.25	-999.25	23.45	9.69
8679.0	7.49	2.28	0.23	-999.25	0.25	0.21	-999.25	-999.25	23.20	2.05
8679.5	8.09	2.27	0.23	-999.25	0.25	0.21	-999.25	-999.25	23.20	2.25
8680.0	8.34	2.26	0.23	-999.25	0.25	0.21	-999.25	-999.25	23.20	2.44
8680.5	7.82	2.26	0.23	-999.25	0.26	0.21	-999.25	-999.25	23.25	2.33
8681.0	7.31	2.27	0.23	-999.25	0.25	0.21	-999.25	-999.25	23.30	2.21
8681.5	6.83	2.28	0.23	-999.25	0.25	0.21	-999.25	-999.25	23.25	2.25
8682.0	6.38	2.28	0.23	-999.25	0.25	0.21	-999.25	-999.25	23.20	2.29
8682.5	6.14	2.28	0.23	-999.25	0.24	0.21	-999.25	-999.25	23.15	1.71
8683.0	6.14	2.29	0.22	-999.25	0.24	0.22	-999.25	-999.25	23.10	1.14
8683.5	6.14	2.28	0.22	-999.25	0.24	0.22	-999.25	-999.25	22.65	1.18
8684.0	6.48	2.28	0.21	-999.25	0.24	0.21	-999.25	-999.25	22.20	1.21
8684.5	7.24	2.29	0.21	-999.25	0.23	0.22	-999.25	-999.25	22.10	1.10
8685.0	7.79	2.29	0.21	-999.25	0.23	0.23	-999.25	-999.25	22.00	0.99
8685.5	7.99	2.30	0.20	-999.25	0.22	0.25	-999.25	-999.25	21.07	0.93
8686.0	8.43	2.32	0.20	-999.25	0.22	0.26	-999.25	-999.25	20.15	0.88
8686.5	8.67	2.33	0.20	-999.25	0.22	0.27	-999.25	-999.25	19.22	0.82
8687.0	7.94	2.33	0.21	-999.25	0.22	0.27	-999.25	-999.25	18.30	0.76
8687.5	7.36	2.32	0.21	-999.25	0.22	0.27	-999.25	-999.25	18.75	19.36
8688.0	7.21	2.31	0.21	-999.25	0.22	0.27	-999.25	-999.25	19.20	37.95
8688.5	7.23	2.30	0.20	-999.25	0.22	0.27	-999.25	-999.25	21.20	20.08
8689.0	8.19	2.29	0.20	-999.25	0.22	0.27	-999.25	-999.25	23.20	2.21
8689.5	8.14	2.31	0.21	-999.25	0.22	0.26	-999.25	-999.25	22.90	4.02
8690.0	7.90	2.31	0.22	-999.25	0.23	0.23	-999.25	-999.25	22.60	5.83
8690.5	7.66	2.31	0.23	-999.25	0.23	0.21	-999.25	-999.25	22.30	3.37
8691.0	7.59	2.29	0.24	-999.25	0.24	0.20	-999.25	-999.25	22.00	0.91
8691.5	7.65	2.28	0.24	-999.25	0.25	0.19	-999.25	-999.25	22.10	1.18
8692.0	7.71	2.26	0.24	-999.25	0.26	0.19	-999.25	-999.25	22.20	1.44
8692.5	7.34	2.25	0.24	-999.25	0.26	0.19	-999.25	-999.25	22.70	1.63
8693.0	7.78	2.25	0.24	-999.25	0.26	0.19	-999.25	-999.25	23.20	1.82
8693.5	8.32	2.24	0.24	-999.25	0.26	0.19	-999.25	-999.25	23.40	1.40
8694.0	8.19	2.26	0.24	-999.25	0.26	0.19	-999.25	-999.25	23.60	0.99
8694.5	8.45	2.27	0.24	-999.25	0.26	0.19	-999.25	-999.25	23.55	1.33
8695.0	8.70	2.29	0.24	-999.25	0.25	0.19	-999.25	-999.25	23.50	1.67
8695.5	9.16	2.30	0.24	-999.25	0.25	0.19	-999.25	-999.25	23.55	1.71
8696.0	9.80	2.28	0.24	-999.25	0.25	0.19	-999.25	-999.25	23.60	1.74
8696.5	9.83	2.27	0.24	-999.25	0.25	0.19	-999.25	-999.25	23.05	1.37
8697.0	9.66	2.27	0.23	-999.25	0.25	0.20	-999.25	-999.25	22.50	0.99
8697.5	9.37	2.28	0.22	-999.25	0.24	0.21	-999.25	-999.25	21.15	0.61
8698.0	9.09	2.29	0.22	-999.25	0.23	0.23	-999.25	-999.25	19.80	0.23
8698.5	8.77	2.31	0.21	-999.25	0.22	0.24	-999.25	-999.25	19.85	1.07
8699.0	8.58	2.33	0.20	-999.25	0.21	0.24	-999.25	-999.25	19.90	1.90
8699.5	9.02	2.35	0.19	-999.25	0.21	0.24	-999.25	-999.25	19.25	1.45
8700.0	9.46	2.36	0.19	-999.25	0.20	0.24	-999.25	-999.25	18.60	0.99
8700.5	9.53	2.38	0.19	-999.25	0.20	0.24	-999.25	-999.25	19.55	1.33
8701.0	8.76	2.36	0.19	-999.25	0.21	0.25	-999.25	-999.25	20.50	1.67
8701.5	8.07	2.35	0.21	-999.25	0.21	0.25	-999.25	-999.25	21.50	1.98
8702.0	7.47	2.34	0.21	-999.25	0.22	0.24	-999.25	-999.25	22.50	2.29
8702.5	7.40	2.31	0.22	-999.25	0.23	0.22	-999.25	-999.25	22.40	1.67
8703.0	7.74	2.30	0.22	-999.25	0.23	0.20	-999.25	-999.25	22.30	1.06
8703.5	8.23	2.30	0.23	-999.25	0.24	0.18	-999.25	-999.25	22.65	1.14
8704.0	8.11	2.31	0.23	-999.25	0.24	0.17	-999.25	-999.25	23.00	1.21
8704.5	7.79	2.31	0.23	-999.25	0.24	0.17	-999.25	-999.25	21.90	0.84
8705.0	7.36	2.32	0.23	-999.25	0.24	0.17	-999.25	-999.25	20.80	0.47
8705.5	6.91	2.29	0.23	-999.25	0.25	0.17	-999.25	-999.25	20.70	0.46
8706.0	6.86	2.28	0.23	-999.25	0.25	0.17	-999.25	-999.25	20.60	0.45
8706.5	6.99	2.29	0.24	-999.25	0.25	0.17	-999.25	-999.25	20.00	1.10
8707.0	7.28	2.29	0.24	-999.25	0.25	0.17	-999.25	-999.25	19.40	1.74
8707.5	8.26	2.29	0.24	-999.25	0.25	0.18	-999.25	-999.25	19.60	1.70
8708.0	8.15	2.30	0.23	-999.25	0.25	0.18	-999.25	-999.25	19.80	1.67
8708.5	7.71	2.30	0.23	-999.25	0.25	0.18	-999.25	-999.25	19.99	1.80
8709.0	7.60	2.31	0.24	-999.25	0.25	0.18	-999.25	-999.25	20.17	1.93
8709.5	7.49	2.30	0.24	-999.25	0.25	0.18	-999.25	-999.25	20.36	2.06
8710.0	7.32	2.29	0.24	-999.25	0.25	0.17	-999.25	-999.25	20.55	2.18
