~Version ---------------------------------------------------
VERS.   2.0 : CWLS log ASCII Standard -VERSION 2.0
WRAP.    NO : One line per depth step
DLM . SPACE : Column Data Section Delimiter
~Well ------------------------------------------------------
STRT  .m                3170.07250 : START DEPTH
STOP  .m                4229.86230 : STOP DEPTH
STEP  .m                   0.15240 : STEP
NULL  .                    -999.25 : NULL VALUE
COMP  .                            : COMPANY
WELL  .                15-9-19-BT2 : WELL
FLD   .                            : FIELD
LOC   .                            : LOCATION
PROV  .                            : PROVINCE
CNTY  .                            : COUNTY
STAT  .                            : STATE
CTRY  .                            : COUNTRY
SRVC  .                            : SERVICE COMPANY
DATE  . 2025-06-30 19:21:11.016592 : DATE
UWI   .                            : UNIQUE WELL ID
API   .                            : API NUMBER
LIC   .                            : 
LATI  .                            : 
LONG  .                            : 
NS    .                            : 
EW    .                            : 
XCOORD.                            : 
YCOORD.                            : 
GDAT  .                            : 
SECT  .                            : 
RANG  .                            : 
TOWN  .                            : 
~Curve Information -----------------------------------------
DEPTH    .m      : 
DT       .us/ft  : None
GR       .GAPI   : None
NPHI     .v/v    : None
RHOB     .g/cc   : None
RT       .ohm.m  : None
DTS      .us/ft  : None
CARB_FLAG.None   : None
COAL_FLAG.None   : None
SAND_FLAG.None   : None
COAL     .None   : None
BVW      .v/v    : None
KLOGH    .mD     : None
PHIF     .v/v    : None
RHOFL    .None   : None
RHOMA    .None   : None
RW       .None   : None
SW       .v/v    : None
TEMP     .None   : None
VSH      .v/v    : None
KLOGV    .None   : None
~Params ----------------------------------------------------
EKB.      : 
EGL.      : 
KB .      : 
GL .      : 
TD .      : 
TDD.      : 
TDL.      : 
~Other -----------------------------------------------------
~ASCII -----------------------------------------------------
# ...
 4002.17650   76.79900   30.44530    0.18950    2.62500    0.66670  133.09320    0.00000    0.00000    0.00000    0.00000    0.01988    0.91890    0.01988    0.90000    2.66000    0.02064    1.00000  119.24620    0.24400    0.51820
 4002.32890   76.21140   30.63450    0.18380    2.49430    0.57220  134.23040    0.00000    0.00000    0.00000    0.00000    0.09422    3.46350    0.09422    0.90000    2.66000    0.02064    1.00000  119.24980    0.24600    2.11970
 4002.48120   75.79400   30.80550    0.17430    2.38430    0.41740  135.01120    0.00000    0.00000    1.00000    0.00000    0.13595   10.54170    0.15674    0.90000    2.66000    0.02064    0.86740  119.25340    0.24790    6.90960
 4002.63380   75.89280   29.23410    0.17530    2.35710    0.41700  135.58670    0.00000    0.00000    1.00000    0.00000    0.15927   19.94620    0.17214    0.90000    2.66000    0.02064    0.92520  119.25700    0.23080   13.59780
 4002.78610   76.86170   26.70170    0.19660    2.30210    0.41400  136.06290    0.00000    0.00000    1.00000    0.00000    0.17453   71.74780    0.21066    0.90000    2.66000    0.02064    0.82850  119.26060    0.20330   52.92750
 4002.93850   78.29510   25.49810    0.20460    2.29200    0.47580  137.34300    0.00000    0.00000    1.00000    0.00000    0.19315  106.32640    0.21730    0.90000    2.66000    0.02064    0.88890  119.26410    0.19020   80.36040
 4003.09080   80.95980   23.67980    0.21270    2.29200    0.61060  139.69650    0.00000    0.00000    1.00000    0.00000    0.19275  137.66900    0.20909    0.90000    2.66000    0.02064    0.92180  119.26770    0.17040  105.71870
 4003.24340   82.01450   23.80170    0.20840    2.37180    0.61700  140.86030    0.00000    0.00000    1.00000    0.00000    0.16370   58.04340    0.16370    0.90000    2.66000    0.02064    1.00000  119.27130    0.17180   42.26220
 4003.39580   82.63560   24.97090    0.19730    2.48870    0.45340  141.69410    0.00000    0.00000    0.00000    0.00000    0.09725   13.11510    0.09725    0.90000    2.66000    0.02064    1.00000  119.27490    0.18450    8.71280
 4003.54810   82.58410   26.14790    0.18970    2.45710    0.44800  141.51840    0.00000    0.00000    1.00000    0.00000    0.11532   14.03450    0.11532    0.90000    2.66000    0.02064    1.00000  119.27850    0.19730    9.36260
 4003.70040   82.57800   26.58190    0.18750    2.42310    0.45900  141.77440    0.00000    0.00000    1.00000    0.00000    0.13463   18.16680    0.13463    0.90000    2.66000    0.02063    1.00000  119.28210    0.20200   12.31370
 4003.85300   82.75860   25.71830    0.19420    2.32430    0.45100  141.11650    0.00000    0.00000    1.00000    0.00000    0.18225   62.14030    0.19084    0.90000    2.66000    0.02063    0.95500  119.28570    0.19260   45.43580
 4004.00540   82.85880   26.99360    0.20770    2.32100    0.51180  141.27760    0.00000    0.00000    1.00000    0.00000    0.18416   48.17460    0.19261    0.90000    2.66000    0.02063    0.95610  119.28920    0.20650   34.67600
 4004.15770   82.96080   27.43380    0.21220    2.35590    0.90100  140.95970    0.00000    0.00000    1.00000    0.00000    0.17275   30.26140    0.17275    0.90000    2.66000    0.02063    1.00000  119.29280    0.21120   21.16680
 4004.31010   82.84130   27.24950    0.19180    2.45670    0.95790  141.06280    0.00000    0.00000    1.00000    0.00000    0.11542   10.97050    0.11542    0.90000    2.66000    0.02063    1.00000  119.29640    0.20920    7.20840
 4004.46240   82.68500   28.63640    0.19490    2.49190    0.62890  141.00140    0.00000    0.00000    0.00000    0.00000    0.09548    5.56000    0.09548    0.90000    2.66000    0.02063    1.00000  119.30000    0.22430    3.50340
 4004.61500   82.46950   28.76170    0.20840    2.45110    0.59710  139.29500    0.00000    0.00000    1.00000    0.00000    0.11242    8.29320    0.11872    0.90000    2.66000    0.02063    0.94690  119.30360    0.22570    5.35600
 4004.76730   82.50390   28.93350    0.20550    2.43110    0.56510  137.62190    0.00000    0.00000    1.00000    0.00000    0.12639    9.83880    0.13010    0.90000    2.66000    0.02063    0.97150  119.30720    0.22750    6.42150
 4004.91970   82.96190   31.84930    0.21830    2.35920    0.58590  136.16240    0.00000    0.00000    1.00000    0.00000    0.16144   10.83100    0.17097    0.90000    2.66000    0.02063    0.94420  119.31080    0.25920    7.11100
 4005.07200   83.07970   33.72010    0.20990    2.36800    0.70170  136.11510    0.00000    0.00000    1.00000    0.00000    0.16202    6.47490    0.16592    0.90000    2.66000    0.02063    0.97650  119.31430    0.27960    4.11840
 4005.22460   83.20420   33.11960    0.20300    2.32610    0.77280  137.11970    0.00000    0.00000    1.00000    0.00000    0.17152   11.49690    0.18974    0.90000    2.66000    0.02063    0.90390  119.31790    0.27300    7.57600
 4005.37700   82.73010   32.00890    0.21610    2.22430    0.75040  138.48380    0.00000    0.00000    1.00000    0.00000    0.16435   15.11440    0.19080    0.90000    2.66000    0.02063    0.86140  119.32150    0.26100   10.13260
 4005.52930   81.76730   28.54020    0.21720    2.23000    0.52960  140.32270    0.00000    0.00000    1.00000    0.00000    0.14949   30.95110    0.18751    0.90000    2.66000    0.02063    0.79720  119.32510    0.22330   21.67930
 4005.68160   81.35990   29.44660    0.21910    2.30680    0.50610  141.21590    0.00000    0.00000    1.00000    0.00000    0.15037   32.13440    0.20063    0.90000    2.66000    0.02063    0.74950  119.32870    0.23310   22.56020
 4005.83420   81.52260   31.10960    0.21590    2.36090    0.56580  141.91740    0.00000    0.00000    1.00000    0.00000    0.15421   12.55130    0.16993    0.90000    2.66000    0.02063    0.90750  119.33230    0.25120    8.31570
 4005.98660   81.08280   34.48510    0.20530    2.33610    0.81930  140.87050    0.00000    0.00000    1.00000    0.00000    0.17557    7.61450    0.18407    0.90000    2.66000    0.02063    0.95380  119.33590    0.28790    4.89190
 4006.13890   80.57120   33.67520    0.21030    2.34700    0.81600  139.77660    0.00000    0.00000    1.00000    0.00000    0.17589    8.14880    0.17785    0.90000    2.66000    0.02063    0.98900  119.33940    0.27910    5.25710
 4006.29130   79.63420   32.70350    0.21510    2.47770    0.99850  137.82060    0.00000    0.00000    1.00000    0.00000    0.10351    2.57870    0.10351    0.90000    2.66000    0.02063    1.00000  119.34300    0.26850    1.54970
 4006.44360   78.34900   32.55440    0.21080    2.66950    1.01990  137.49570    0.00000    0.00000    0.00000    0.00000    0.00000    0.39620    0.00000    0.90000    2.66000    0.02063    1.00000  119.34660    0.26690    0.21220
 4006.59620   76.91540   34.38920    0.18380    2.64010    0.97110  135.91270    0.00000    0.00000    0.00000    0.00000    0.01134    0.32300    0.01134    0.90000    2.66000    0.02062    1.00000  119.35020    0.28680    0.17080
 4006.74850   74.74850   35.95290    0.18800    2.43450    0.98300  135.24520    0.00000    0.00000    1.00000    0.00000    0.12422    1.95670    0.12826    0.90000    2.66000    0.02062    0.96850  119.35380    0.30380    1.15610
 4006.90090   74.85770   37.34630    0.19930    2.41510    0.94110  134.90980    0.00000    0.00000    1.00000    0.00000    0.12868    1.74860    0.13919    0.90000    2.66000    0.02062    0.92450  119.35740    0.31900    1.02600
 4007.05320   75.33090   37.26720    0.20440    2.39800    0.95200  135.35000    0.00000    0.00000    1.00000    0.00000    0.12893    2.12670    0.14885    0.90000    2.66000    0.02062    0.86620  119.36100    0.31810    1.26300
 4007.20580   76.94820   39.82530    0.21390    2.38100    0.87820  136.20500    0.00000    0.00000    1.00000    0.00000    0.13488    1.42800    0.15851    0.90000    2.66000    0.02062    0.85090  119.36450    0.34590    0.82750
 4007.35820   78.12820   42.33340    0.21100    2.39100    0.87100  135.74310    0.00000    0.00000    1.00000    0.00000    0.13584    0.73130    0.15285    0.90000    2.66000    0.02062    0.88870  119.36810    0.37320    0.40660
