~Version ---------------------------------------------------
VERS.   2.0 : CWLS log ASCII Standard -VERSION 2.0
WRAP.    NO : One line per depth step
DLM . SPACE : Column Data Section Delimiter
~Well ------------------------------------------------------
STRT  .m                3170.07250 : START DEPTH
STOP  .m                4229.86230 : STOP DEPTH
STEP  .m                   0.15240 : STEP
NULL  .                    -999.25 : NULL VALUE
COMP  .                            : COMPANY
WELL  .                15-9-19-BT2 : WELL
FLD   .                            : FIELD
LOC   .                            : LOCATION
PROV  .                            : PROVINCE
CNTY  .                            : COUNTY
STAT  .                            : STATE
CTRY  .                            : COUNTRY
SRVC  .                            : SERVICE COMPANY
DATE  . 2025-06-30 19:21:11.016592 : DATE
UWI   .                            : UNIQUE WELL ID
API   .                            : API NUMBER
LIC   .                            : 
LATI  .                            : 
LONG  .                            : 
NS    .                            : 
EW    .                            : 
XCOORD.                            : 
YCOORD.                            : 
GDAT  .                            : 
SECT  .                            : 
RANG  .                            : 
TOWN  .                            : 
~Curve Information -----------------------------------------
DEPTH    .m      : 
DT       .us/ft  : None
GR       .GAPI   : None
NPHI     .v/v    : None
RHOB     .g/cc   : None
RT       .ohm.m  : None
DTS      .us/ft  : None
CARB_FLAG.None   : None
COAL_FLAG.None   : None
SAND_FLAG.None   : None
COAL     .None   : None
BVW      .v/v    : None
KLOGH    .mD     : None
PHIF     .v/v    : None
RHOFL    .None   : None
RHOMA    .None   : None
RW       .None   : None
SW       .v/v    : None
TEMP     .None   : None
VSH      .v/v    : None
KLOGV    .None   : None
~Params ----------------------------------------------------
EKB.      : 
EGL.      : 
KB .      : 
GL .      : 
TD .      : 
TDD.      : 
TDL.      : 
~Other -----------------------------------------------------
~ASCII -----------------------------------------------------
# ...
 4151.52830   82.67400   25.90990    0.19090    2.24200    0.28610  168.04070    0.00000    0.00000    1.00000    0.00000    0.22694  194.49430    0.22694    0.90000    2.64000    0.02015    1.00000  122.69940    0.16970  152.57820
 4151.68120   82.32890   25.29460    0.18470    2.26790    0.26610  150.60460    0.00000    0.00000    1.00000    0.00000    0.21218  101.28360    0.21218    0.90000    2.64000    0.02014    1.00000  122.70630    0.18800   76.32020
 4151.83350   81.92500   22.57720    0.17500    2.26300    0.22710  141.46290    0.00000    0.00000    1.00000    0.00000    0.21001  179.48210    0.21001    0.90000    2.64000    0.02014    1.00000  122.70970    0.15840  140.09920
 4151.98580   81.48010   21.41500    0.17750    2.24800    0.24000  138.11530    0.00000    0.00000    1.00000    0.00000    0.21617  261.24530    0.21617    0.90000    2.64000    0.02014    1.00000  122.71310    0.14580  208.69410
 4152.13820   80.78670   20.38570    0.18530    2.27390    0.25900  132.79640    0.00000    0.00000    1.00000    0.00000    0.21037  295.99820    0.21037    0.90000    2.64000    0.02014    1.00000  122.71650    0.13460  238.28330
 4152.29050   80.02690   20.33610    0.17380    2.28200    0.25200  145.94930    0.00000    0.00000    1.00000    0.00000    0.20295  261.10820    0.20295    0.90000    2.64000    0.02014    1.00000  122.71990    0.13410  208.57790
 4152.44290   79.48440   20.66610    0.17650    2.29100    0.25600  166.49840    0.00000    0.00000    1.00000    0.00000    0.20095  233.62170    0.20095    0.90000    2.64000    0.02014    1.00000  122.72340    0.13770  185.34620
 4152.59520   79.01520   20.40070    0.18650    2.30200    0.28090  195.98400    0.00000    0.00000    1.00000    0.00000    0.19658  248.98540    0.20116    0.90000    2.64000    0.02014    0.97720  122.72680    0.13480  198.31200
 4152.74760   78.46740   21.37740    0.18660    2.28800    0.27300  185.10450    0.00000    0.00000    1.00000    0.00000    0.20455  218.52760    0.20602    0.90000    2.64000    0.02014    0.99290  122.73020    0.14540  172.65900
 4152.89990   78.15980   21.78890    0.18280    2.28400    0.30390  177.32950    0.00000    0.00000    1.00000    0.00000    0.20455  218.52760    0.20602    0.90000    2.64000    0.02014    0.99290  122.73020    0.14540  172.65900
 4153.05270   78.04180   22.08520    0.16780    2.29500    0.30800  180.59490    0.00000    0.00000    1.00000    0.00000    0.19609  155.18660    0.19609    0.90000    2.64000    0.02014    1.00000  122.73700    0.15310  120.05370
 4153.20510   78.10080   23.78550    0.15770    2.28100    0.32700  194.60080    0.00000    0.00000    1.00000    0.00000    0.19687  107.32430    0.19687    0.90000    2.64000    0.02014    1.00000  122.74040    0.17160   81.16130
 4153.35740   78.38430   25.51450    0.15480    2.25710    0.36890  206.10720    0.00000    0.00000    1.00000    0.00000    0.20211   82.88690    0.20398    0.90000    2.64000    0.02014    0.99080  122.74390    0.19040   61.69090
 4153.50980   78.51170   25.08810    0.16230    2.26100    0.34510  204.09610    0.00000    0.00000    1.00000    0.00000    0.19456   94.06300    0.20564    0.90000    2.64000    0.02014    0.94610  122.74730    0.18570   70.55690
 4153.66210   78.53790   25.80510    0.16690    2.26300    0.32700  197.20330    0.00000    0.00000    1.00000    0.00000    0.20450   81.69340    0.20675    0.90000    2.64000    0.02014    0.98910  122.75070    0.19350   60.74830
 4153.81450   78.51510   29.11130    0.16150    2.28100    0.37090  193.71040    0.00000    0.00000    1.00000    0.00000    0.19841   33.26890    0.19841    0.90000    2.64000    0.02014    1.00000  122.75410    0.22950   23.40670
 4153.96680   78.64770   29.64760    0.16580    2.31890    0.36500  189.07460    0.00000    0.00000    1.00000    0.00000    0.18701   23.90110    0.18701    0.90000    2.64000    0.02014    1.00000  122.75750    0.23530   16.47660
 4154.11910   79.01510   31.81130    0.16880    2.33200    0.35300  186.69000    0.00000    0.00000    1.00000    0.00000    0.18701   23.90110    0.18701    0.90000    2.64000    0.02014    1.00000  122.75750    0.23530   16.47660
 4154.27150   79.47480   35.95710    0.16820    2.31210    0.38390  180.45070    0.00000    0.00000    1.00000    0.00000    0.18362   13.82370    0.18375    0.90000    2.64000    0.02014    0.99930  122.76090    0.25880    9.21340
 4154.42430   79.39920   36.39990    0.16010    2.30300    0.40390  170.25760    0.00000    0.00000    1.00000    0.00000    0.18416    5.54280    0.19025    0.90000    2.64000    0.02014    0.96800  122.76780    0.30870    3.49190
 4154.57670   78.96680   36.19160    0.14400    2.31600    0.37610  152.56960    0.00000    0.00000    1.00000    0.00000    0.17456    4.75010    0.17932    0.90000    2.64000    0.02014    0.97340  122.77120    0.30640    2.96420
 4154.72900   78.36550   36.26980    0.14050    2.33890    0.35010  142.37250    0.00000    0.00000    1.00000    0.00000    0.16650    3.93130    0.17001    0.90000    2.64000    0.02014    0.97940  122.77460    0.30730    2.42480
 4154.88130   78.61340   35.78430    0.14550    2.36090    0.36200  136.28030    0.00000    0.00000    1.00000    0.00000    0.16442    3.95650    0.16442    0.90000    2.64000    0.02013    1.00000  122.77800    0.30200    2.44130
 4155.03370   78.84340   37.88650    0.15290    2.36900    0.39790  136.86550    0.00000    0.00000    1.00000    0.00000    0.16463    2.47390    0.16463    0.90000    2.64000    0.02013    1.00000  122.78140    0.32490    1.48290
 4155.18600   79.23000   38.47050    0.16060    2.32910    0.44290  137.06250    0.00000    0.00000    1.00000    0.00000    0.17086    2.95860    0.18149    0.90000    2.64000    0.02013    0.94140  122.78490    0.33120    1.79320
 4155.33840   79.35020   37.84170    0.16400    2.26720    0.41510  135.61830    0.00000    0.00000    1.00000    0.00000    0.19351    5.17750    0.20418    0.90000    2.64000    0.02013    0.94770  122.78830    0.32440    3.24810
 4155.49070   79.43480   38.79050    0.16700    2.26100    0.46390  133.67590    0.00000    0.00000    1.00000    0.00000    0.19351    5.17750    0.20418    0.90000    2.64000    0.02013    0.94770  122.78830    0.32440    3.24810
 4155.64310   79.54270   37.64500    0.16710    2.29490    0.48890  132.63960    0.00000    0.00000    1.00000    0.00000    0.19329    4.44440    0.20749    0.90000    2.64000    0.02013    0.93150  122.79170    0.33470    2.76210
 4155.79590   79.72950   34.41150    0.16390    2.31100    0.55680  131.94970    0.00000    0.00000    1.00000    0.00000    0.14462    8.47930    0.18901    0.90000    2.64000    0.02013    0.76510  122.79850    0.28710    5.48370
 4155.94820   79.83270   30.01950    0.15420    2.33190    0.54400  131.76850    0.00000    0.00000    1.00000    0.00000    0.07422   18.57760    0.17788    0.90000    2.64000    0.02013    0.41720  122.80190    0.23930   12.60950
 4156.10060   79.79230   26.23690    0.15900    2.32300    0.54100  131.64880    0.00000    0.00000    1.00000    0.00000    0.05633   47.77880    0.18291    0.90000    2.64000    0.02013    0.30800  122.80540    0.19820   34.37370
 4156.25290   78.99000   26.51420    0.15750    2.36290    0.56690  132.61760    0.00000    0.00000    1.00000    0.00000    0.05151   34.43590    0.16852    0.90000    2.64000    0.02013    0.30570  122.80880    0.20120   24.27930
 4156.40530   78.56710   27.68190    0.15590    2.42180    0.42840  133.29830    0.00000    0.00000    1.00000    0.00000    0.04908   11.94670    0.12533    0.90000    2.64000    0.02013    0.39160  122.81220    0.21390    7.89110
 4156.55760   81.61630   24.80360    0.15440    2.41200    0.41000  134.78530    0.00000    0.00000    1.00000    0.00000    0.05790   25.37390    0.13103    0.90000    2.64000    0.02013    0.44190  122.81560    0.18260   17.55650
 4156.71000   80.42300   20.36370    0.15280    2.39010    0.48480  138.53560    0.00000    0.00000    1.00000    0.00000    0.04840   87.05700    0.14366    0.90000    2.64000    0.02013    0.33690  122.81900    0.13440   64.99090
