~Version ---------------------------------------------------
VERS.   2.0 : CWLS log ASCII Standard -VERSION 2.0
WRAP.    NO : One line per depth step
DLM . SPACE : Column Data Section Delimiter
~Well ------------------------------------------------------
STRT  .m                3170.07250 : START DEPTH
STOP  .m                4229.86230 : STOP DEPTH
STEP  .m                   0.15240 : STEP
NULL  .                    -999.25 : NULL VALUE
COMP  .                            : COMPANY
WELL  .                15-9-19-BT2 : WELL
FLD   .                            : FIELD
LOC   .                            : LOCATION
PROV  .                            : PROVINCE
CNTY  .                            : COUNTY
STAT  .                            : STATE
CTRY  .                            : COUNTRY
SRVC  .                            : SERVICE COMPANY
DATE  . 2025-06-30 19:21:11.016592 : DATE
UWI   .                            : UNIQUE WELL ID
API   .                            : API NUMBER
LIC   .                            : 
LATI  .                            : 
LONG  .                            : 
NS    .                            : 
EW    .                            : 
XCOORD.                            : 
YCOORD.                            : 
GDAT  .                            : 
SECT  .                            : 
RANG  .                            : 
TOWN  .                            : 
~Curve Information -----------------------------------------
DEPTH    .m      : 
DT       .us/ft  : None
GR       .GAPI   : None
NPHI     .v/v    : None
RHOB     .g/cc   : None
RT       .ohm.m  : None
DTS      .us/ft  : None
CARB_FLAG.None   : None
COAL_FLAG.None   : None
SAND_FLAG.None   : None
COAL     .None   : None
BVW      .v/v    : None
KLOGH    .mD     : None
PHIF     .v/v    : None
RHOFL    .None   : None
RHOMA    .None   : None
RW       .None   : None
SW       .v/v    : None
TEMP     .None   : None
VSH      .v/v    : None
KLOGV    .None   : None
~Params ----------------------------------------------------
EKB.      : 
EGL.      : 
KB .      : 
GL .      : 
TD .      : 
TDD.      : 
TDL.      : 
~Other -----------------------------------------------------
~ASCII -----------------------------------------------------
# ...
 3916.83250   94.87910  109.45690    0.27690    2.46300    1.45010  180.36070    0.00000    0.00000    0.00000    0.00000    0.10020    0.00000    0.11192    0.90000    2.66000    0.02094    0.89520  117.24670    1.10280    0.00000
 3916.98490   94.60660  104.23380    0.28110    2.45800    1.49990  179.71540    0.00000    0.00000    0.00000    0.00000    0.09979    0.00000    0.11477    0.90000    2.66000    0.02094    0.86950  117.25030    1.04600    0.00000
 3917.13720   94.52720  105.03590    0.29480    2.45100    1.54190  179.43960    0.00000    0.00000    0.00000    0.00000    0.09936    0.00000    0.11875    0.90000    2.66000    0.02094    0.83670  117.25390    1.05470    0.00000
 3917.28980   94.52600  105.78100    0.28310    2.44600    1.53200  178.61680    0.00000    0.00000    0.00000    0.00000    0.10002    0.00000    0.12159    0.90000    2.66000    0.02094    0.82260  117.25740    1.06280    0.00000
 3917.44210   94.71360  101.08640    0.25890    2.47190    1.51800  178.05720    0.00000    0.00000    0.00000    0.00000    0.09697    0.00000    0.10684    0.90000    2.66000    0.02094    0.90760  117.26100    1.01180    0.00000
 3917.59450   94.71800  103.74200    0.26250    2.46700    1.48910  177.96750    0.00000    0.00000    0.00000    0.00000    0.09658    0.00000    0.10966    0.90000    2.66000    0.02093    0.88070  117.26450    1.04070    0.00000
 3917.74680   94.85370  103.03090    0.29030    2.46700    1.45410  178.33420    0.00000    0.00000    0.00000    0.00000    0.09519    0.00000    0.10966    0.90000    2.66000    0.02093    0.86800  117.26810    1.03290    0.00000
 3917.89940   94.41500  105.27710    0.30810    2.49390    1.48790  178.61040    0.00000    0.00000    0.00000    0.00000    0.09172    0.00000    0.09434    0.90000    2.66000    0.02093    0.97220  117.27170    1.05740    0.00000
 3918.05180   93.85420  104.66660    0.27150    2.45610    1.49500  178.40940    0.00000    0.00000    0.00000    0.00000    0.09744    0.00000    0.11588    0.90000    2.66000    0.02093    0.84080  117.27520    1.05070    0.00000
 3918.20410   92.73550  101.65390    0.27250    2.46100    1.41920  177.88020    0.00000    0.00000    0.00000    0.00000    0.09745    0.00000    0.11307    0.90000    2.66000    0.02093    0.86190  117.27880    1.01800    0.00000
 3918.35640   92.71210  106.44040    0.27940    2.48390    1.42100  177.31450    0.00000    0.00000    0.00000    0.00000    0.09526    0.00000    0.10002    0.90000    2.66000    0.02093    0.95240  117.28240    1.07000    0.00000
 3918.50880   92.84870  106.76520    0.30470    2.48000    1.54270  177.05560    0.00000    0.00000    0.00000    0.00000    0.09493    0.00000    0.10227    0.90000    2.66000    0.02093    0.92820  117.28590    1.07350    0.00000
 3918.66140   93.21820  102.96900    0.27670    2.47700    1.51610  177.35130    0.00000    0.00000    0.00000    0.00000    0.09556    0.00000    0.10397    0.90000    2.66000    0.02093    0.91910  117.28950    1.03230    0.00000
 3918.81370   93.68700  102.30570    0.28660    2.47500    1.41230  178.30790    0.00000    0.00000    0.00000    0.00000    0.09750    0.00000    0.10511    0.90000    2.66000    0.02093    0.92760  117.29300    1.02510    0.00000
 3918.96610   93.74190  101.02740    0.29810    2.45800    1.44690  179.65200    0.00000    0.00000    0.00000    0.00000    0.09882    0.00000    0.11476    0.90000    2.66000    0.02093    0.86110  117.29660    1.01120    0.00000
 3919.11840   94.18130  103.82660    0.28780    2.47000    1.48090  180.86160    0.00000    0.00000    0.00000    0.00000    0.09498    0.00000    0.10796    0.90000    2.66000    0.02093    0.87970  117.30020    1.04160    0.00000
 3919.27100   94.67090  104.51220    0.29930    2.46400    1.49800  181.80990    0.00000    0.00000    0.00000    0.00000    0.09723    0.00000    0.11136    0.90000    2.66000    0.02093    0.87320  117.30370    1.04900    0.00000
 3919.42330   95.61790  104.93990    0.28490    2.46100    1.53290  182.51540    0.00000    0.00000    0.00000    0.00000    0.09949    0.00000    0.11307    0.90000    2.66000    0.02093    0.87990  117.30730    1.05370    0.00000
 3919.57570   96.02810  103.72720    0.27150    2.48290    1.55000  182.79140    0.00000    0.00000    0.00000    0.00000    0.09529    0.00000    0.10058    0.90000    2.66000    0.02093    0.94730  117.31090    1.04050    0.00000
 3919.72800   96.17470  103.82170    0.30570    2.46700    1.58490  182.90770    0.00000    0.00000    0.00000    0.00000    0.09683    0.00000    0.10965    0.90000    2.66000    0.02093    0.88310  117.31440    1.04150    0.00000
 3919.88060   96.02390  108.31120    0.31320    2.47100    1.60200  182.97060    0.00000    0.00000    0.00000    0.00000    0.09558    0.00000    0.10739    0.90000    2.66000    0.02093    0.89000  117.31800    1.09030    0.00000
 3920.03300   95.73370  106.49080    0.29860    2.47200    1.58700  182.43320    0.00000    0.00000    0.00000    0.00000    0.09478    0.00000    0.10682    0.90000    2.66000    0.02093    0.88730  117.32150    1.07060    0.00000
 3920.18530   95.18520  106.32240    0.27390    2.47100    1.58600  181.69560    0.00000    0.00000    0.00000    0.00000    0.09426    0.00000    0.10739    0.90000    2.66000    0.02093    0.87780  117.32510    1.06870    0.00000
 3920.33760   94.19920  104.63540    0.27100    2.47800    1.61490  180.62440    0.00000    0.00000    0.00000    0.00000    0.09266    0.00000    0.10341    0.90000    2.66000    0.02093    0.89600  117.32870    1.05040    0.00000
 3920.49000   93.12740  104.14130    0.30710    2.45410    1.65890  179.51850    0.00000    0.00000    0.00000    0.00000    0.09509    0.00000    0.11703    0.90000    2.66000    0.02092    0.81260  117.33220    1.04500    0.00000
 3920.64260   91.99200  106.04000    0.31770    2.45400    1.61110  178.63040    0.00000    0.00000    0.00000    0.00000    0.09595    0.00000    0.11704    0.90000    2.66000    0.02092    0.81980  117.33580    1.06570    0.00000
 3920.79490   90.38160  101.54780    0.29210    2.50790    1.62200  177.79690    0.00000    0.00000    0.00000    0.00000    0.08640    0.00000    0.08640    0.90000    2.66000    0.02092    1.00000  117.33930    1.01680    0.00000
 3920.94730   88.84040  103.63450    0.30570    2.49300    1.66490  177.03270    0.00000    0.00000    0.00000    0.00000    0.08917    0.00000    0.09488    0.90000    2.66000    0.02092    0.93990  117.34290    1.03950    0.00000
 3921.09960   88.78710  103.72380    0.30520    2.47010    1.73680  177.14570    0.00000    0.00000    0.00000    0.00000    0.09201    0.00000    0.10794    0.90000    2.66000    0.02092    0.85240  117.34650    1.04050    0.00000
 3921.25220   90.02720  106.35810    0.29390    2.48600    1.82280  177.93320    0.00000    0.00000    0.00000    0.00000    0.09131    0.00000    0.09888    0.90000    2.66000    0.02092    0.92350  117.35000    1.06910    0.00000
 3921.40450   93.02160  106.80980    0.30580    2.48100    1.77410  179.09390    0.00000    0.00000    0.00000    0.00000    0.09154    0.00000    0.10170    0.90000    2.66000    0.02092    0.90010  117.35360    1.07400    0.00000
 3921.55690   94.63340  108.36490    0.32760    2.46010    1.81490  179.76950    0.00000    0.00000    0.00000    0.00000    0.09299    0.00000    0.11362    0.90000    2.66000    0.02092    0.81840  117.35710    1.09090    0.00000
 3921.70920   95.57290  107.54320    0.25980    2.47700    1.70030  179.40580    0.00000    0.00000    0.00000    0.00000    0.08950    0.00000    0.10399    0.90000    2.66000    0.02092    0.86070  117.36070    1.08200    0.00000
 3921.86180   95.98310   91.61890    0.27440    2.44110    1.66410  178.98390    0.00000    0.00000    0.00000    0.00000    0.09228    0.00000    0.12441    0.90000    2.66000    0.02092    0.74180  117.36430    0.90890    0.00000
 3922.01420   96.27540   96.76440    0.28100    2.44500    1.57520  177.84160    0.00000    0.00000    0.00000    0.00000    0.09262    0.00000    0.12216    0.90000    2.66000    0.02092    0.75820  117.36780    0.96480    0.00000
