~Version ---------------------------------------------------
VERS.   2.0 : CWLS log ASCII Standard -VERSION 2.0
WRAP.    NO : One line per depth step
DLM . SPACE : Column Data Section Delimiter
~Well ------------------------------------------------------
STRT  .m                3170.07250 : START DEPTH
STOP  .m                4229.86230 : STOP DEPTH
STEP  .m                   0.15240 : STEP
NULL  .                    -999.25 : NULL VALUE
COMP  .                            : COMPANY
WELL  .                15-9-19-BT2 : WELL
FLD   .                            : FIELD
LOC   .                            : LOCATION
PROV  .                            : PROVINCE
CNTY  .                            : COUNTY
STAT  .                            : STATE
CTRY  .                            : COUNTRY
SRVC  .                            : SERVICE COMPANY
DATE  . 2025-06-30 19:21:11.016592 : DATE
UWI   .                            : UNIQUE WELL ID
API   .                            : API NUMBER
LIC   .                            : 
LATI  .                            : 
LONG  .                            : 
NS    .                            : 
EW    .                            : 
XCOORD.                            : 
YCOORD.                            : 
GDAT  .                            : 
SECT  .                            : 
RANG  .                            : 
TOWN  .                            : 
~Curve Information -----------------------------------------
DEPTH    .m      : 
DT       .us/ft  : None
GR       .GAPI   : None
NPHI     .v/v    : None
RHOB     .g/cc   : None
RT       .ohm.m  : None
DTS      .us/ft  : None
CARB_FLAG.None   : None
COAL_FLAG.None   : None
SAND_FLAG.None   : None
COAL     .None   : None
BVW      .v/v    : None
KLOGH    .mD     : None
PHIF     .v/v    : None
RHOFL    .None   : None
RHOMA    .None   : None
RW       .None   : None
SW       .v/v    : None
TEMP     .None   : None
VSH      .v/v    : None
KLOGV    .None   : None
~Params ----------------------------------------------------
EKB.      : 
EGL.      : 
KB .      : 
GL .      : 
TD .      : 
TDD.      : 
TDL.      : 
~Other -----------------------------------------------------
~ASCII -----------------------------------------------------
# ...
 4092.85450   78.37900   19.99020    0.15680    2.29000    0.37210  129.11460    0.00000    0.00000    1.00000    0.00000    0.19417  249.02130    0.19615    0.90000    2.65000    0.02033    0.98990  121.36980    0.13030  198.34240
 4093.00680   78.24230   18.05710    0.15930    2.30200    0.36800  129.26760    0.00000    0.00000    1.00000    0.00000    0.19136  363.60710    0.19306    0.90000    2.65000    0.02033    0.99120  121.37330    0.10930  296.44440
 4093.15940   78.07640   17.72880    0.16660    2.30200    0.38200  129.20020    0.00000    0.00000    1.00000    0.00000    0.19595  412.89050    0.19595    0.90000    2.65000    0.02033    1.00000  121.37680    0.10570  339.27180
 4093.31180   77.89340   18.31250    0.17160    2.33190    0.34910  128.89270    0.00000    0.00000    1.00000    0.00000    0.18767  310.86010    0.18767    0.90000    2.65000    0.02033    1.00000  121.38030    0.11210  251.00400
 4093.46410   77.79030   18.08560    0.16450    2.30810    0.36100  128.51790    0.00000    0.00000    1.00000    0.00000    0.19047  361.11030    0.19303    0.90000    2.65000    0.02033    0.98670  121.38380    0.10960  294.28370
 4093.61650   77.66380   16.36450    0.16200    2.28310    0.38390  128.09570    0.00000    0.00000    1.00000    0.00000    0.19267  611.74950    0.20061    0.90000    2.65000    0.02033    0.96050  121.38730    0.09090  515.00230
 4093.76880   77.18620   15.88420    0.16190    2.32590    0.36310  127.59520    0.00000    0.00000    1.00000    0.00000    0.17498  519.44480    0.18585    0.90000    2.65000    0.02033    0.94150  121.39080    0.08570  432.90950
 4093.92140   76.11060   16.17420    0.15480    2.35990    0.45780  127.51520    0.00000    0.00000    1.00000    0.00000    0.16626  372.69530    0.17138    0.90000    2.65000    0.02033    0.97010  121.39430    0.08890  304.31650
 4094.07370   75.14840   17.18530    0.16670    2.36200    0.50390  128.36990    0.00000    0.00000    1.00000    0.00000    0.16457  261.82910    0.16457    0.90000    2.65000    0.02033    1.00000  121.39790    0.09980  209.18930
 4094.22610   74.86170   18.42970    0.14400    2.33810    0.48500  129.28280    0.00000    0.00000    1.00000    0.00000    0.17003  237.61030    0.17452    0.90000    2.65000    0.02033    0.97430  121.40140    0.11340  188.70740
 4094.37840   75.27340   15.41000    0.19030    2.43180    0.48100  131.83280    0.00000    0.00000    1.00000    0.00000    0.15366  319.43880    0.15366    0.90000    2.71000    0.02033    1.00000  121.40490    0.08050  258.36400
 4094.53100   75.92840   27.69170    0.18720    2.55370    0.48100  134.14240    1.00000    0.00000    0.00000    0.00000    0.08628    0.10000    0.08628    0.90000    2.71000    0.02033    1.00000  121.40840    0.21400    3.66800
 4094.68330   76.99740   34.91310    0.16680    2.40440    0.48400  136.62000    1.00000    0.00000    0.00000    0.00000    0.17395    0.10000    0.17808    0.90000    2.71000    0.02033    0.97680  121.41190    0.29250    3.92730
 4094.83570   78.79460   31.87410    0.15170    2.33320    0.48300  139.32740    0.00000    0.00000    1.00000    0.00000    0.17930    1.00000    0.17930    0.90000    2.65000    0.02033    1.00000  121.41540    0.25950    8.32020
 4094.98800   80.80710   42.16490    0.16730    2.33900    0.47900  142.31870    0.00000    0.00000    1.00000    0.00000    0.18129    1.33720    0.18355    0.90000    2.65000    0.02033    0.98770  121.41890    0.37140    0.77170
 4095.14060   82.16240   43.33600    0.21670    2.29610    0.47800  143.99640    0.00000    0.00000    1.00000    0.00000    0.18560    1.44960    0.20225    0.90000    2.65000    0.02033    0.91770  121.42240    0.38410    0.84080
 4095.29300   83.57660   48.31190    0.20150    2.21620    0.47400  145.24690    0.00000    0.00000    1.00000    0.00000    0.18284    0.38270    0.19080    0.90000    2.65000    0.02033    0.95830  121.42590    0.43820    0.20450
 4095.44530   84.67030   49.32240    0.20450    2.28280    0.47300  145.68590    0.00000    0.00000    1.00000    0.00000    0.18844    0.49990    0.21766    0.90000    2.65000    0.02032    0.86580  121.42940    0.44920    0.27150
 4095.59770   85.89500   51.66280    0.21920    2.27500    0.47400  147.79390    0.00000    0.00000    1.00000    0.00000    0.18882    0.27730    0.21428    0.90000    2.65000    0.02032    0.88120  121.43290    0.47460    0.14520
 4095.75000   86.59430   52.88580    0.22460    2.25210    0.47000  149.51780    0.00000    0.00000    1.00000    0.00000    0.20772    0.31590    0.23631    0.90000    2.65000    0.02032    0.87900  121.43640    0.48790    0.16680
 4095.90260   87.22600   41.22470    0.18900    2.21910    0.39220  150.80480    0.00000    0.00000    1.00000    0.00000    0.22065    4.13480    0.23334    0.90000    2.65000    0.02032    0.94560  121.44000    0.36110    2.55820
 4096.05470   87.99910   37.19550    0.22240    2.21800    0.33120  151.79560    0.00000    0.00000    1.00000    0.00000    0.22065    4.13480    0.23334    0.90000    2.65000    0.02032    0.94560  121.44000    0.36110    2.55820
 4096.20750   88.26340   42.24970    0.24370    2.24390    0.29010  152.41150    0.00000    0.00000    1.00000    0.00000    0.22973    3.20360    0.23202    0.90000    2.65000    0.02032    0.99010  121.44700    0.37230    1.95120
 4096.35990   88.24600   33.29160    0.20740    2.17520    0.28800  152.93870    0.00000    0.00000    1.00000    0.00000    0.23211   37.31520    0.25576    0.90000    2.65000    0.02032    0.90750  121.45050    0.27490   26.43990
 4096.51220   88.21410   32.56880    0.24560    2.17270    0.30600  152.76540    0.00000    0.00000    1.00000    0.00000    0.23506   59.15790    0.27194    0.90000    2.65000    0.02032    0.86440  121.45400    0.26710   43.12420
 4096.66460   88.37600   33.23030    0.25040    2.17670    0.30600  152.24530    0.00000    0.00000    1.00000    0.00000    0.23351   51.43900    0.27243    0.90000    2.65000    0.02032    0.85710  121.45750    0.27420   37.17560
 4096.81690   88.43690   33.65290    0.20650    2.25080    0.31500  151.14770    0.00000    0.00000    1.00000    0.00000    0.22344   21.15760    0.22937    0.90000    2.65000    0.02032    0.97410  121.46100    0.27880   14.47620
 4096.96920   88.34120   30.89430    0.22710    2.23500    0.31500  150.82080    0.00000    0.00000    1.00000    0.00000    0.22673   50.76310    0.24315    0.90000    2.65000    0.02032    0.93250  121.46450    0.24890   36.65720
 4097.12160   88.05370   33.40240    0.20270    2.23700    0.31500  150.63350    0.00000    0.00000    1.00000    0.00000    0.22495   23.78330    0.23266    0.90000    2.65000    0.02032    0.96680  121.46800    0.27610   16.39040
 4097.27390   87.81560   33.19760    0.23700    2.24600    0.31700  150.10730    0.00000    0.00000    1.00000    0.00000    0.22495   23.78330    0.23266    0.90000    2.65000    0.02032    0.96680  121.46800    0.27610   16.39040
 4097.42630   87.53780   33.09930    0.23970    2.27790    0.30600  149.59520    0.00000    0.00000    1.00000    0.00000    0.22562   24.09540    0.23086    0.90000    2.65000    0.02032    0.97730  121.47150    0.27390   16.61890
 4097.57910   87.15290   33.42410    0.22090    2.26600    0.31400  148.26630    0.00000    0.00000    1.00000    0.00000    0.21358   18.54440    0.21942    0.90000    2.65000    0.02032    0.97340  121.47850    0.27630   12.58550
 4097.73140   86.92160   34.44630    0.22930    2.24900    0.33890  149.33840    0.00000    0.00000    1.00000    0.00000    0.21635   17.61580    0.22913    0.90000    2.65000    0.02032    0.94420  121.48200    0.28750   11.91750
 4097.88380   87.00580   38.52230    0.22460    2.24400    0.33900  149.95350    0.00000    0.00000    1.00000    0.00000    0.22348    8.43790    0.23901    0.90000    2.65000    0.02032    0.93500  121.48550    0.33180    5.45530
 4098.03610   87.06490   40.43400    0.22870    2.26290    0.32400  150.02780    0.00000    0.00000    1.00000    0.00000    0.21978    3.94790    0.22116    0.90000    2.65000    0.02032    0.99380  121.48900    0.35250    2.43570
