~Version ---------------------------------------------------
VERS.   2.0 : CWLS log ASCII Standard -VERSION 2.0
WRAP.    NO : One line per depth step
DLM . SPACE : Column Data Section Delimiter
~Well ------------------------------------------------------
STRT  .m                3170.07250 : START DEPTH
STOP  .m                4229.86230 : STOP DEPTH
STEP  .m                   0.15240 : STEP
NULL  .                    -999.25 : NULL VALUE
COMP  .                            : COMPANY
WELL  .                15-9-19-BT2 : WELL
FLD   .                            : FIELD
LOC   .                            : LOCATION
PROV  .                            : PROVINCE
CNTY  .                            : COUNTY
STAT  .                            : STATE
CTRY  .                            : COUNTRY
SRVC  .                            : SERVICE COMPANY
DATE  . 2025-06-30 19:21:11.016592 : DATE
UWI   .                            : UNIQUE WELL ID
API   .                            : API NUMBER
LIC   .                            : 
LATI  .                            : 
LONG  .                            : 
NS    .                            : 
EW    .                            : 
XCOORD.                            : 
YCOORD.                            : 
GDAT  .                            : 
SECT  .                            : 
RANG  .                            : 
TOWN  .                            : 
~Curve Information -----------------------------------------
DEPTH    .m      : 
DT       .us/ft  : None
GR       .GAPI   : None
NPHI     .v/v    : None
RHOB     .g/cc   : None
RT       .ohm.m  : None
DTS      .us/ft  : None
CARB_FLAG.None   : None
COAL_FLAG.None   : None
SAND_FLAG.None   : None
COAL     .None   : None
BVW      .v/v    : None
KLOGH    .mD     : None
PHIF     .v/v    : None
RHOFL    .None   : None
RHOMA    .None   : None
RW       .None   : None
SW       .v/v    : None
TEMP     .None   : None
VSH      .v/v    : None
KLOGV    .None   : None
~Params ----------------------------------------------------
EKB.      : 
EGL.      : 
KB .      : 
GL .      : 
TD .      : 
TDD.      : 
TDL.      : 
~Other -----------------------------------------------------
~ASCII -----------------------------------------------------
# ...
 4210.20260   77.45170   79.42830    0.11030    2.49100    2.05380  144.11760    -999.25    0.00000    0.00000    0.00000    0.09086    0.01530    0.09086    0.90000    2.65000    0.01996    1.00000  124.01090    0.86090    0.00670
 4210.35500   77.89190   80.30670    0.14130    2.49800    1.89040  144.37430    0.00000    0.00000    0.00000    0.00000    0.08686    0.01080    0.08686    0.90000    2.65000    0.01996    1.00000  124.01430    0.87250    0.00460
 4210.50730   77.80220   83.46070    0.26350    2.52690    1.83320  142.97560    0.00000    0.00000    0.00000    0.00000    0.07031    0.00260    0.07031    0.90000    2.65000    0.01996    1.00000  124.01770    0.91400    0.00100
 4210.65970   77.51670   77.74610    0.26160    2.52400    2.04240  141.05200    0.00000    0.00000    0.00000    0.00000    0.07200    0.00420    0.07200    0.90000    2.65000    0.01996    1.00000  124.02110    0.83880    0.00170
 4210.81200   77.17790   77.14150    0.24030    2.56890    2.61750  138.54950    0.00000    0.00000    0.00000    0.00000    0.04632    0.00070    0.04632    0.90000    2.65000    0.01996    1.00000  124.02450    0.83080    0.00020
 4210.96440   76.87990   77.05020    0.22520    2.53110    2.61000  137.02690    -999.25    0.00000    0.00000    0.00000    0.06797    0.00330    0.06797    0.90000    2.65000    0.01996    1.00000  124.02790    0.82960    0.00130
 4211.11670   76.56480   77.28140    0.19620    2.51900    2.68980  135.89090    -999.25    0.00000    0.00000    0.00000    0.06797    0.00330    0.06797    0.90000    2.65000    0.01996    1.00000  124.02790    0.82960    0.00130
 4211.26950   75.86980   77.17030    0.18340    2.51200    2.60020  133.95500    0.00000    0.00000    0.00000    0.00000    0.07885    0.00730    0.07885    0.90000    2.65000    0.01996    1.00000  124.03460    0.83120    0.00300
 4211.42190   75.57480   78.22920    0.18880    2.50400    2.40550  131.51230    0.00000    0.00000    0.00000    0.00000    0.08342    0.00950    0.08342    0.90000    2.65000    0.01996    1.00000  124.03800    0.84510    0.00410
 4211.57420   75.51520   79.25630    0.18580    2.52290    2.39700  130.59630    0.00000    0.00000    0.00000    0.00000    0.07259    0.00400    0.07259    0.90000    2.65000    0.01996    1.00000  124.04140    0.85860    0.00160
 4211.72660   75.81310   77.45280    0.18870    2.51000    2.27430  131.35500    0.00000    0.00000    0.00000    0.00000    0.07999    0.00780    0.07999    0.90000    2.65000    0.01996    1.00000  124.04480    0.83490    0.00330
 4211.87890   75.95960   76.62020    0.19660    2.53890    2.18920  132.44420    0.00000    0.00000    0.00000    0.00000    0.06345    0.00240    0.06345    0.90000    2.65000    0.01996    1.00000  124.04820    0.82390    0.00090
 4212.03120   76.08270   82.93440    0.19990    2.52100    2.15610  133.86630    -999.25    0.00000    0.00000    0.00000    0.07370    0.00350    0.07370    0.90000    2.65000    0.01996    1.00000  124.05150    0.90700    0.00140
 4212.18360   75.96330   78.39100    0.19300    2.51600    2.05730  134.86540    -999.25    0.00000    0.00000    0.00000    0.07657    0.00570    0.07657    0.90000    2.65000    0.01996    1.00000  124.05490    0.84720    0.00230
 4212.33590   75.94800   89.04590    0.21130    2.55090    1.87050  135.86340    -999.25    0.00000    0.00000    0.00000    0.07657    0.00570    0.07657    0.90000    2.65000    0.01996    1.00000  124.05490    0.84720    0.00230
 4212.48830   75.81290   94.75210    0.20960    2.55800    1.74030  135.51730    0.00000    0.00000    0.00000    0.00000    0.05660    0.00070    0.05660    0.90000    2.65000    0.01996    1.00000  124.05830    0.98740    0.00020
 4212.64110   75.36320   96.88640    0.20540    2.54100    1.75990  134.59940    0.00000    0.00000    0.00000    0.00000    0.06227    0.00060    0.06227    0.90000    2.65000    0.01996    1.00000  124.06510    1.09060    0.00020
 4212.79350   75.05780   92.71900    0.20570    2.52200    1.76200  133.61350    0.00000    0.00000    0.00000    0.00000    0.07313    0.00190    0.07313    0.90000    2.65000    0.01996    1.00000  124.06850    1.03580    0.00070
 4212.94580   74.80270   86.99000    0.20820    2.46420    1.66030  135.09020    -999.25    0.00000    0.00000    0.00000    0.09713    0.03010    0.10624    0.90000    2.65000    0.01996    0.91420  124.07180    0.96040    0.01380
 4213.09810   75.11920   77.55580    0.20000    2.45000    1.76070  137.11480    -999.25    0.00000    0.00000    0.00000    0.10232    0.09640    0.11428    0.90000    2.65000    0.01996    0.89540  124.07520    0.83630    0.04730
 4213.25050   75.25410   78.97980    0.19960    2.38010    1.84180  138.91030    0.00000    0.00000    0.00000    0.00000    0.12395    1.67940    0.15423    0.90000    2.65000    0.01995    0.80360  124.07860    0.85520    0.98290
 4213.40280   75.05250   74.27140    0.18090    2.36100    1.84400  140.23060    0.00000    0.00000    0.00000    0.00000    0.14698    4.98920    0.16513    0.90000    2.65000    0.01995    0.89010  124.08200    0.79300    3.12280
 4213.55520   74.18820   65.95480    0.19440    2.41490    1.75720  141.21050    0.00000    0.00000    0.00000    0.00000    0.13433    0.85350    0.13433    0.90000    2.65000    0.01995    1.00000  124.08540    0.68360    0.47910
 4213.70750   74.59190   65.51210    0.19400    2.41200    1.12070  142.95550    0.00000    0.00000    0.00000    0.00000    0.13433    0.85350    0.13433    0.90000    2.65000    0.01995    1.00000  124.08540    0.68360    0.47910
 4213.86040   76.21480   67.45290    0.18910    2.42100    0.81280  145.38170    0.00000    0.00000    0.00000    0.00000    0.12859    0.60390    0.13086    0.90000    2.65000    0.01995    0.98270  124.09210    0.70330    0.33190
 4214.01270   79.97850   75.57960    0.18340    2.43200    0.67240  149.32740    -999.25    0.00000    -999.25    0.00000    -999.25    -999.25    -999.25    0.90000    -999.25    -999.25    -999.25    -999.25    -999.25    -999.25
 4214.16500   82.68500   75.97200    0.18320    2.40810    0.70790  152.35420    -999.25    0.00000    -999.25    0.00000    -999.25    -999.25    -999.25    0.90000    -999.25    -999.25    -999.25    -999.25    -999.25    -999.25
 4214.31740   85.23240   79.46980    0.17290    2.44790    0.92540  155.15880    0.00000    0.00000    -999.25    0.00000    -999.25    -999.25    -999.25    0.90000    -999.25    -999.25    -999.25    -999.25    -999.25    -999.25
 4214.46970   86.16860   80.04450    0.20150    2.49190    1.00580  156.26720    0.00000    0.00000    -999.25    0.00000    -999.25    -999.25    -999.25    0.90000    -999.25    -999.25    -999.25    -999.25    -999.25    -999.25
 4214.62210   86.71660   85.81480    0.19870    2.54090    0.90130  157.66940    0.00000    0.00000    -999.25    0.00000    -999.25    -999.25    -999.25    0.90000    -999.25    -999.25    -999.25    -999.25    -999.25    -999.25
 4214.77440   86.41800   96.76920    0.18490    2.54200    1.02570  157.54980    0.00000    0.00000    -999.25    0.00000    -999.25    -999.25    -999.25    0.90000    -999.25    -999.25    -999.25    -999.25    -999.25    -999.25
 4214.92680   85.84950   97.39240    0.18830    2.52400    1.46880  157.92300    -999.25    0.00000    -999.25    0.00000    -999.25    -999.25    -999.25    0.90000    -999.25    -999.25    -999.25    -999.25    -999.25    -999.25
 4215.07910   84.67010  114.31050    0.19300    2.51800    1.56970  157.79140    -999.25    0.00000    -999.25    0.00000    -999.25    -999.25    -999.25    0.90000    -999.25    -999.25    -999.25    -999.25    -999.25    -999.25
 4215.23190   84.07450  123.72730    0.19410    2.54790    1.67370  157.21950    -999.25    0.00000    -999.25    0.00000    -999.25    -999.25    -999.25    0.90000    -999.25    -999.25    -999.25    -999.25    -999.25    -999.25
 4215.38430   83.80670  159.78320    0.20040    2.55500    1.66400  156.77410    0.00000    0.00000    -999.25    0.00000    -999.25    -999.25    -999.25    0.90000    -999.25    -999.25    -999.25    -999.25    -999.25    -999.25
