~Version ---------------------------------------------------
VERS.   2.0 : CWLS log ASCII Standard -VERSION 2.0
WRAP.    NO : One line per depth step
DLM . SPACE : Column Data Section Delimiter
~Well ------------------------------------------------------
STRT  .m                3170.07250 : START DEPTH
STOP  .m                4229.86230 : STOP DEPTH
STEP  .m                   0.15240 : STEP
NULL  .                    -999.25 : NULL VALUE
COMP  .                            : COMPANY
WELL  .                15-9-19-BT2 : WELL
FLD   .                            : FIELD
LOC   .                            : LOCATION
PROV  .                            : PROVINCE
CNTY  .                            : COUNTY
STAT  .                            : STATE
CTRY  .                            : COUNTRY
SRVC  .                            : SERVICE COMPANY
DATE  . 2025-06-30 19:21:11.016592 : DATE
UWI   .                            : UNIQUE WELL ID
API   .                            : API NUMBER
LIC   .                            : 
LATI  .                            : 
LONG  .                            : 
NS    .                            : 
EW    .                            : 
XCOORD.                            : 
YCOORD.                            : 
GDAT  .                            : 
SECT  .                            : 
RANG  .                            : 
TOWN  .                            : 
~Curve Information -----------------------------------------
DEPTH    .m      : 
DT       .us/ft  : None
GR       .GAPI   : None
NPHI     .v/v    : None
RHOB     .g/cc   : None
RT       .ohm.m  : None
DTS      .us/ft  : None
CARB_FLAG.None   : None
COAL_FLAG.None   : None
SAND_FLAG.None   : None
COAL     .None   : None
BVW      .v/v    : None
KLOGH    .mD     : None
PHIF     .v/v    : None
RHOFL    .None   : None
RHOMA    .None   : None
RW       .None   : None
SW       .v/v    : None
TEMP     .None   : None
VSH      .v/v    : None
KLOGV    .None   : None
~Params ----------------------------------------------------
EKB.      : 
EGL.      : 
KB .      : 
GL .      : 
TD .      : 
TDD.      : 
TDL.      : 
~Other -----------------------------------------------------
~ASCII -----------------------------------------------------
# ...
 4178.19870   84.88790   44.45780    0.22140    2.27700    0.32300  151.46340    0.00000    0.00000    1.00000    0.00000    0.21315    1.37610    0.21315    0.90000    2.65000    0.02006    1.00000  123.29890    0.39630    0.79560
 4178.35110   85.59720   50.33550    0.21220    2.12840    0.33700  155.58550    0.00000    1.00000    0.00000    0.00000    0.00000    0.00720    0.00000    0.90000    2.65000    0.02006    1.00000  123.30230    0.46020    0.00300
 4178.50340   86.83680   71.68590    0.23760    2.05020    0.33800  161.08400    0.00000    1.00000    0.00000    0.00000    0.00000    0.00010    0.00000    0.90000    2.65000    0.02006    1.00000  123.30570    0.69220    0.00000
 4178.65580   88.53770   73.92920    0.26870    1.96120    0.33800  169.65520    0.00000    1.00000    0.00000    0.00000    0.00000    0.00000    0.00000    0.90000    2.65000    0.02006    1.00000  123.30910    0.78850    0.00000
 4178.80810   90.33240   73.13110    0.45580    2.16250    0.63120  177.37840    0.00000    1.00000    0.00000    0.00000    0.00000    0.00000    0.00000    0.90000    2.65000    0.02006    1.00000  123.31250    0.77800    0.00000
 4178.96040   93.37830   73.88200    0.39490    2.11510    1.36510  186.16530    -999.25    1.00000    0.00000    0.00000    0.00000    0.00000    0.00000    0.90000    2.65000    0.02006    1.00000  123.31590    0.78790    0.00000
 4179.11280   97.55940   73.69450    0.34810    2.09110    3.89530  195.87040    -999.25    1.00000    0.00000    0.00000    0.00000    0.00000    0.00000    0.90000    2.65000    0.02006    1.00000  123.31930    0.78550    0.00000
 4179.26510   99.49310   80.72950    0.48050    2.09800    4.76670  202.07330    -999.25    1.00000    0.00000    0.00000    0.00000    0.00000    0.00000    0.90000    2.65000    0.02006    1.00000  123.31930    0.78550    0.00000
 4179.41750  100.21820   84.79930    0.49720    1.99830    4.59250  204.97960    0.00000    1.00000    0.00000    0.00000    0.00000    0.00000    0.00000    0.90000    2.65000    0.02006    1.00000  123.32270    0.87800    0.00000
 4179.57030  100.28780   79.51490    0.40980    2.37100    4.58600  206.17400    0.00000    0.00000    0.00000    0.00000    0.08587    2.33520    0.15914    0.90000    2.65000    0.02006    0.53960  123.32950    0.86200    1.39490
 4179.72270  101.10970   82.70360    0.44590    2.36600    2.96830  205.78750    0.00000    0.00000    0.00000    0.00000    0.09918    2.42670    0.16228    0.90000    2.65000    0.02006    0.61120  123.33290    0.90400    1.45290
 4179.87500  101.03220   85.44180    0.44010    2.69010    1.88480  203.65740    0.00000    0.00000    0.00000    0.00000    0.00000    0.00000    0.00000    0.90000    2.65000    0.02006    1.00000  123.33630    0.94000    0.00000
 4180.02730   98.39570   83.65370    0.55230    2.38680    2.47940  200.70150    -999.25    0.00000    0.00000    0.00000    0.07711    0.97080    0.15063    0.90000    2.65000    0.02006    0.51190  123.33970    0.91650    0.54930
 4180.17970   92.09510   78.00880    0.58570    2.40990    2.48100  198.28020    -999.25    0.00000    0.00000    0.00000    0.06680    0.50660    0.13716    0.90000    2.65000    0.02006    0.48700  123.34310    0.84220    0.27540
 4180.33200   89.43280   84.51480    0.64130    2.51170    4.70510  197.44410    0.00000    0.00000    0.00000    0.00000    0.06511    0.00470    0.07893    0.90000    2.65000    0.02006    0.82490  123.34650    0.92780    0.00190
 4180.48440   89.38330   81.47310    0.44090    2.29560    4.42870  196.32820    0.00000    0.00000    0.00000    0.00000    0.07722   51.35900    0.20269    0.90000    2.65000    0.02006    0.38100  123.34990    0.88780   37.11430
 4180.63670   92.32650   83.50960    0.36620    2.37380    4.42700  196.85470    0.00000    0.00000    0.00000    0.00000    0.07722   51.35900    0.20269    0.90000    2.65000    0.02006    0.38100  123.34990    0.88780   37.11430
 4180.78960   95.67350   84.11840    0.36440    2.29220    2.31850  197.55020    0.00000    0.00000    0.00000    0.00000    0.09765   50.01480    0.20451    0.90000    2.65000    0.02005    0.47750  123.35670    0.92260   36.08380
 4180.94190  101.43230   84.06510    0.35620    2.18330    2.19430  197.47320    -999.25    0.00000    0.00000    0.00000    0.10207 4931.66060    0.26677    0.90000    2.65000    0.02005    0.38260  123.36010    0.92190 4721.62350
 4181.09420  105.25130   83.95130    0.41360    2.15910    2.09730  194.99830    -999.25    0.00000    0.00000    0.00000    0.09414 13705.30960    0.28055    0.90000    2.65000    0.02005    0.33550  123.36350    0.92040 13974.75880
 4181.24660  107.49950   83.87120    0.43410    2.16400    2.38520  191.77180    0.00000    0.00000    0.00000    0.00000    0.08779 11175.42480    0.27772    0.90000    2.65000    0.02005    0.31610  123.36690    0.91940 11252.72070
 4181.39890  106.44370   82.59930    0.45640    2.26570    3.07420  188.70280    0.00000    0.00000    0.00000    0.00000    0.08012  165.54620    0.21951    0.90000    2.65000    0.02005    0.36500  123.37020    0.90260  128.57900
 4181.55130  104.01220   78.86180    0.62370    2.41160    3.55570  183.99600    0.00000    0.00000    0.00000    0.00000    0.06188    0.44530    0.13611    0.90000    2.65000    0.02005    0.45460  123.37360    0.85340    0.24010
 4181.70360   96.99890   72.34110    0.63770    2.38610    5.84800  179.30490    0.00000    0.00000    0.00000    0.00000    0.06646    1.95670    0.15084    0.90000    2.65000    0.02005    0.44060  123.37700    0.76760    1.15610
 4181.85600   93.65950   55.73870    0.41730    2.45280    6.04350  173.31620    0.00000    0.00000    0.00000    0.00000    0.07422    0.32030    0.11262    0.90000    2.65000    0.02005    0.65900  123.38040    0.54920    0.16930
 4182.00830   90.35140   46.47630    0.25030    2.53780    3.39900  169.35950    0.00000    0.00000    0.00000    0.00000    0.07422    0.32030    0.11262    0.90000    2.65000    0.02005    0.65900  123.38040    0.54920    0.16930
 4182.16110   87.27580   43.20950    0.26510    2.45720    3.39100  164.22610    -999.25    0.00000    0.00000    0.00000    0.08972    0.57350    0.11023    0.90000    2.65000    0.02005    0.81400  123.38720    0.38430    0.31420
 4182.31350   82.89820   52.18440    0.22320    2.56970    2.14830  158.32200    0.00000    0.00000    0.00000    0.00000    0.04580    0.00290    0.04580    0.90000    2.65000    0.02005    1.00000  123.39060    0.50240    0.00110
 4182.46580   80.93600   63.92420    0.22960    2.56900    1.52560  154.04590    0.00000    0.00000    0.00000    0.00000    0.04628    0.00150    0.04628    0.90000    2.65000    0.02005    1.00000  123.39400    0.65690    0.00060
 4182.61820   81.16140   67.60040    0.34340    2.54010    1.53900  151.93240    0.00000    0.00000    0.00000    0.00000    0.06284    0.00400    0.06284    0.90000    2.65000    0.02005    1.00000  123.39740    0.70530    0.00160
 4182.77050   82.14660   68.08570    0.37340    2.55100    2.67000  149.82660    0.00000    0.00000    0.00000    0.00000    0.05658    0.00240    0.05658    0.90000    2.65000    0.02005    1.00000  123.40080    0.71170    0.00100
 4182.92290   83.06170   65.61650    0.28070    2.53110    2.57430  147.69440    -999.25    0.00000    0.00000    0.00000    0.06799    0.00660    0.06799    0.90000    2.65000    0.02005    1.00000  123.40420    0.67920    0.00270
 4183.07520   81.17780   60.95430    0.28400    2.49610    2.42440  143.38300    -999.25    0.00000    0.00000    0.00000    0.08493    0.03800    0.08797    0.90000    2.65000    0.02005    0.96540  123.40760    0.61780    0.01760
 4183.22750   79.70570   44.28180    0.31270    2.49100    2.42500  139.32330    -999.25    0.00000    0.00000    0.00000    0.08493    0.03800    0.08797    0.90000    2.65000    0.02005    0.96540  123.40760    0.61780    0.01760
 4183.37990   78.52900   37.41700    0.17060    2.53590    1.98910  138.87810    -999.25    0.00000    0.00000    0.00000    0.09085    0.12890    0.09085    0.90000    2.65000    0.02005    1.00000  123.41100    0.39840    0.06440
