~Version ---------------------------------------------------
VERS.   2.0 : CWLS log ASCII Standard -VERSION 2.0
WRAP.    NO : One line per depth step
DLM . SPACE : Column Data Section Delimiter
~Well ------------------------------------------------------
STRT  .m                3170.07250 : START DEPTH
STOP  .m                4229.86230 : STOP DEPTH
STEP  .m                   0.15240 : STEP
NULL  .                    -999.25 : NULL VALUE
COMP  .                            : COMPANY
WELL  .                15-9-19-BT2 : WELL
FLD   .                            : FIELD
LOC   .                            : LOCATION
PROV  .                            : PROVINCE
CNTY  .                            : COUNTY
STAT  .                            : STATE
CTRY  .                            : COUNTRY
SRVC  .                            : SERVICE COMPANY
DATE  . 2025-06-30 19:21:11.016592 : DATE
UWI   .                            : UNIQUE WELL ID
API   .                            : API NUMBER
LIC   .                            : 
LATI  .                            : 
LONG  .                            : 
NS    .                            : 
EW    .                            : 
XCOORD.                            : 
YCOORD.                            : 
GDAT  .                            : 
SECT  .                            : 
RANG  .                            : 
TOWN  .                            : 
~Curve Information -----------------------------------------
DEPTH    .m      : 
DT       .us/ft  : None
GR       .GAPI   : None
NPHI     .v/v    : None
RHOB     .g/cc   : None
RT       .ohm.m  : None
DTS      .us/ft  : None
CARB_FLAG.None   : None
COAL_FLAG.None   : None
SAND_FLAG.None   : None
COAL     .None   : None
BVW      .v/v    : None
KLOGH    .mD     : None
PHIF     .v/v    : None
RHOFL    .None   : None
RHOMA    .None   : None
RW       .None   : None
SW       .v/v    : None
TEMP     .None   : None
VSH      .v/v    : None
KLOGV    .None   : None
~Params ----------------------------------------------------
EKB.      : 
EGL.      : 
KB .      : 
GL .      : 
TD .      : 
TDD.      : 
TDL.      : 
~Other -----------------------------------------------------
~ASCII -----------------------------------------------------
# ...
 4034.18040   83.14560   91.28710    0.31130    2.48500    1.94340  155.13270    0.00000    0.00000    0.00000    0.00000    0.09943    0.00000    0.09943    0.90000    2.66000    0.02053    1.00000  119.99980    0.90530    0.00000
 4034.33300   83.73960   85.25290    0.32820    2.53390    2.07370  156.60950    0.00000    0.00000    0.00000    0.00000    0.07163    0.00000    0.07163    0.90000    2.66000    0.02053    1.00000  120.00340    0.83970    0.00000
 4034.48540   84.52910   79.93600    0.33870    2.60780    1.54740  156.84940    0.00000    0.00000    0.00000    0.00000    0.02960    0.00000    0.02960    0.90000    2.66000    0.02053    1.00000  120.00700    0.78190    0.00000
 4034.63770   85.44080   77.44150    0.37030    2.62200    1.51810  155.19390    0.00000    0.00000    0.00000    0.00000    0.02160    0.00000    0.02160    0.90000    2.66000    0.02053    1.00000  120.01060    0.75480    0.00000
 4034.79000   87.18890   77.38010    0.35440    2.62800    1.71350  154.15440    0.00000    0.00000    0.00000    0.00000    0.01819    0.00000    0.01819    0.90000    2.66000    0.02053    1.00000  120.01420    0.75410    0.00000
 4034.94260   88.00590   74.25720    0.36940    2.64400    1.74590  152.54210    0.00000    0.00000    0.00000    0.00000    0.00910    0.00000    0.00910    0.90000    2.66000    0.02053    1.00000  120.01780    0.72020    0.00000
 4035.09500   88.43000   64.65330    0.37790    2.72780    1.76790  150.08580    0.00000    0.00000    0.00000    0.00000    0.00000    0.00030    0.00000    0.90000    2.66000    0.02053    1.00000  120.02140    0.61580    0.00010
 4035.24730   87.15800   58.89310    0.36500    2.80980    1.21940  145.49090    0.00000    0.00000    0.00000    0.00000    0.00000    0.00110    0.00000    0.90000    2.66000    0.02053    1.00000  120.02490    0.55320    0.00040
 4035.39970   84.79260   47.89590    0.35030    2.76810    0.69740  139.64280    0.00000    0.00000    0.00000    0.00000    0.00000    0.01250    0.00000    0.90000    2.66000    0.02053    1.00000  120.02850    0.43370    0.00540
 4035.55200   79.50850   33.94860    0.35080    2.69120    0.64110  133.00470    0.00000    0.00000    0.00000    0.00000    0.00000    0.28940    0.00000    0.90000    2.66000    0.02053    1.00000  120.03210    0.28210    0.15200
 4035.70460   76.05270   30.83710    0.22040    2.66210    0.62110  129.81990    0.00000    0.00000    0.00000    0.00000    0.00000    0.58340    0.00000    0.90000    2.66000    0.02052    1.00000  120.03570    0.24820    0.31990
 4035.85690   72.82270   26.19820    0.10870    2.54330    0.65190  127.59330    0.00000    0.00000    0.00000    0.00000    0.06639    0.10000    0.06639    0.90000    2.66000    0.02052    1.00000  120.03930    0.19780    3.55320
 4036.00930   70.74790   22.42190    0.11940    2.42830    1.64440  125.39220    1.00000    0.00000    0.00000    0.00000    0.14502    0.10000    0.15119    0.90000    2.71000    0.02052    0.95920  120.04290    0.15680   46.03340
 4036.16160   70.11750   24.04570    0.10980    2.42800    1.61210  124.93010    1.00000    0.00000    0.00000    0.00000    0.14739    0.10000    0.14739    0.90000    2.71000    0.02052    1.00000  120.04650    0.17440   28.98070
 4036.31420   71.33010   25.76150    0.10080    2.43600    0.69640  125.35200    1.00000    0.00000    0.00000    0.00000    0.14116    0.10000    0.14116    0.90000    2.71000    0.02052    1.00000  120.05000    0.19310   17.02090
 4036.46660   73.19730   23.51990    0.14120    2.39410    0.61520  126.44120    1.00000    0.00000    0.00000    0.00000    0.17125    0.10000    0.17125    0.90000    2.71000    0.02052    1.00000  120.05360    0.16870   52.39970
 4036.61890   76.02830   18.16810    0.17470    2.29730    0.47040  127.76090    0.00000    0.00000    1.00000    0.00000    0.18338  430.67620    0.20361    0.90000    2.66000    0.02052    0.90070  120.05720    0.11050  354.80730
 4036.77120   77.15230   13.48030    0.18460    2.25110    0.45100  128.23390    0.00000    0.00000    1.00000    0.00000    0.18102 1777.71240    0.22325    0.90000    2.66000    0.02052    0.81080  120.06080    0.05960 1598.26750
 4036.92380   77.40540   11.24380    0.18700    2.25200    0.43700  127.68830    0.00000    0.00000    1.00000    0.00000    0.20148 2977.12940    0.22389    0.90000    2.66000    0.02052    0.89990  120.06440    0.03530 2763.03810
 4037.07620   77.32620   10.87700    0.18190    2.26700    0.47690  127.09740    0.00000    0.00000    1.00000    0.00000    0.21672 2833.47310    0.21672    0.90000    2.66000    0.02052    1.00000  120.06800    0.03130 2621.70920
 4037.22850   77.51280   10.85410    0.18470    2.24010    0.37130  126.72530    0.00000    0.00000    1.00000    0.00000    0.22372 3445.31230    0.22705    0.90000    2.66000    0.02052    0.98530  120.07160    0.03100 3226.46530
 4037.38090   77.78040   11.60600    0.18440    2.22010    0.34010  127.26470    0.00000    0.00000    1.00000    0.00000    0.21380 3291.10420    0.23376    0.90000    2.66000    0.02052    0.91460  120.07520    0.03920 3073.36690
 4037.53320   78.00250   11.91220    0.17520    2.22700    0.27620  127.45950    0.00000    0.00000    1.00000    0.00000    0.21443 2746.60080    0.22769    0.90000    2.66000    0.02052    0.94180  120.07870    0.04250 2536.45700
 4037.68580   78.32320   11.97180    0.17130    2.28980    0.32690  126.71780    0.00000    0.00000    1.00000    0.00000    0.20467 1773.36790    0.20467    0.90000    2.66000    0.02052    1.00000  120.08230    0.04320 1594.12110
 4037.83810   78.21830   11.70070    0.17310    2.30700    0.32800  126.88360    0.00000    0.00000    1.00000    0.00000    0.19957 1716.14420    0.19957    0.90000    2.66000    0.02052    1.00000  120.08590    0.04020 1539.56600
 4037.99050   77.76780   12.03210    0.17110    2.29900    0.25920  127.64720    0.00000    0.00000    1.00000    0.00000    0.20150 1650.15890    0.20150    0.90000    2.66000    0.02052    1.00000  120.08950    0.04380 1476.79720
 4038.14280   76.85520   12.20450    0.16970    2.28700    0.25400  128.58780    0.00000    0.00000    1.00000    0.00000    0.20503 1694.16430    0.20503    0.90000    2.66000    0.02052    1.00000  120.09310    0.04570 1518.64070
 4038.29540   76.23650   12.15610    0.16470    2.29100    0.23900  128.46030    0.00000    0.00000    1.00000    0.00000    0.20167 1609.69850    0.20167    0.90000    2.66000    0.02052    1.00000  120.09670    0.04520 1438.38510
 4038.44780   75.83890   11.40400    0.16300    2.31000    0.26690  129.03360    0.00000    0.00000    1.00000    0.00000    0.19453 1672.04320    0.19453    0.90000    2.66000    0.02052    1.00000  120.10030    0.03700 1497.59800
 4038.60010   75.77220   10.73080    0.16580    2.30700    0.29190  127.43280    0.00000    0.00000    1.00000    0.00000    0.19668 2024.25160    0.19668    0.90000    2.66000    0.02051    1.00000  120.10390    0.02970 1834.54590
 4038.75240   75.83160   11.16880    0.15540    2.30800    0.30200  126.34680    0.00000    0.00000    1.00000    0.00000    0.19216 1687.67320    0.19216    0.90000    2.66000    0.02051    1.00000  120.10740    0.03440 1512.46440
 4038.90500   76.00760   12.03370    0.15450    2.28610    0.31200  125.48300    0.00000    0.00000    1.00000    0.00000    0.19929 1583.74670    0.19929    0.90000    2.66000    0.02051    1.00000  120.11100    0.04380 1413.77840
 4039.05740   76.09080   12.58760    0.16190    2.27800    0.33790  125.06200    0.00000    0.00000    1.00000    0.00000    0.20497 1552.35710    0.20497    0.90000    2.66000    0.02051    1.00000  120.11460    0.04990 1384.04900
 4039.20970   76.19670   13.42180    0.16500    2.26900    0.33300  124.88640    0.00000    0.00000    1.00000    0.00000    0.20548 1393.05870    0.20930    0.90000    2.66000    0.02051    0.98180  120.11820    0.05890 1233.76160
 4039.36210   76.31170   11.29360    0.16400    2.28990    0.33100  124.91790    0.00000    0.00000    1.00000    0.00000    0.20173 1957.35390    0.20173    0.90000    2.66000    0.02051    1.00000  120.12180    0.03580 1770.24730
