~Version ---------------------------------------------------
VERS.   2.0 : CWLS log ASCII Standard -VERSION 2.0
WRAP.    NO : One line per depth step
DLM . SPACE : Column Data Section Delimiter
~Well ------------------------------------------------------
STRT  .m                3170.07250 : START DEPTH
STOP  .m                4229.86230 : STOP DEPTH
STEP  .m                   0.15240 : STEP
NULL  .                    -999.25 : NULL VALUE
COMP  .                            : COMPANY
WELL  .                15-9-19-BT2 : WELL
FLD   .                            : FIELD
LOC   .                            : LOCATION
PROV  .                            : PROVINCE
CNTY  .                            : COUNTY
STAT  .                            : STATE
CTRY  .                            : COUNTRY
SRVC  .                            : SERVICE COMPANY
DATE  . 2025-06-30 19:21:11.016592 : DATE
UWI   .                            : UNIQUE WELL ID
API   .                            : API NUMBER
LIC   .                            : 
LATI  .                            : 
LONG  .                            : 
NS    .                            : 
EW    .                            : 
XCOORD.                            : 
YCOORD.                            : 
GDAT  .                            : 
SECT  .                            : 
RANG  .                            : 
TOWN  .                            : 
~Curve Information -----------------------------------------
DEPTH    .m      : 
DT       .us/ft  : None
GR       .GAPI   : None
NPHI     .v/v    : None
RHOB     .g/cc   : None
RT       .ohm.m  : None
DTS      .us/ft  : None
CARB_FLAG.None   : None
COAL_FLAG.None   : None
SAND_FLAG.None   : None
COAL     .None   : None
BVW      .v/v    : None
KLOGH    .mD     : None
PHIF     .v/v    : None
RHOFL    .None   : None
RHOMA    .None   : None
RW       .None   : None
SW       .v/v    : None
TEMP     .None   : None
VSH      .v/v    : None
KLOGV    .None   : None
~Params ----------------------------------------------------
EKB.      : 
EGL.      : 
KB .      : 
GL .      : 
TD .      : 
TDD.      : 
TDL.      : 
~Other -----------------------------------------------------
~ASCII -----------------------------------------------------
# ...
 3943.50240   88.15050   97.67710    0.26120    2.45710    1.33900  168.00910    0.00000    0.00000    0.00000    0.00000    0.10633    0.00000    0.11533    0.90000    2.66000    0.02084    0.92200  117.87020    0.97480    0.00000
 3943.65500   87.54340   96.93990    0.25930    2.50690    1.35200  167.63480    0.00000    0.00000    0.00000    0.00000    0.08697    0.00000    0.08697    0.90000    2.66000    0.02084    1.00000  117.87380    0.96670    0.00000
 3943.80740   86.97030   94.91030    0.23650    2.49900    1.33900  167.77670    0.00000    0.00000    0.00000    0.00000    0.09147    0.00000    0.09147    0.90000    2.66000    0.02084    1.00000  117.87730    0.94470    0.00000
 3943.95970   86.50310   92.78160    0.24890    2.50300    1.20540  167.42380    0.00000    0.00000    0.00000    0.00000    0.08921    0.00000    0.08921    0.90000    2.66000    0.02084    1.00000  117.88090    0.92150    0.00000
 3944.11210   86.20070   95.26640    0.25560    2.51400    1.31070  166.70860    0.00000    0.00000    0.00000    0.00000    0.08296    0.00000    0.08296    0.90000    2.66000    0.02084    1.00000  117.88450    0.94850    0.00000
 3944.26440   86.25670   91.28550    0.25310    2.52000    1.46160  166.27860    0.00000    0.00000    0.00000    0.00000    0.07955    0.00000    0.07955    0.90000    2.66000    0.02084    1.00000  117.88800    0.90530    0.00000
 3944.41700   86.51740   91.60410    0.24790    2.48410    1.46100  166.18620    0.00000    0.00000    0.00000    0.00000    0.09611    0.00000    0.09997    0.90000    2.66000    0.02084    0.96130  117.89160    0.90870    0.00000
 3944.56930   87.12360   93.67750    0.26460    2.50890    1.46100  166.68890    0.00000    0.00000    0.00000    0.00000    0.08581    0.00000    0.08581    0.90000    2.66000    0.02084    1.00000  117.89520    0.93130    0.00000
 3944.72170   87.23770   91.36610    0.26620    2.51500    1.41410  167.26770    0.00000    0.00000    0.00000    0.00000    0.08239    0.00000    0.08239    0.90000    2.66000    0.02084    1.00000  117.89870    0.90620    0.00000
 3944.87400   87.31980   91.14160    0.25410    2.50800    1.41900  167.74790    0.00000    0.00000    0.00000    0.00000    0.08636    0.00000    0.08636    0.90000    2.66000    0.02084    1.00000  117.90230    0.90370    0.00000
 3945.02660   86.95330   92.68090    0.25150    2.49000    1.42300  167.51940    0.00000    0.00000    0.00000    0.00000    0.09326    0.00000    0.09658    0.90000    2.66000    0.02084    0.96560  117.90590    0.92040    0.00000
 3945.17900   86.88710   92.14940    0.24380    2.51090    1.45190  165.64020    0.00000    0.00000    0.00000    0.00000    0.08468    0.00000    0.08468    0.90000    2.66000    0.02084    1.00000  117.90940    0.91470    0.00000
 3945.33130   86.38810   90.43750    0.23570    2.50000    1.51480  162.45720    0.00000    0.00000    0.00000    0.00000    0.09090    0.00000    0.09090    0.90000    2.66000    0.02084    1.00000  117.91300    0.89610    0.00000
 3945.48360   85.83920   95.15560    0.23100    2.49700    1.39030  159.28820    0.00000    0.00000    0.00000    0.00000    0.09261    0.00000    0.09261    0.90000    2.66000    0.02084    1.00000  117.91660    0.94730    0.00000
 3945.63620   84.81530   93.99510    0.24860    2.50300    1.38500  156.19200    0.00000    0.00000    0.00000    0.00000    0.08921    0.00000    0.08921    0.90000    2.66000    0.02084    1.00000  117.92010    0.93470    0.00000
 3945.78860   82.80840   80.87150    0.25230    2.48410    1.40490  152.79690    0.00000    0.00000    0.00000    0.00000    0.09564    0.00000    0.09999    0.90000    2.66000    0.02084    0.95650  117.92370    0.79210    0.00000
 3945.94090   80.78960   74.13360    0.19680    2.55480    1.43190  149.53140    0.00000    0.00000    0.00000    0.00000    0.05971    0.00010    0.05971    0.90000    2.66000    0.02084    1.00000  117.92730    0.71880    0.00000
 3946.09330   78.85440   72.07040    0.19040    2.61580    1.43300  147.85780    0.00000    0.00000    0.00000    0.00000    0.02505    0.00010    0.02505    0.90000    2.66000    0.02083    1.00000  117.93080    0.69640    0.00000
 3946.24560   77.84230   69.42490    0.20590    2.63890    1.44700  147.35120    0.00000    0.00000    0.00000    0.00000    0.01195    0.00010    0.01195    0.90000    2.66000    0.02083    1.00000  117.93440    0.66770    0.00000
 3946.39820   77.82300   82.70600    0.20150    2.67990    1.96960  148.99630    0.00000    0.00000    0.00000    0.00000    0.00000    0.00000    0.00000    0.90000    2.66000    0.02083    1.00000  117.93800    0.81200    0.00000
 3946.55050   78.42330   84.68690    0.25070    2.67400    4.32780  151.89710    0.00000    0.00000    0.00000    0.00000    0.00000    0.00000    0.00000    0.90000    2.66000    0.02083    1.00000  117.94150    0.83360    0.00000
 3946.70290   79.79190   86.56710    0.27600    2.52840    4.43270  155.38710    0.00000    0.00000    0.00000    0.00000    0.07489    0.00000    0.07489    0.90000    2.66000    0.02083    1.00000  117.94510    0.85400    0.00000
 3946.85520   80.30980   89.26190    0.25700    2.51600    3.38780  157.89330    0.00000    0.00000    0.00000    0.00000    0.08181    0.00000    0.08181    0.90000    2.66000    0.02083    1.00000  117.94870    0.88330    0.00000
 3947.00780   81.12620   93.68740    0.25390    2.51800    1.50690  159.57120    0.00000    0.00000    0.00000    0.00000    0.08068    0.00000    0.08068    0.90000    2.66000    0.02083    1.00000  117.95220    0.93140    0.00000
 3947.16020   82.34520   96.38990    0.24470    2.50700    1.53290  161.58650    0.00000    0.00000    0.00000    0.00000    0.08692    0.00000    0.08692    0.90000    2.66000    0.02083    1.00000  117.95580    0.96080    0.00000
 3947.31250   84.86440   93.89260    0.24310    2.49500    1.59480  164.66800    0.00000    0.00000    0.00000    0.00000    0.09374    0.00000    0.09374    0.90000    2.66000    0.02083    1.00000  117.95940    0.93360    0.00000
 3947.46480   86.64700   95.20050    0.25530    2.49200    1.64290  167.91270    0.00000    0.00000    0.00000    0.00000    0.09545    0.00000    0.09545    0.90000    2.66000    0.02083    1.00000  117.96300    0.94780    0.00000
 3947.61740   87.71960   97.15890    0.26690    2.50200    1.58420  169.72090    0.00000    0.00000    0.00000    0.00000    0.08978    0.00000    0.08978    0.90000    2.66000    0.02083    1.00000  117.96650    0.96910    0.00000
 3947.76980   88.26580   95.59210    0.26220    2.50500    1.58600  170.88440    0.00000    0.00000    0.00000    0.00000    0.08807    0.00000    0.08807    0.90000    2.66000    0.02083    1.00000  117.97010    0.95210    0.00000
 3947.92210   88.97840   98.04450    0.26130    2.50200    1.48930  170.51780    0.00000    0.00000    0.00000    0.00000    0.08977    0.00000    0.08977    0.90000    2.66000    0.02083    1.00000  117.97370    0.97870    0.00000
 3948.07450   89.38650  102.65990    0.25300    2.48400    1.43710  169.36210    0.00000    0.00000    0.00000    0.00000    0.09999    0.00000    0.09999    0.90000    2.66000    0.02083    1.00000  117.97720    1.02890    0.00000
 3948.22680   89.65540   99.35170    0.26010    2.47200    1.49580  168.15270    0.00000    0.00000    0.00000    0.00000    0.10681    0.00000    0.10681    0.90000    2.66000    0.02083    1.00000  117.98080    0.99300    0.00000
 3948.37940   89.63210   92.16590    0.24910    2.55980    1.53990  166.86590    0.00000    0.00000    0.00000    0.00000    0.05688    0.00000    0.05688    0.90000    2.66000    0.02083    1.00000  117.98440    0.91480    0.00000
 3948.53170   88.82780   81.30850    0.22110    2.55700    1.58390  165.71860    0.00000    0.00000    0.00000    0.00000    0.05852    0.00000    0.05852    0.90000    2.66000    0.02083    1.00000  117.98790    0.79680    0.00000
 3948.68410   86.94330   76.87560    0.22340    2.49520    1.55310  164.65940    0.00000    0.00000    0.00000    0.00000    0.08830    0.00010    0.09370    0.90000    2.66000    0.02083    0.94240  117.99150    0.74860    0.00000
