~Version ---------------------------------------------------
VERS.   2.0 : CWLS log ASCII Standard -VERSION 2.0
WRAP.    NO : One line per depth step
DLM . SPACE : Column Data Section Delimiter
~Well ------------------------------------------------------
STRT  .m                3170.07250 : START DEPTH
STOP  .m                4229.86230 : STOP DEPTH
STEP  .m                   0.15240 : STEP
NULL  .                    -999.25 : NULL VALUE
COMP  .                            : COMPANY
WELL  .                15-9-19-BT2 : WELL
FLD   .                            : FIELD
LOC   .                            : LOCATION
PROV  .                            : PROVINCE
CNTY  .                            : COUNTY
STAT  .                            : STATE
CTRY  .                            : COUNTRY
SRVC  .                            : SERVICE COMPANY
DATE  . 2025-06-30 19:21:11.016592 : DATE
UWI   .                            : UNIQUE WELL ID
API   .                            : API NUMBER
LIC   .                            : 
LATI  .                            : 
LONG  .                            : 
NS    .                            : 
EW    .                            : 
XCOORD.                            : 
YCOORD.                            : 
GDAT  .                            : 
SECT  .                            : 
RANG  .                            : 
TOWN  .                            : 
~Curve Information -----------------------------------------
DEPTH    .m      : 
DT       .us/ft  : None
GR       .GAPI   : None
NPHI     .v/v    : None
RHOB     .g/cc   : None
RT       .ohm.m  : None
DTS      .us/ft  : None
CARB_FLAG.None   : None
COAL_FLAG.None   : None
SAND_FLAG.None   : None
COAL     .None   : None
BVW      .v/v    : None
KLOGH    .mD     : None
PHIF     .v/v    : None
RHOFL    .None   : None
RHOMA    .None   : None
RW       .None   : None
SW       .v/v    : None
TEMP     .None   : None
VSH      .v/v    : None
KLOGV    .None   : None
~Params ----------------------------------------------------
EKB.      : 
EGL.      : 
KB .      : 
GL .      : 
TD .      : 
TDD.      : 
TDL.      : 
~Other -----------------------------------------------------
~ASCII -----------------------------------------------------
# ...
 4119.52440   78.65490   14.84110    0.17370    2.24700    0.28100  126.06280    0.00000    0.00000    1.00000    0.00000    0.21499 1123.88890    0.21499    0.90000    2.64000    0.02025    1.00000  121.98030    0.07440  982.28720
 4119.67680   78.62910   13.11750    0.17540    2.25300    0.28100  126.89890    0.00000    0.00000    1.00000    0.00000    0.21363 1615.92030    0.21363    0.90000    2.64000    0.02025    1.00000  121.98380    0.05560 1444.28820
 4119.82910   78.50630   13.10500    0.18070    2.23600    0.30000  129.20230    0.00000    0.00000    1.00000    0.00000    0.21363 1615.92030    0.21363    0.90000    2.64000    0.02025    1.00000  121.98380    0.05560 1444.28820
 4119.98190   78.45810   13.32640    0.17760    2.23500    0.29900  129.31770    0.00000    0.00000    1.00000    0.00000    0.22070 1756.01140    0.22070    0.90000    2.64000    0.02025    1.00000  121.99070    0.05790 1577.56240
 4120.13430   78.45600   14.48990    0.16620    2.25100    0.29900  128.97980    0.00000    0.00000    1.00000    0.00000    0.21063 1122.40200    0.21063    0.90000    2.64000    0.02024    1.00000  121.99420    0.07050  980.90750
 4120.28660   78.45200   16.02900    0.17370    2.28190    0.26410  128.58060    0.00000    0.00000    1.00000    0.00000    0.20297  689.11120    0.20297    0.90000    2.64000    0.02024    1.00000  121.99760    0.08730  584.40250
 4120.43900   78.33830   16.29230    0.17760    2.25610    0.26700  128.43140    0.00000    0.00000    1.00000    0.00000    0.21343  787.47230    0.21343    0.90000    2.64000    0.02024    1.00000  122.00110    0.09010  673.33200
 4120.59130   78.13750   16.14340    0.16720    2.26800    0.26800  130.54580    0.00000    0.00000    1.00000    0.00000    0.20516  699.28550    0.20516    0.90000    2.64000    0.02024    1.00000  122.00460    0.08850  593.56670
 4120.74370   77.77990   15.50470    0.16890    2.27800    0.27200  131.53060    0.00000    0.00000    1.00000    0.00000    0.20241  767.55940    0.20241    0.90000    2.64000    0.02024    1.00000  122.00800    0.08160  655.27020
 4120.89600   77.58350   14.23030    0.16850    2.27300    0.30790  132.25420    0.00000    0.00000    1.00000    0.00000    0.20394 1052.06090    0.20394    0.90000    2.64000    0.02024    1.00000  122.01150    0.06770  915.77390
 4121.04830   77.46380   16.08810    0.17770    2.27200    0.30300  131.89930    0.00000    0.00000    1.00000    0.00000    0.20394 1052.06090    0.20394    0.90000    2.64000    0.02024    1.00000  122.01150    0.06770  915.77390
 4121.20070   77.38120   14.93400    0.17550    2.25900    0.30200  131.11590    0.00000    0.00000    1.00000    0.00000    0.20800  746.11510    0.20800    0.90000    2.64000    0.02024    1.00000  122.01500    0.08790  635.85170
 4121.35350   77.44480   15.95930    0.17630    2.25400    0.30800  129.08200    0.00000    0.00000    1.00000    0.00000    0.21361  851.62200    0.21361    0.90000    2.64000    0.02024    1.00000  122.02190    0.08650  731.70660
 4121.50590   77.63750   16.40780    0.18600    2.25800    0.28310  127.59870    0.00000    0.00000    1.00000    0.00000    0.21614  806.49070    0.21614    0.90000    2.64000    0.02024    1.00000  122.02540    0.09140  690.60870
 4121.65820   78.18070   16.40300    0.18540    2.25400    0.28300  125.92410    0.00000    0.00000    1.00000    0.00000    0.21724  823.94700    0.21724    0.90000    2.64000    0.02024    1.00000  122.02880    0.09130  706.48860
 4121.81050   78.48010   15.94220    0.17700    2.24200    0.24510  125.31190    0.00000    0.00000    1.00000    0.00000    0.21802  927.33340    0.21802    0.90000    2.64000    0.02024    1.00000  122.03230    0.08630  800.95050
 4121.96290   78.83310   16.90250    0.18540    2.23900    0.28490  125.43970    0.00000    0.00000    1.00000    0.00000    0.22244  810.24170    0.22244    0.90000    2.64000    0.02024    1.00000  122.03570    0.09680  694.01920
 4122.11520   79.21510   16.96780    0.18490    2.23700    0.29700  126.32480    0.00000    0.00000    1.00000    0.00000    0.22293  805.64000    0.22293    0.90000    2.64000    0.02024    1.00000  122.03920    0.09750  689.83540
 4122.26760   79.80650   16.34860    0.17950    2.23800    0.27310  128.80090    0.00000    0.00000    1.00000    0.00000    0.22041  884.21830    0.22041    0.90000    2.64000    0.02024    1.00000  122.04270    0.09070  761.47380
 4122.41990   80.05640   15.89020    0.17930    2.23900    0.22710  130.78710    0.00000    0.00000    1.00000    0.00000    0.22041  884.21830    0.22041    0.90000    2.64000    0.02024    1.00000  122.04270    0.09070  761.47380
 4122.57230   80.14150   15.42220    0.17840    2.21810    0.24400  133.39440    0.00000    0.00000    1.00000    0.00000    0.21999  972.90660    0.21999    0.90000    2.64000    0.02024    1.00000  122.04610    0.08580  842.80090
 4122.72510   79.96040   14.04160    0.17820    2.23000    0.25000  133.57360    0.00000    0.00000    1.00000    0.00000    0.22266 1549.73350    0.22266    0.90000    2.64000    0.02024    1.00000  122.05300    0.06570 1381.56580
 4122.87740   79.77250   14.62250    0.18250    2.24300    0.24100  133.72260    0.00000    0.00000    1.00000    0.00000    0.21991 1292.60630    0.21991    0.90000    2.64000    0.02024    1.00000  122.05650    0.07200 1139.52780
 4123.02980   79.47270   14.69280    0.17360    2.23700    0.23500  133.55240    0.00000    0.00000    1.00000    0.00000    0.21841 1237.52620    0.21841    0.90000    2.64000    0.02024    1.00000  122.06000    0.07270 1088.04680
 4123.18210   79.31140   14.38680    0.16330    2.23800    0.20610  133.61290    0.00000    0.00000    1.00000    0.00000    0.21394 1221.13880    0.21394    0.90000    2.64000    0.02023    1.00000  122.06340    0.06940 1072.75700
 4123.33450   79.22750   14.85280    0.17290    2.24000    0.22690  133.82370    0.00000    0.00000    1.00000    0.00000    0.21711 1165.42380    0.21711    0.90000    2.64000    0.02023    1.00000  122.06690    0.07450 1020.86960
 4123.48680   79.24600   15.19610    0.18190    2.26090    0.24890  134.25090    0.00000    0.00000    1.00000    0.00000    0.21347 1008.79530    0.21347    0.90000    2.64000    0.02023    1.00000  122.07040    0.07820  875.84340
 4123.63920   79.29090   15.95500    0.18260    2.25700    0.24900  134.96120    0.00000    0.00000    1.00000    0.00000    0.21512  876.42440    0.21512    0.90000    2.64000    0.02023    1.00000  122.07380    0.08650  754.35010
 4123.79150   79.37880   15.05140    0.18520    2.23800    0.25800  135.60940    0.00000    0.00000    1.00000    0.00000    0.21512  876.42440    0.21512    0.90000    2.64000    0.02023    1.00000  122.07380    0.08650  754.35010
 4123.94430   79.45380   15.39410    0.19210    2.22900    0.24400  135.93220    0.00000    0.00000    1.00000    0.00000    0.22858 1274.30630    0.22858    0.90000    2.64000    0.02023    1.00000  122.08070    0.08040 1122.40820
 4124.09670   79.48680   16.46620    0.19150    2.23000    0.23600  135.65480    0.00000    0.00000    1.00000    0.00000    0.22799  990.19600    0.22799    0.90000    2.64000    0.02023    1.00000  122.08420    0.09200  858.70990
 4124.24900   79.51390   15.93440    0.18530    2.22700    0.24500  135.10240    0.00000    0.00000    1.00000    0.00000    0.22653 1086.59440    0.22653    0.90000    2.64000    0.02023    1.00000  122.08760    0.08620  947.71830
 4124.40140   79.67760   15.67370    0.18930    2.23300    0.24400  133.94190    0.00000    0.00000    1.00000    0.00000    0.22608 1142.83110    0.22608    0.90000    2.64000    0.02023    1.00000  122.09110    0.08340  999.87210
 4124.55370   79.96330   14.73750    0.19550    2.23800    0.24400  133.02830    0.00000    0.00000    1.00000    0.00000    0.22681 1430.17150    0.22681    0.90000    2.64000    0.02023    1.00000  122.09460    0.07320 1268.68470
 4124.70610   80.37600   14.48670    0.19970    2.23400    0.24400  131.92370    0.00000    0.00000    1.00000    0.00000    0.22988 1601.37850    0.22988    0.90000    2.64000    0.02023    1.00000  122.09800    0.07050 1430.49380
