~Version ---------------------------------------------------
VERS.   2.0 : CWLS log ASCII Standard -VERSION 2.0
WRAP.    NO : One line per depth step
DLM . SPACE : Column Data Section Delimiter
~Well ------------------------------------------------------
STRT  .m                3170.07250 : START DEPTH
STOP  .m                4229.86230 : STOP DEPTH
STEP  .m                   0.15240 : STEP
NULL  .                    -999.25 : NULL VALUE
COMP  .                            : COMPANY
WELL  .                15-9-19-BT2 : WELL
FLD   .                            : FIELD
LOC   .                            : LOCATION
PROV  .                            : PROVINCE
CNTY  .                            : COUNTY
STAT  .                            : STATE
CTRY  .                            : COUNTRY
SRVC  .                            : SERVICE COMPANY
DATE  . 2025-06-30 19:21:11.016592 : DATE
UWI   .                            : UNIQUE WELL ID
API   .                            : API NUMBER
LIC   .                            : 
LATI  .                            : 
LONG  .                            : 
NS    .                            : 
EW    .                            : 
XCOORD.                            : 
YCOORD.                            : 
GDAT  .                            : 
SECT  .                            : 
RANG  .                            : 
TOWN  .                            : 
~Curve Information -----------------------------------------
DEPTH    .m      : 
DT       .us/ft  : None
GR       .GAPI   : None
NPHI     .v/v    : None
RHOB     .g/cc   : None
RT       .ohm.m  : None
DTS      .us/ft  : None
CARB_FLAG.None   : None
COAL_FLAG.None   : None
SAND_FLAG.None   : None
COAL     .None   : None
BVW      .v/v    : None
KLOGH    .mD     : None
PHIF     .v/v    : None
RHOFL    .None   : None
RHOMA    .None   : None
RW       .None   : None
SW       .v/v    : None
TEMP     .None   : None
VSH      .v/v    : None
KLOGV    .None   : None
~Params ----------------------------------------------------
EKB.      : 
EGL.      : 
KB .      : 
GL .      : 
TD .      : 
TDD.      : 
TDL.      : 
~Other -----------------------------------------------------
~ASCII -----------------------------------------------------
# ...
 3884.82860  100.43960  124.19560    0.31440    2.45800    1.35110  193.06790    0.00000    0.00000    0.00000    0.00000    0.09493    0.00000    0.11478    0.90000    2.66000    0.02105    0.82700  116.49920    1.26300    0.00000
 3884.98100  100.28630  123.72420    0.31230    2.47300    1.50760  193.42720    0.00000    0.00000    0.00000    0.00000    0.09057    0.00000    0.10626    0.90000    2.66000    0.02105    0.85240  116.50270    1.25790    0.00000
 3885.13330  100.05050  121.45700    0.31720    2.47200    1.76030  192.95100    0.00000    0.00000    0.00000    0.00000    0.09375    0.00000    0.10682    0.90000    2.66000    0.02105    0.87760  116.50630    1.23320    0.00000
 3885.28560   99.72270  121.34130    0.32060    2.48100    1.56050  191.96320    0.00000    0.00000    0.00000    0.00000    0.09431    0.00000    0.10171    0.90000    2.66000    0.02105    0.92730  116.50980    1.23200    0.00000
 3885.43800   99.27300  125.31250    0.32560    2.45910    1.51110  191.73250    0.00000    0.00000    0.00000    0.00000    0.09745    0.00000    0.11419    0.90000    2.66000    0.02105    0.85350  116.51340    1.27510    0.00000
 3885.59060   99.01560  127.64090    0.32510    2.46600    1.50900  191.64450    0.00000    0.00000    0.00000    0.00000    0.09953    0.00000    0.11023    0.90000    2.66000    0.02105    0.90290  116.51700    1.30040    0.00000
 3885.74290   98.93220  125.78790    0.33800    2.46000    1.45310  192.42230    0.00000    0.00000    0.00000    0.00000    0.10353    0.00000    0.11363    0.90000    2.66000    0.02105    0.91110  116.52050    1.28030    0.00000
 3885.89530   99.01280  127.17030    0.32550    2.43210    1.29340  192.76730    0.00000    0.00000    0.00000    0.00000    0.10131    0.00000    0.12953    0.90000    2.66000    0.02105    0.78220  116.52410    1.29530    0.00000
 3886.04760   99.51990  122.93420    0.32230    2.42600    1.42070  193.06630    0.00000    0.00000    0.00000    0.00000    0.09586    0.00000    0.13295    0.90000    2.66000    0.02105    0.72100  116.52760    1.24930    0.00000
 3886.20020  100.54970  119.63370    0.31840    2.45190    1.73520  192.94330    0.00000    0.00000    0.00000    0.00000    0.08976    0.00000    0.11820    0.90000    2.66000    0.02105    0.75940  116.53120    1.21340    0.00000
 3886.35250  101.39290  120.11270    0.31390    2.44500    1.91650  192.37950    0.00000    0.00000    0.00000    0.00000    0.09496    0.00000    0.12215    0.90000    2.66000    0.02105    0.77740  116.53470    1.21860    0.00000
 3886.50490  101.58460  105.25310    0.30160    2.42800    1.68860  191.18560    0.00000    0.00000    0.00000    0.00000    0.09771    0.00000    0.13181    0.90000    2.66000    0.02104    0.74130  116.53830    1.05710    0.00000
 3886.65720  101.41640   94.01850    0.27390    2.49580    1.54640  189.66430    0.00000    0.00000    0.00000    0.00000    0.05897    0.00000    0.09323    0.90000    2.66000    0.02104    0.63250  116.54180    0.93500    0.00000
 3886.80980  100.27250   96.00770    0.26100    2.55680    3.91080  187.40890    0.00000    0.00000    0.00000    0.00000    0.04193    0.00000    0.05857    0.90000    2.66000    0.02104    0.71590  116.54540    0.95660    0.00000
 3886.96220   98.18460  110.02510    0.26090    2.54000    9.93920  184.69390    0.00000    0.00000    0.00000    0.00000    0.06817    0.00000    0.06817    0.90000    2.66000    0.02104    1.00000  116.54900    1.10900    0.00000
 3887.11450   94.63670  121.04910    0.29220    2.47020    2.57040  182.51530    0.00000    0.00000    0.00000    0.00000    0.09465    0.00000    0.10790    0.90000    2.66000    0.02104    0.87720  116.55250    1.22880    0.00000
 3887.26680   92.36000  121.50290    0.31740    2.46300    1.58250  181.04820    0.00000    0.00000    0.00000    0.00000    0.09676    0.00000    0.11193    0.90000    2.66000    0.02104    0.86450  116.55610    1.23370    0.00000
 3887.41920   90.74150  123.86180    0.35090    2.47300    1.51320  180.79550    0.00000    0.00000    0.00000    0.00000    0.09485    0.00000    0.10626    0.90000    2.66000    0.02104    0.89270  116.55960    1.25940    0.00000
 3887.57180   90.73400  127.15440    0.34950    2.47100    1.52400  181.48350    0.00000    0.00000    0.00000    0.00000    0.09763    0.00000    0.10738    0.90000    2.66000    0.02104    0.90920  116.56320    1.29520    0.00000
 3887.72410   92.02420  125.33680    0.38780    2.44710    1.45020  183.37090    0.00000    0.00000    0.00000    0.00000    0.10108    0.00000    0.12101    0.90000    2.66000    0.02104    0.83540  116.56670    1.27540    0.00000
 3887.87650   94.80500  126.36290    0.39600    2.44720    1.42010  186.09540    0.00000    0.00000    0.00000    0.00000    0.09651    0.00000    0.12091    0.90000    2.66000    0.02104    0.79810  116.57030    1.28660    0.00000
 3888.02880   98.64460  126.31710    0.34940    2.46790    1.53270  189.95560    0.00000    0.00000    0.00000    0.00000    0.08615    0.00000    0.10911    0.90000    2.66000    0.02104    0.78960  116.57380    1.28610    0.00000
 3888.18140  100.45900  126.15940    0.33770    2.49390    1.77540  192.20910    0.00000    0.00000    0.00000    0.00000    0.08568    0.00000    0.09434    0.90000    2.66000    0.02104    0.90820  116.57740    1.28430    0.00000
 3888.33370  100.96090  120.94370    0.33750    2.49500    1.94260  193.37350    0.00000    0.00000    0.00000    0.00000    0.09375    0.00000    0.09375    0.90000    2.66000    0.02104    1.00000  116.58100    1.22760    0.00000
 3888.48610   99.90130  118.34380    0.33030    2.46710    1.25580  193.46080    0.00000    0.00000    0.00000    0.00000    0.10377    0.00000    0.10964    0.90000    2.66000    0.02104    0.94650  116.58450    1.19940    0.00000
 3888.63840   98.32160  113.94060    0.33770    2.45100    1.19910  193.50270    0.00000    0.00000    0.00000    0.00000    0.10002    0.00000    0.11874    0.90000    2.66000    0.02104    0.84240  116.58810    1.15150    0.00000
 3888.79100   96.00710  106.28310    0.33200    2.49190    1.46130  193.50100    0.00000    0.00000    0.00000    0.00000    0.09549    0.00000    0.09549    0.90000    2.66000    0.02104    1.00000  116.59160    1.06830    0.00000
 3888.94340   94.33370  102.27450    0.33100    2.44810    1.42710  193.38720    0.00000    0.00000    0.00000    0.00000    0.10608    0.00000    0.12042    0.90000    2.66000    0.02104    0.88090  116.59520    1.02470    0.00000
 3889.09570   93.89790  102.30390    0.33120    2.35720    1.26640  193.20140    0.00000    0.00000    0.00000    0.00000    0.11928    0.00000    0.17209    0.90000    2.66000    0.02104    0.69310  116.59870    1.02500    0.00000
 3889.24800   94.26920  110.05660    0.34100    2.36500    1.22610  193.46840    0.00000    0.00000    0.00000    0.00000    0.11962    0.00000    0.16762    0.90000    2.66000    0.02104    0.71360  116.60230    1.10930    0.00000
 3889.40040   96.97540  114.39560    0.36070    2.43080    1.17610  193.63600    0.00000    0.00000    0.00000    0.00000    0.10971    0.00000    0.13016    0.90000    2.66000    0.02103    0.84290  116.60590    1.15650    0.00000
 3889.55300   98.44680  115.84820    0.36250    2.48490    1.21190  193.53220    0.00000    0.00000    0.00000    0.00000    0.09927    0.00000    0.09947    0.90000    2.66000    0.02103    0.99790  116.60940    1.17230    0.00000
 3889.70530   99.53960  117.01790    0.35850    2.49100    1.30770  193.47010    0.00000    0.00000    0.00000    0.00000    0.09344    0.00000    0.09603    0.90000    2.66000    0.02103    0.97310  116.61300    1.18500    0.00000
 3889.85770  100.02990  116.73870    0.33590    2.48900    1.45260  192.91220    0.00000    0.00000    0.00000    0.00000    0.09632    0.00000    0.09716    0.90000    2.66000    0.02103    0.99130  116.61650    1.18190    0.00000
 3890.01000  100.34130  117.26360    0.33000    2.48400    1.40610  192.66650    0.00000    0.00000    0.00000    0.00000    0.10000    0.00000    0.10000    0.90000    2.66000    0.02103    1.00000  116.62010    1.18760    0.00000
