~Version ---------------------------------------------------
VERS.   2.0 : CWLS log ASCII Standard -VERSION 2.0
WRAP.    NO : One line per depth step
DLM . SPACE : Column Data Section Delimiter
~Well ------------------------------------------------------
STRT  .m                3170.07250 : START DEPTH
STOP  .m                4229.86230 : STOP DEPTH
STEP  .m                   0.15240 : STEP
NULL  .                    -999.25 : NULL VALUE
COMP  .                            : COMPANY
WELL  .                15-9-19-BT2 : WELL
FLD   .                            : FIELD
LOC   .                            : LOCATION
PROV  .                            : PROVINCE
CNTY  .                            : COUNTY
STAT  .                            : STATE
CTRY  .                            : COUNTRY
SRVC  .                            : SERVICE COMPANY
DATE  . 2025-06-30 19:21:11.016592 : DATE
UWI   .                            : UNIQUE WELL ID
API   .                            : API NUMBER
LIC   .                            : 
LATI  .                            : 
LONG  .                            : 
NS    .                            : 
EW    .                            : 
XCOORD.                            : 
YCOORD.                            : 
GDAT  .                            : 
SECT  .                            : 
RANG  .                            : 
TOWN  .                            : 
~Curve Information -----------------------------------------
DEPTH    .m      : 
DT       .us/ft  : None
GR       .GAPI   : None
NPHI     .v/v    : None
RHOB     .g/cc   : None
RT       .ohm.m  : None
DTS      .us/ft  : None
CARB_FLAG.None   : None
COAL_FLAG.None   : None
SAND_FLAG.None   : None
COAL     .None   : None
BVW      .v/v    : None
KLOGH    .mD     : None
PHIF     .v/v    : None
RHOFL    .None   : None
RHOMA    .None   : None
RW       .None   : None
SW       .v/v    : None
TEMP     .None   : None
VSH      .v/v    : None
KLOGV    .None   : None
~Params ----------------------------------------------------
EKB.      : 
EGL.      : 
KB .      : 
GL .      : 
TD .      : 
TDD.      : 
TDL.      : 
~Other -----------------------------------------------------
~ASCII -----------------------------------------------------
# ...
 3826.15450  102.30240  122.64640    0.32100    2.45400    1.96470  193.71090    0.00000    0.00000    0.00000    0.00000    0.08786    0.00000    0.11705    0.90000    2.66000    0.02126    0.75060  115.13530    1.24620    0.00000
 3826.30690  102.60040  122.82950    0.32470    2.44500    1.98690  193.91060    0.00000    0.00000    0.00000    0.00000    0.08481    0.00000    0.12215    0.90000    2.66000    0.02126    0.69430  115.13880    1.24810    0.00000
 3826.45920  103.13390  128.68560    0.32020    2.45900    2.13760  194.15250    0.00000    0.00000    0.00000    0.00000    0.08184    0.00000    0.11421    0.90000    2.66000    0.02126    0.71660  115.14230    1.31180    0.00000
 3826.61180  103.36850  122.11430    0.32660    2.43510    2.35240  194.27870    0.00000    0.00000    0.00000    0.00000    0.08763    0.00000    0.12782    0.90000    2.66000    0.02126    0.68560  115.14590    1.24040    0.00000
 3826.76420  103.42190  121.04680    0.31300    2.40810    2.22630  194.39080    0.00000    0.00000    0.00000    0.00000    0.09410    0.00000    0.14316    0.90000    2.66000    0.02126    0.65730  115.14940    1.22880    0.00000
 3826.91650  103.20330  122.32660    0.32640    2.45090    1.95070  194.20710    0.00000    0.00000    0.00000    0.00000    0.09266    0.00000    0.11878    0.90000    2.66000    0.02126    0.78010  115.15290    1.24270    0.00000
 3827.06880  102.73500  117.33410    0.33720    2.45000    1.81340  194.08330    0.00000    0.00000    0.00000    0.00000    0.09277    0.00000    0.11932    0.90000    2.66000    0.02126    0.77750  115.15650    1.18840    0.00000
 3827.22120  101.81790  122.49840    0.33550    2.45300    1.75910  193.72180    0.00000    0.00000    0.00000    0.00000    0.09078    0.00000    0.11762    0.90000    2.66000    0.02126    0.77180  115.16000    1.24450    0.00000
 3827.37380  101.20930  124.73910    0.30920    2.44300    1.80890  192.62030    0.00000    0.00000    0.00000    0.00000    0.08816    0.00000    0.12329    0.90000    2.66000    0.02126    0.71510  115.16350    1.26890    0.00000
 3827.52610  101.06430  121.74490    0.31500    2.43300    1.99050  191.89750    0.00000    0.00000    0.00000    0.00000    0.08363    0.00000    0.12897    0.90000    2.66000    0.02126    0.64850  115.16710    1.23640    0.00000
 3827.67850  101.44870  120.56210    0.31400    2.44200    2.21440  191.01230    0.00000    0.00000    0.00000    0.00000    0.07518    0.00000    0.12387    0.90000    2.66000    0.02126    0.60690  115.17060    1.22350    0.00000
 3827.83080  101.61760  122.61260    0.29560    2.46390    2.72570  191.14670    0.00000    0.00000    0.00000    0.00000    0.07289    0.00000    0.11138    0.90000    2.66000    0.02125    0.65440  115.17410    1.24580    0.00000
 3827.98340  101.89240  124.35840    0.32030    2.42610    3.05010  191.49230    0.00000    0.00000    0.00000    0.00000    0.07869    0.00000    0.13293    0.90000    2.66000    0.02125    0.59200  115.17770    1.26480    0.00000
 3828.13570  102.01970  126.71680    0.32490    2.45190    3.05300  191.91010    0.00000    0.00000    0.00000    0.00000    0.08887    0.00000    0.11820    0.90000    2.66000    0.02125    0.75180  115.18120    1.29040    0.00000
 3828.28810  102.15670  129.45480    0.30570    2.43110    2.81860  192.06970    0.00000    0.00000    0.00000    0.00000    0.09971    0.00000    0.13010    0.90000    2.66000    0.02125    0.76640  115.18470    1.32020    0.00000
 3828.44040  102.06360  119.53710    0.32430    2.42400    2.13980  191.82950    0.00000    0.00000    0.00000    0.00000    0.08800    0.00000    0.13409    0.90000    2.66000    0.02125    0.65630  115.18830    1.21240    0.00000
 3828.59300  101.97520  122.42430    0.33380    2.41900    1.56150  191.30610    0.00000    0.00000    0.00000    0.00000    0.07360    0.00000    0.13693    0.90000    2.66000    0.02125    0.53750  115.19180    1.24370    0.00000
 3828.74540  101.81730  112.73850    0.32440    2.41100    1.77340  190.41590    0.00000    0.00000    0.00000    0.00000    0.07195    0.00000    0.14147    0.90000    2.66000    0.02125    0.50860  115.19530    1.13850    0.00000
 3828.89770  101.72920  113.88590    0.29860    2.42800    3.43260  189.95500    0.00000    0.00000    0.00000    0.00000    0.06922    0.00000    0.13183    0.90000    2.66000    0.02125    0.52510  115.19890    1.15090    0.00000
 3829.05000  101.55240  118.02710    0.30740    2.39510    3.65440  189.75340    0.00000    0.00000    0.00000    0.00000    0.07207    0.00000    0.15054    0.90000    2.66000    0.02125    0.47880  115.20240    1.19590    0.00000
 3829.20240  101.25880  124.15290    0.34500    2.42290    3.87340  189.61980    0.00000    0.00000    0.00000    0.00000    0.07268    0.00000    0.13468    0.90000    2.66000    0.02125    0.53970  115.20590    1.26250    0.00000
 3829.35500  100.63230  133.67500    0.34930    2.39610    3.86400  189.17200    0.00000    0.00000    0.00000    0.00000    0.07630    0.00000    0.14998    0.90000    2.66000    0.02125    0.50870  115.20950    1.36600    0.00000
 3829.50730  100.17500  120.86980    0.36500    2.42590    3.50290  188.53040    0.00000    0.00000    0.00000    0.00000    0.07057    0.00000    0.13298    0.90000    2.66000    0.02125    0.53070  115.21300    1.22680    0.00000
 3829.65970   99.67710  121.29680    0.34460    2.43100    3.26060  187.74570    0.00000    0.00000    0.00000    0.00000    0.06968    0.00000    0.13012    0.90000    2.66000    0.02125    0.53550  115.21650    1.23150    0.00000
 3829.81200   99.51140  120.95690    0.31940    2.46890    3.69880  187.21110    0.00000    0.00000    0.00000    0.00000    0.06762    0.00000    0.10855    0.90000    2.66000    0.02125    0.62290  115.22010    1.22780    0.00000
 3829.96460   99.48520  120.43940    0.30760    2.47700    3.82470  187.14440    0.00000    0.00000    0.00000    0.00000    0.06812    0.00000    0.10398    0.90000    2.66000    0.02125    0.65510  115.22360    1.22220    0.00000
 3830.11690   99.62170  120.91370    0.32900    2.47700    3.63150  187.69480    0.00000    0.00000    0.00000    0.00000    0.06895    0.00000    0.10398    0.90000    2.66000    0.02125    0.66310  115.22710    1.22730    0.00000
 3830.26930   99.94830  129.23510    0.28580    2.46000    3.48440  188.66890    0.00000    0.00000    0.00000    0.00000    0.07148    0.00000    0.11362    0.90000    2.66000    0.02125    0.62910  115.23070    1.31780    0.00000
 3830.42160  100.49880  139.04320    0.31540    2.43610    3.37330  190.00820    0.00000    0.00000    0.00000    0.00000    0.07498    0.00000    0.12726    0.90000    2.66000    0.02125    0.58920  115.23420    1.42440    0.00000
 3830.57420  101.58870  136.58650    0.34280    2.46290    3.23440  191.29130    0.00000    0.00000    0.00000    0.00000    0.08011    0.00000    0.11195    0.90000    2.66000    0.02124    0.71560  115.23770    1.39770    0.00000
 3830.72660  102.00250  136.58300    0.33430    2.42610    3.20610  191.94800    0.00000    0.00000    0.00000    0.00000    0.09040    0.00000    0.13293    0.90000    2.66000    0.02124    0.68010  115.24130    1.39760    0.00000
 3830.87890  101.87930  135.31730    0.31470    2.44990    2.84590  192.29330    0.00000    0.00000    0.00000    0.00000    0.08713    0.00000    0.11934    0.90000    2.66000    0.02124    0.73010  115.24480    1.38390    0.00000
 3831.03120  101.17550  135.36090    0.33770    2.45300    2.06610  192.58040    0.00000    0.00000    0.00000    0.00000    0.07943    0.00000    0.11762    0.90000    2.66000    0.02124    0.67530  115.24830    1.38440    0.00000
 3831.18360  100.62520  132.87160    0.34350    2.43010    2.08790  193.10090    0.00000    0.00000    0.00000    0.00000    0.08169    0.00000    0.13067    0.90000    2.66000    0.02124    0.62520  115.25190    1.35730    0.00000
 3831.33620  100.66290  133.38860    0.37390    2.47290    2.49490  194.08090    0.00000    0.00000    0.00000    0.00000    0.07918    0.00000    0.10628    0.90000    2.66000    0.02124    0.74500  115.25540    1.36290    0.00000
