~Version ---------------------------------------------------
VERS.   2.0 : CWLS log ASCII Standard -VERSION 2.0
WRAP.    NO : One line per depth step
DLM . SPACE : Column Data Section Delimiter
~Well ------------------------------------------------------
STRT  .m                3170.07250 : START DEPTH
STOP  .m                4229.86230 : STOP DEPTH
STEP  .m                   0.15240 : STEP
NULL  .                    -999.25 : NULL VALUE
COMP  .                            : COMPANY
WELL  .                15-9-19-BT2 : WELL
FLD   .                            : FIELD
LOC   .                            : LOCATION
PROV  .                            : PROVINCE
CNTY  .                            : COUNTY
STAT  .                            : STATE
CTRY  .                            : COUNTRY
SRVC  .                            : SERVICE COMPANY
DATE  . 2025-06-30 19:21:11.016592 : DATE
UWI   .                            : UNIQUE WELL ID
API   .                            : API NUMBER
LIC   .                            : 
LATI  .                            : 
LONG  .                            : 
NS    .                            : 
EW    .                            : 
XCOORD.                            : 
YCOORD.                            : 
GDAT  .                            : 
SECT  .                            : 
RANG  .                            : 
TOWN  .                            : 
~Curve Information -----------------------------------------
DEPTH    .m      : 
DT       .us/ft  : None
GR       .GAPI   : None
NPHI     .v/v    : None
RHOB     .g/cc   : None
RT       .ohm.m  : None
DTS      .us/ft  : None
CARB_FLAG.None   : None
COAL_FLAG.None   : None
SAND_FLAG.None   : None
COAL     .None   : None
BVW      .v/v    : None
KLOGH    .mD     : None
PHIF     .v/v    : None
RHOFL    .None   : None
RHOMA    .None   : None
RW       .None   : None
SW       .v/v    : None
TEMP     .None   : None
VSH      .v/v    : None
KLOGV    .None   : None
~Params ----------------------------------------------------
EKB.      : 
EGL.      : 
KB .      : 
GL .      : 
TD .      : 
TDD.      : 
TDL.      : 
~Other -----------------------------------------------------
~ASCII -----------------------------------------------------
# ...
 3975.50660   91.49670  100.89130    0.29270    2.46700    0.66580  177.08620    0.00000    0.00000    0.00000    0.00000    0.10967    0.00000    0.10967    0.90000    2.66000    0.02073    1.00000  118.62000    1.00970    0.00000
 3975.65890   92.99160   97.32240    0.29090    2.41610    0.63110  179.86660    0.00000    0.00000    0.00000    0.00000    0.13860    0.00000    0.13860    0.90000    2.66000    0.02073    1.00000  118.62360    0.97090    0.00000
 3975.81130   93.90790   95.46980    0.30040    2.37810    1.07380  180.92860    0.00000    0.00000    0.00000    0.00000    0.13150    0.00000    0.16020    0.90000    2.66000    0.02073    0.82090  118.62720    0.95080    0.00000
 3975.96360   94.55550   92.98550    0.30280    2.46580    1.41610  181.54160    0.00000    0.00000    0.00000    0.00000    0.11029    0.00000    0.11029    0.90000    2.66000    0.02073    1.00000  118.63080    0.92380    0.00000
 3976.11620   94.20380   92.16910    0.29650    2.50290    1.63340  180.76680    0.00000    0.00000    0.00000    0.00000    0.08923    0.00000    0.08923    0.90000    2.66000    0.02073    1.00000  118.63430    0.91490    0.00000
 3976.26860   93.12370   91.30930    0.27130    2.49100    1.66790  179.77910    0.00000    0.00000    0.00000    0.00000    0.09601    0.00000    0.09601    0.90000    2.66000    0.02073    1.00000  118.63790    0.90550    0.00000
 3976.42090   91.85190   94.15850    0.28330    2.54090    1.32890  178.59270    0.00000    0.00000    0.00000    0.00000    0.06765    0.00000    0.06765    0.90000    2.66000    0.02073    1.00000  118.64150    0.93650    0.00000
 3976.57320   90.65870   97.67080    0.27590    2.48710    1.31700  177.84470    0.00000    0.00000    0.00000    0.00000    0.09825    0.00000    0.09825    0.90000    2.66000    0.02073    1.00000  118.64510    0.97470    0.00000
 3976.72580   90.18110   99.29580    0.28390    2.47900    1.25220  177.51180    0.00000    0.00000    0.00000    0.00000    0.10283    0.00000    0.10283    0.90000    2.66000    0.02073    1.00000  118.64860    0.99230    0.00000
 3976.87820   90.40450   96.37370    0.28050    2.47500    1.31280  177.76240    0.00000    0.00000    0.00000    0.00000    0.10511    0.00000    0.10511    0.90000    2.66000    0.02073    1.00000  118.65220    0.96060    0.00000
 3977.03050   90.85420   96.38100    0.27320    2.49490    1.63420  177.55930    0.00000    0.00000    0.00000    0.00000    0.09377    0.00000    0.09377    0.90000    2.66000    0.02073    1.00000  118.65580    0.96070    0.00000
 3977.18290   91.62520   99.12880    0.27910    2.52290    1.56120  177.47420    0.00000    0.00000    0.00000    0.00000    0.07786    0.00000    0.07786    0.90000    2.66000    0.02073    1.00000  118.65940    0.99050    0.00000
 3977.33520   91.32970   96.95180    0.27230    2.48510    1.51710  177.36720    0.00000    0.00000    0.00000    0.00000    0.09940    0.00000    0.09940    0.90000    2.66000    0.02073    1.00000  118.66290    0.96690    0.00000
 3977.48780   91.10550   97.30900    0.28470    2.48000    1.37940  177.57650    0.00000    0.00000    0.00000    0.00000    0.10227    0.00000    0.10227    0.90000    2.66000    0.02073    1.00000  118.66650    0.97080    0.00000
 3977.64010   91.01520   99.18310    0.28240    2.44910    1.36900  178.13470    0.00000    0.00000    0.00000    0.00000    0.11986    0.00000    0.11986    0.90000    2.66000    0.02072    1.00000  118.67010    0.99110    0.00000
 3977.79250   91.34000   97.65500    0.27290    2.44600    1.12760  178.32380    0.00000    0.00000    0.00000    0.00000    0.12159    0.00000    0.12159    0.90000    2.66000    0.02072    1.00000  118.67360    0.97450    0.00000
 3977.94480   92.15510   95.99240    0.27460    2.45300    1.01530  178.30900    0.00000    0.00000    0.00000    0.00000    0.11762    0.00000    0.11762    0.90000    2.66000    0.02072    1.00000  118.67720    0.95640    0.00000
 3978.09740   92.50220   99.33020    0.27100    2.46500    1.06490  177.89400    0.00000    0.00000    0.00000    0.00000    0.11080    0.00000    0.11080    0.90000    2.66000    0.02072    1.00000  118.68080    0.99270    0.00000
 3978.24980   92.69460   97.46390    0.26900    2.49190    1.25350  177.12880    0.00000    0.00000    0.00000    0.00000    0.09548    0.00000    0.09548    0.90000    2.66000    0.02072    1.00000  118.68440    0.97240    0.00000
 3978.40210   92.08840   98.06940    0.26940    2.47800    1.18620  176.50040    0.00000    0.00000    0.00000    0.00000    0.10340    0.00000    0.10340    0.90000    2.66000    0.02072    1.00000  118.68800    0.97900    0.00000
 3978.55440   91.93400   96.97090    0.26240    2.47800    1.30570  176.49500    0.00000    0.00000    0.00000    0.00000    0.10341    0.00000    0.10341    0.90000    2.66000    0.02072    1.00000  118.69150    0.96710    0.00000
 3978.70700   92.17350   93.99880    0.27820    2.47100    1.37880  176.68560    0.00000    0.00000    0.00000    0.00000    0.10738    0.00000    0.10738    0.90000    2.66000    0.02072    1.00000  118.69510    0.93480    0.00000
 3978.85940   92.10320   93.87730    0.26280    2.47200    1.38800  176.78380    0.00000    0.00000    0.00000    0.00000    0.10682    0.00000    0.10682    0.90000    2.66000    0.02072    1.00000  118.69870    0.93340    0.00000
 3979.01170   92.17480   94.80260    0.26350    2.46500    1.37900  176.84190    0.00000    0.00000    0.00000    0.00000    0.11079    0.00000    0.11079    0.90000    2.66000    0.02072    1.00000  118.70220    0.94350    0.00000
 3979.16410   92.09920   95.38950    0.27880    2.46700    1.32910  176.73830    0.00000    0.00000    0.00000    0.00000    0.10966    0.00000    0.10966    0.90000    2.66000    0.02072    1.00000  118.70580    0.94990    0.00000
 3979.31640   92.13380   95.22940    0.27950    2.48300    1.28010  176.83040    0.00000    0.00000    0.00000    0.00000    0.10058    0.00000    0.10058    0.90000    2.66000    0.02072    1.00000  118.70940    0.94810    0.00000
 3979.46900   92.05820   97.12400    0.26180    2.47300    1.33980  177.17620    0.00000    0.00000    0.00000    0.00000    0.10624    0.00000    0.10624    0.90000    2.66000    0.02072    1.00000  118.71300    0.96870    0.00000
 3979.62130   92.15680   96.28220    0.27720    2.47500    1.33900  177.68280    0.00000    0.00000    0.00000    0.00000    0.10512    0.00000    0.10512    0.90000    2.66000    0.02072    1.00000  118.71660    0.95960    0.00000
 3979.77370   92.42940   95.50300    0.26700    2.44410    1.32900  177.78970    0.00000    0.00000    0.00000    0.00000    0.12270    0.00000    0.12270    0.90000    2.66000    0.02072    1.00000  118.72010    0.95110    0.00000
 3979.92600   92.33720   93.96010    0.27040    2.39810    1.32100  177.61340    0.00000    0.00000    0.00000    0.00000    0.13307    0.00000    0.14883    0.90000    2.66000    0.02072    0.89410  118.72370    0.93430    0.00000
 3980.07860   92.04580   91.64310    0.27690    2.48580    1.24620  177.01970    0.00000    0.00000    0.00000    0.00000    0.09893    0.00000    0.09893    0.90000    2.66000    0.02072    1.00000  118.72730    0.90920    0.00000
 3980.23100   91.36660   94.36680    0.28490    2.45210    1.34470  175.80680    0.00000    0.00000    0.00000    0.00000    0.11816    0.00000    0.11816    0.90000    2.66000    0.02072    1.00000  118.73080    0.93880    0.00000
 3980.38330   91.25330   95.59680    0.28200    2.49690    1.44770  174.06200    0.00000    0.00000    0.00000    0.00000    0.09265    0.00000    0.09265    0.90000    2.66000    0.02072    1.00000  118.73440    0.95210    0.00000
 3980.53560   91.28990   90.23410    0.28500    2.49200    1.21560  173.05430    0.00000    0.00000    0.00000    0.00000    0.09545    0.00000    0.09545    0.90000    2.66000    0.02071    1.00000  118.73800    0.89380    0.00000
 3980.68800   91.69010   94.17360    0.26800    2.47900    1.19510  172.98520    0.00000    0.00000    0.00000    0.00000    0.10283    0.00000    0.10283    0.90000    2.66000    0.02071    1.00000  118.74160    0.93670    0.00000
