~Version ---------------------------------------------------
VERS.   2.0 : CWLS log ASCII Standard -VERSION 2.0
WRAP.    NO : One line per depth step
DLM . SPACE : Column Data Section Delimiter
~Well ------------------------------------------------------
STRT  .m                3170.07250 : START DEPTH
STOP  .m                4229.86230 : STOP DEPTH
STEP  .m                   0.15240 : STEP
NULL  .                    -999.25 : NULL VALUE
COMP  .                            : COMPANY
WELL  .                15-9-19-BT2 : WELL
FLD   .                            : FIELD
LOC   .                            : LOCATION
PROV  .                            : PROVINCE
CNTY  .                            : COUNTY
STAT  .                            : STATE
CTRY  .                            : COUNTRY
SRVC  .                            : SERVICE COMPANY
DATE  . 2025-06-30 19:21:11.016592 : DATE
UWI   .                            : UNIQUE WELL ID
API   .                            : API NUMBER
LIC   .                            : 
LATI  .                            : 
LONG  .                            : 
NS    .                            : 
EW    .                            : 
XCOORD.                            : 
YCOORD.                            : 
GDAT  .                            : 
SECT  .                            : 
RANG  .                            : 
TOWN  .                            : 
~Curve Information -----------------------------------------
DEPTH    .m      : 
DT       .us/ft  : None
GR       .GAPI   : None
NPHI     .v/v    : None
RHOB     .g/cc   : None
RT       .ohm.m  : None
DTS      .us/ft  : None
CARB_FLAG.None   : None
COAL_FLAG.None   : None
SAND_FLAG.None   : None
COAL     .None   : None
BVW      .v/v    : None
KLOGH    .mD     : None
PHIF     .v/v    : None
RHOFL    .None   : None
RHOMA    .None   : None
RW       .None   : None
SW       .v/v    : None
TEMP     .None   : None
VSH      .v/v    : None
KLOGV    .None   : None
~Params ----------------------------------------------------
EKB.      : 
EGL.      : 
KB .      : 
GL .      : 
TD .      : 
TDD.      : 
TDL.      : 
~Other -----------------------------------------------------
~ASCII -----------------------------------------------------
# ...
 3767.48050   75.04840   75.86400    0.16680    2.61410    3.93670  150.48320    -999.25    -999.25    -999.25    0.00000    -999.25    -999.25    -999.25    -999.25    -999.25    -999.25    -999.25    -999.25    -999.25    -999.25
 3767.63280   75.75560   70.68060    0.18740    2.63000    2.74310  149.63370    -999.25    -999.25    -999.25    0.00000    -999.25    -999.25    -999.25    -999.25    -999.25    -999.25    -999.25    -999.25    -999.25    -999.25
 3767.78540   76.48150   69.67160    0.19510    2.64300    1.57510  151.26070    -999.25    -999.25    -999.25    0.00000    -999.25    -999.25    -999.25    -999.25    -999.25    -999.25    -999.25    -999.25    -999.25    -999.25
 3767.93770   77.10070   69.34290    0.17520    2.62110    1.56600  153.28990    -999.25    -999.25    -999.25    0.00000    -999.25    -999.25    -999.25    -999.25    -999.25    -999.25    -999.25    -999.25    -999.25    -999.25
 3768.09010   77.20380   68.81140    0.16970    2.59910    1.92610  153.93670    0.00000    0.00000    0.00000    0.00000    0.03464    0.00020    0.03464    0.90000    2.66000    0.02147    1.00000  113.79160    0.66100    0.00010
 3768.24240   76.96040   71.89890    0.17630    2.60200    2.01480  153.69540    0.00000    0.00000    0.00000    0.00000    0.03296    0.00010    0.03296    0.90000    2.66000    0.02147    1.00000  113.79510    0.69460    0.00000
 3768.39500   76.63670   79.87000    0.17080    2.64090    1.96010  154.49440    0.00000    0.00000    0.00000    0.00000    0.01082    0.00000    0.01082    0.90000    2.66000    0.02147    1.00000  113.79860    0.78120    0.00000
 3768.54740   77.18990   92.22150    0.18810    2.63000    1.91510  159.30910    0.00000    0.00000    0.00000    0.00000    0.01704    0.00000    0.01704    0.90000    2.66000    0.02147    1.00000  113.80220    0.91550    0.00000
 3768.69970   79.54320   95.81560    0.21960    2.58210    2.32090  167.99620    0.00000    0.00000    0.00000    0.00000    0.04428    0.00000    0.04428    0.90000    2.66000    0.02147    1.00000  113.80570    0.95450    0.00000
 3768.85210   84.22240  137.62400    0.24900    2.55110    2.42570  179.53740    0.00000    0.00000    0.00000    0.00000    0.06191    0.00000    0.06191    0.90000    2.66000    0.02147    1.00000  113.80920    1.40900    0.00000
 3769.00440   90.34250  194.54650    0.24420    2.55100    2.22350  189.98680    0.00000    0.00000    0.00000    0.00000    0.06193    0.00000    0.06193    0.90000    2.66000    0.02147    1.00000  113.81270    2.02770    0.00000
 3769.15700   96.82170  215.10430    0.27340    2.35650    1.88590  200.37280    0.00000    0.00000    0.00000    0.00000    0.10027    0.00000    0.17258    0.90000    2.66000    0.02147    0.58100  113.81620    2.25110    0.00000
 3769.30930  106.03410  215.80330    0.62970    2.19740    1.60370  215.07590    0.00000    0.00000    0.00000    0.00000    0.10928    0.00000    0.26295    0.90000    2.66000    0.02147    0.41560  113.81980    2.25870    0.00000
 3769.46170  111.95790  221.80520    0.78580    2.25580    1.77450  225.90990    0.00000    0.00000    0.00000    0.00000    0.09975    0.00000    0.22959    0.90000    2.66000    0.02147    0.43450  113.82330    2.32400    0.00000
 3769.61400  113.88910  229.03700    0.59230    2.26300    2.00340  237.16500    0.00000    0.00000    0.00000    0.00000    0.08840    0.00000    0.22557    0.90000    2.66000    0.02147    0.39190  113.82680    2.40260    0.00000
 3769.76660  111.09270  219.71660    0.57030    2.25300    2.08980  243.22400    0.00000    0.00000    0.00000    0.00000    0.08278    0.00000    0.23124    0.90000    2.66000    0.02147    0.35800  113.83030    2.30130    0.00000
 3769.91890  116.23040  209.28640    0.53310    2.25700    2.98560  247.81660    0.00000    0.00000    0.00000    0.00000    0.07987    0.00000    0.22898    0.90000    2.66000    0.02147    0.34880  113.83380    2.18790    0.00000
 3770.07130  116.82680  203.03640    0.49650    2.23210    3.38790  245.94090    0.00000    0.00000    0.00000    0.00000    0.08555    0.00000    0.24316    0.90000    2.66000    0.02146    0.35180  113.83730    2.12000    0.00000
 3770.22360  117.20720  201.64560    0.47230    2.18310    3.99640  240.30060    0.00000    0.00000    0.00000    0.00000    0.09306    0.00000    0.27099    0.90000    2.66000    0.02146    0.34340  113.84090    2.10480    0.00000
 3770.37620  113.28210  199.84930    0.49680    2.21460    3.86250  228.26260    0.00000    0.00000    0.00000    0.00000    0.08311    0.00000    0.25302    0.90000    2.66000    0.02146    0.32850  113.84440    2.08530    0.00000
 3770.52860  115.39530  198.57240    0.46900    2.32370    2.97630  216.18590    0.00000    0.00000    0.00000    0.00000    0.07145    0.00000    0.19099    0.90000    2.66000    0.02146    0.37410  113.84790    2.07140    0.00000
 3770.68090  114.31720  164.19150    0.42350    2.36590    3.23130  210.57050    0.00000    0.00000    0.00000    0.00000    0.07571    0.00000    0.16708    0.90000    2.66000    0.02146    0.45310  113.85140    1.69770    0.00000
 3770.83330  114.39280  137.09510    0.43180    2.35800    4.69120  211.07300    0.00000    0.00000    0.00000    0.00000    0.08305    0.00000    0.17158    0.90000    2.66000    0.02146    0.48400  113.85490    1.40320    0.00000
 3770.98560  111.35820  141.55910    0.39320    2.41580    3.54000  215.23150    0.00000    0.00000    0.00000    0.00000    0.07644    0.00000    0.13868    0.90000    2.66000    0.02146    0.55120  113.85850    1.45170    0.00000
 3771.13820  108.30920  154.40120    0.34540    2.38710    2.97550  207.14560    0.00000    0.00000    0.00000    0.00000    0.06644    0.00000    0.15509    0.90000    2.66000    0.02146    0.42840  113.86200    1.59130    0.00000
 3771.29050  104.80990  161.06160    0.29170    2.30120    3.18840  199.14070    0.00000    0.00000    0.00000    0.00000    0.06532    0.00000    0.20391    0.90000    2.66000    0.02146    0.32040  113.86550    1.66370    0.00000
 3771.44290  100.45390  128.56860    0.27160    2.33090    4.04770  189.51770    0.00000    0.00000    0.00000    0.00000    0.07654    0.00000    0.18695    0.90000    2.66000    0.02146    0.40940  113.86900    1.31050    0.00000
 3771.59520   94.39140   95.61550    0.29010    2.47360    6.01680  178.45360    0.35360    0.00000    0.00000    0.00000    0.06615    0.00000    0.10579    0.90000    2.66000    0.02146    0.62530  113.87250    0.95230    0.00000
 3771.74780   86.89140   66.72980    0.23390    2.52890    4.22670  173.15380    1.00000    0.00000    0.00000    0.00000    0.05431    0.00110    0.10004    0.90000    2.71000    0.02146    0.54290  113.87610    0.63840    0.00040
 3771.90010   79.94720   45.13260    0.13490    2.51700    3.77920  174.20380    1.00000    0.00000    0.00000    0.00000    0.04108    0.16610    0.10662    0.90000    2.71000    0.02146    0.38530  113.87960    0.40360    0.08430
 3772.05250   82.77900   49.01260    0.10660    2.56190    4.81730  184.93700    1.00000    0.00000    0.00000    0.00000    0.03570    0.04390    0.08180    0.90000    2.71000    0.02146    0.43650  113.88310    0.44580    0.02050
 3772.20480   94.25840  108.78070    0.11530    2.46430   12.06290  203.60770    0.76960    0.00000    0.00000    0.00000    0.04187    0.00000    0.13762    0.90000    2.71000    0.02146    0.30420  113.88660    1.09540    0.00000
 3772.35740  109.59650  145.00810    0.21690    2.31740   14.66420  215.91880    0.00000    0.00000    0.00000    0.00000    0.04660    0.00000    0.19478    0.90000    2.66000    0.02146    0.23920  113.89010    1.48920    0.00000
 3772.50980  115.73450  147.81490    0.33500    2.29010   13.79630  223.18220    0.00000    0.00000    0.00000    0.00000    0.06139    0.00000    0.21021    0.90000    2.66000    0.02146    0.29210  113.89360    1.51970    0.00000
 3772.66210  116.35380  161.27260    0.28660    2.31190   13.72820  235.08160    0.00000    0.00000    0.00000    0.00000    0.09843    0.00000    0.19774    0.90000    2.66000    0.02146    0.49770  113.89720    1.66600    0.00000
