~Version ---------------------------------------------------
VERS.   2.0 : CWLS log ASCII Standard -VERSION 2.0
WRAP.    NO : One line per depth step
DLM . SPACE : Column Data Section Delimiter
~Well ------------------------------------------------------
STRT  .m                3170.07250 : START DEPTH
STOP  .m                4229.86230 : STOP DEPTH
STEP  .m                   0.15240 : STEP
NULL  .                    -999.25 : NULL VALUE
COMP  .                            : COMPANY
WELL  .                15-9-19-BT2 : WELL
FLD   .                            : FIELD
LOC   .                            : LOCATION
PROV  .                            : PROVINCE
CNTY  .                            : COUNTY
STAT  .                            : STATE
CTRY  .                            : COUNTRY
SRVC  .                            : SERVICE COMPANY
DATE  . 2025-06-30 19:21:11.016592 : DATE
UWI   .                            : UNIQUE WELL ID
API   .                            : API NUMBER
LIC   .                            : 
LATI  .                            : 
LONG  .                            : 
NS    .                            : 
EW    .                            : 
XCOORD.                            : 
YCOORD.                            : 
GDAT  .                            : 
SECT  .                            : 
RANG  .                            : 
TOWN  .                            : 
~Curve Information -----------------------------------------
DEPTH    .m      : 
DT       .us/ft  : None
GR       .GAPI   : None
NPHI     .v/v    : None
RHOB     .g/cc   : None
RT       .ohm.m  : None
DTS      .us/ft  : None
CARB_FLAG.None   : None
COAL_FLAG.None   : None
SAND_FLAG.None   : None
COAL     .None   : None
BVW      .v/v    : None
KLOGH    .mD     : None
PHIF     .v/v    : None
RHOFL    .None   : None
RHOMA    .None   : None
RW       .None   : None
SW       .v/v    : None
TEMP     .None   : None
VSH      .v/v    : None
KLOGV    .None   : None
~Params ----------------------------------------------------
EKB.      : 
EGL.      : 
KB .      : 
GL .      : 
TD .      : 
TDD.      : 
TDL.      : 
~Other -----------------------------------------------------
~ASCII -----------------------------------------------------
# ...
 4060.85060   81.66950   22.61070    0.19980    2.23200    0.30700  136.88420    0.00000    0.00000    1.00000    0.00000    0.22960  286.67230    0.23584    0.90000    2.66000    0.02044    0.97350  120.62620    0.15880  230.32090
 4061.00290   81.77770   23.87370    0.20840    2.25000    0.31400  136.80820    0.00000    0.00000    1.00000    0.00000    0.23317  205.33290    0.23317    0.90000    2.66000    0.02044    1.00000  120.62970    0.17250  161.61230
 4061.15530   81.70120   22.05880    0.20280    2.25100    0.30400  137.24890    0.00000    0.00000    1.00000    0.00000    0.23053  294.38130    0.23053    0.90000    2.66000    0.02044    1.00000  120.63330    0.15280  236.90170
 4061.30760   82.02120   20.63070    0.20730    2.23900    0.26010  138.00020    0.00000    0.00000    1.00000    0.00000    0.23645  452.90840    0.23645    0.90000    2.66000    0.02044    1.00000  120.63690    0.13730  374.28230
 4061.46020   82.33920   19.95480    0.20490    2.22600    0.25200  138.71530    0.00000    0.00000    1.00000    0.00000    0.22890  562.05890    0.23991    0.90000    2.66000    0.02044    0.95410  120.64040    0.12990  470.70610
 4061.61250   82.87260   20.50350    0.19500    2.23400    0.25200  139.33010    0.00000    0.00000    1.00000    0.00000    0.23026  439.08190    0.23322    0.90000    2.66000    0.02044    0.98730  120.64400    0.13590  362.16350
 4061.76490   83.21620   20.44220    0.19900    2.23200    0.28590  140.02930    0.00000    0.00000    1.00000    0.00000    0.23551  464.40530    0.23551    0.90000    2.66000    0.02044    1.00000  120.64760    0.13520  384.37670
 4061.91720   83.52930   22.45770    0.20830    2.19110    0.28700  140.69340    0.00000    0.00000    1.00000    0.00000    0.23617  298.54060    0.23617    0.90000    2.66000    0.02044    1.00000  120.65110    0.15710  240.45660
 4062.06980   83.98290   23.02850    0.21230    2.23990    0.26900  141.32750    0.00000    0.00000    1.00000    0.00000    0.23811  272.09080    0.23811    0.90000    2.66000    0.02044    1.00000  120.65470    0.16340  217.90350
 4062.22220   84.26130   23.79500    0.20320    2.17020    0.25800  141.96150    0.00000    0.00000    1.00000    0.00000    0.24126  242.60360    0.24126    0.90000    2.66000    0.02043    1.00000  120.65830    0.17170  192.92010
 4062.37450   84.04140   28.76990    0.21260    2.37750    0.25000  142.40520    0.00000    0.00000    1.00000    0.00000    0.16038   17.83280    0.16038    0.90000    2.66000    0.02043    1.00000  120.66180    0.22580   12.07350
 4062.52690   83.41350   30.47950    0.22390    2.48170    0.23400  142.05580    1.00000    0.00000    0.00000    0.00000    0.10121    0.10000    0.10121    0.90000    2.66000    0.02043    1.00000  120.66540    0.24430    2.52210
 4062.67920   82.13310   32.81690    0.18210    2.42710    0.24100  140.73220    1.00000    0.00000    0.00000    0.00000    0.13234    0.10000    0.13234    0.90000    2.66000    0.02043    1.00000  120.66890    0.26970    2.65100
 4062.83180   81.30000   42.38980    0.18280    2.41600    0.24000  138.95830    1.00000    0.00000    0.00000    0.00000    0.13863    0.10000    0.13863    0.90000    2.66000    0.02043    1.00000  120.67250    0.37380    0.30380
 4062.98410   80.64560   39.41890    0.20550    2.40900    0.31580  136.89400    0.00000    0.00000    1.00000    0.00000    0.13923    1.16760    0.14261    0.90000    2.66000    0.02043    0.97630  120.67610    0.34150    0.66820
 4063.13650   80.01400   41.66410    0.15210    2.32020    0.33590  133.30570    0.00000    0.00000    1.00000    0.00000    0.14645    1.58500    0.18666    0.90000    2.66000    0.02043    0.78460  120.67960    0.36590    0.92440
 4063.28880   79.69480   32.35950    0.20580    2.34990    0.79880  131.34870    0.00000    0.00000    1.00000    0.00000    0.15098   10.62370    0.17616    0.90000    2.66000    0.02043    0.85710  120.68320    0.26480    6.96670
 4063.44140   79.74290   30.44600    0.24100    2.35400    0.84390  130.94400    0.00000    0.00000    1.00000    0.00000    0.17387   15.67230    0.17387    0.90000    2.66000    0.02043    1.00000  120.68680    0.24400   10.52660
 4063.59380   80.29370   28.52310    0.20710    2.26220    0.69940  132.20000    0.00000    0.00000    1.00000    0.00000    0.20604   66.03950    0.22844    0.90000    2.66000    0.02043    0.90200  120.69030    0.22310   48.46830
 4063.74610   81.45620   29.20520    0.21150    2.26600    0.48760  134.26110    0.00000    0.00000    1.00000    0.00000    0.20880   57.13140    0.22891    0.90000    2.66000    0.02043    0.91220  120.69390    0.23050   41.55760
 4063.89840   82.58790   28.31040    0.20070    2.25200    0.38030  136.31600    0.00000    0.00000    1.00000    0.00000    0.21237   70.48000    0.22937    0.90000    2.66000    0.02043    0.92590  120.69740    0.22080   51.93510
 4064.05100   83.39510   27.94100    0.20380    2.25200    0.37000  137.56900    0.00000    0.00000    1.00000    0.00000    0.21764   78.39140    0.23063    0.90000    2.66000    0.02043    0.94370  120.70100    0.21670   58.14490
 4064.20340   83.86990   25.60710    0.20270    2.25100    0.35600  138.70430    0.00000    0.00000    1.00000    0.00000    0.21981  132.36750    0.23053    0.90000    2.66000    0.02043    0.95350  120.70460    0.19140  101.40180
 4064.35570   84.12740   28.27800    0.20990    2.25900    0.33900  139.53000    0.00000    0.00000    1.00000    0.00000    0.22192   72.73780    0.23068    0.90000    2.66000    0.02043    0.96200  120.70810    0.22040   53.70310
 4064.50810   84.38940   26.66130    0.21530    2.24600    0.32900  140.64230    0.00000    0.00000    1.00000    0.00000    0.22515  118.17930    0.23726    0.90000    2.66000    0.02043    0.94890  120.71170    0.20280   89.90240
 4064.66040   84.37010   29.04470    0.20420    2.21110    0.32100  141.56620    0.00000    0.00000    1.00000    0.00000    0.22482   79.26360    0.24472    0.90000    2.66000    0.02043    0.91870  120.71520    0.22870   58.83190
 4064.81300   84.01780   28.21820    0.20790    2.25490    0.31400  142.08580    0.00000    0.00000    1.00000    0.00000    0.22502   74.48770    0.23124    0.90000    2.66000    0.02043    0.97310  120.71880    0.21980   55.07570
 4064.96530   83.26080   33.44320    0.21630    2.41460    0.31300  142.42320    0.00000    0.00000    0.00000    0.00000    0.13932    4.22260    0.13932    0.90000    2.66000    0.02043    1.00000  120.72240    0.27660    2.61600
 4065.11770   82.56270   34.05440    0.22700    2.45890    0.30700  142.44290    1.00000    0.00000    0.00000    0.00000    0.11424    2.31790    0.11424    0.90000    2.66000    0.02043    1.00000  120.72590    0.28320    1.38390
 4065.27000   82.21980   41.51540    0.20550    2.38420    0.32000  142.37120    1.00000    0.00000    0.00000    0.00000    0.15676    0.94500    0.15676    0.90000    2.66000    0.02042    1.00000  120.72950    0.36430    0.53380
 4065.42260   81.86230   38.16290    0.22140    2.39400    0.34390  141.59990    0.00000    0.00000    0.00000    0.00000    0.15114    1.81320    0.15114    0.90000    2.66000    0.02042    1.00000  120.73300    0.32790    1.06630
 4065.57500   81.79420   37.50670    0.24770    2.28430    0.36990  140.99250    0.00000    0.00000    1.00000    0.00000    0.20058    6.63600    0.21355    0.90000    2.66000    0.02042    0.93920  120.73660    0.32070    4.22730
 4065.72730   81.84990   40.56000    0.21760    2.32390    0.46970  140.40840    0.00000    0.00000    1.00000    0.00000    0.19094    2.19940    0.19094    0.90000    2.66000    0.02042    1.00000  120.74010    0.35390    1.30890
 4065.87960   82.13730   54.82750    0.20050    2.55840    0.43010  139.68570    1.00000    0.00000    0.00000    0.00000    0.05756    0.00760    0.05756    0.90000    2.66000    0.02042    1.00000  120.74370    0.50900    0.00320
 4066.03220   82.22180   56.25140    0.20600    2.54600    0.37910  138.61960    1.00000    0.00000    0.00000    0.00000    0.06476    0.00630    0.06476    0.90000    2.66000    0.02042    1.00000  120.74730    0.52450    0.00260
