~Version ---------------------------------------------------
VERS.   2.0 : CWLS log ASCII Standard -VERSION 2.0
WRAP.    NO : One line per depth step
DLM . SPACE : Column Data Section Delimiter
~Well ------------------------------------------------------
STRT  .m                3170.07250 : START DEPTH
STOP  .m                4229.86230 : STOP DEPTH
STEP  .m                   0.15240 : STEP
NULL  .                    -999.25 : NULL VALUE
COMP  .                            : COMPANY
WELL  .                15-9-19-BT2 : WELL
FLD   .                            : FIELD
LOC   .                            : LOCATION
PROV  .                            : PROVINCE
CNTY  .                            : COUNTY
STAT  .                            : STATE
CTRY  .                            : COUNTRY
SRVC  .                            : SERVICE COMPANY
DATE  . 2025-06-30 19:21:11.016592 : DATE
UWI   .                            : UNIQUE WELL ID
API   .                            : API NUMBER
LIC   .                            : 
LATI  .                            : 
LONG  .                            : 
NS    .                            : 
EW    .                            : 
XCOORD.                            : 
YCOORD.                            : 
GDAT  .                            : 
SECT  .                            : 
RANG  .                            : 
TOWN  .                            : 
~Curve Information -----------------------------------------
DEPTH    .m      : 
DT       .us/ft  : None
GR       .GAPI   : None
NPHI     .v/v    : None
RHOB     .g/cc   : None
RT       .ohm.m  : None
DTS      .us/ft  : None
CARB_FLAG.None   : None
COAL_FLAG.None   : None
SAND_FLAG.None   : None
COAL     .None   : None
BVW      .v/v    : None
KLOGH    .mD     : None
PHIF     .v/v    : None
RHOFL    .None   : None
RHOMA    .None   : None
RW       .None   : None
SW       .v/v    : None
TEMP     .None   : None
VSH      .v/v    : None
KLOGV    .None   : None
~Params ----------------------------------------------------
EKB.      : 
EGL.      : 
KB .      : 
GL .      : 
TD .      : 
TDD.      : 
TDL.      : 
~Other -----------------------------------------------------
~ASCII -----------------------------------------------------
# ...
 3858.15840   99.17770  126.09520    0.28960    2.47290    1.83510  187.95230    0.00000    0.00000    0.00000    0.00000    0.09513    0.00000    0.10627    0.90000    2.66000    0.02115    0.89510  115.87810    1.28360    0.00000
 3858.31080   99.18800  127.17520    0.30550    2.47000    1.57970  188.46190    0.00000    0.00000    0.00000    0.00000    0.09218    0.00000    0.10795    0.90000    2.66000    0.02115    0.85390  115.88170    1.29540    0.00000
 3858.46340   99.25790  128.84060    0.30740    2.44810    1.57800  188.87810    0.00000    0.00000    0.00000    0.00000    0.09784    0.00000    0.12044    0.90000    2.66000    0.02114    0.81240  115.88520    1.31350    0.00000
 3858.61570   99.48550  126.33560    0.29890    2.45700    1.59790  189.46870    0.00000    0.00000    0.00000    0.00000    0.10118    0.00000    0.11535    0.90000    2.66000    0.02114    0.87720  115.88870    1.28630    0.00000
 3858.76810   99.83130  124.47290    0.28250    2.47600    1.54020  189.79830    0.00000    0.00000    0.00000    0.00000    0.09814    0.00000    0.10456    0.90000    2.66000    0.02114    0.93860  115.89230    1.26600    0.00000
 3858.92040   99.93440  126.33410    0.30910    2.47300    1.57190  190.15880    0.00000    0.00000    0.00000    0.00000    0.09633    0.00000    0.10625    0.90000    2.66000    0.02114    0.90670  115.89580    1.28620    0.00000
 3859.07300   99.85420  120.48240    0.32720    2.49790    1.66080  190.48830    0.00000    0.00000    0.00000    0.00000    0.09063    0.00000    0.09206    0.90000    2.66000    0.02114    0.98440  115.89940    1.22260    0.00000
 3859.22530  100.00970  130.65020    0.33890    2.46810    1.57620  191.18750    0.00000    0.00000    0.00000    0.00000    0.09518    0.00000    0.10907    0.90000    2.66000    0.02114    0.87270  115.90290    1.33320    0.00000
 3859.37770  100.58770  124.25990    0.32590    2.45400    1.49420  191.51330    0.00000    0.00000    0.00000    0.00000    0.09701    0.00000    0.11704    0.90000    2.66000    0.02114    0.82890  115.90650    1.26370    0.00000
 3859.53000  101.95310  122.16850    0.32100    2.47590    1.40020  191.76840    0.00000    0.00000    0.00000    0.00000    0.09396    0.00000    0.10456    0.90000    2.66000    0.02114    0.89860  115.91000    1.24100    0.00000
 3859.68260  101.71940  124.45100    0.32720    2.43310    1.50070  191.86340    0.00000    0.00000    0.00000    0.00000    0.09926    0.00000    0.12895    0.90000    2.66000    0.02114    0.76980  115.91350    1.26580    0.00000
 3859.83500  101.54640  129.78700    0.32500    2.45290    1.54790  192.00170    0.00000    0.00000    0.00000    0.00000    0.09671    0.00000    0.11763    0.90000    2.66000    0.02114    0.82210  115.91710    1.32380    0.00000
 3859.98730  101.06800  128.37870    0.31880    2.43010    1.55900  192.04790    0.00000    0.00000    0.00000    0.00000    0.09971    0.00000    0.13067    0.90000    2.66000    0.02114    0.76310  115.92060    1.30850    0.00000
 3860.13960  101.01810  129.35340    0.30400    2.51080    1.55200  192.04500    0.00000    0.00000    0.00000    0.00000    0.08472    0.00000    0.08472    0.90000    2.66000    0.02114    1.00000  115.92420    1.31910    0.00000
 3860.29200  100.96410  127.52680    0.27860    2.46010    1.57100  192.05000    0.00000    0.00000    0.00000    0.00000    0.09466    0.00000    0.11360    0.90000    2.66000    0.02114    0.83330  115.92770    1.29920    0.00000
 3860.44460  100.93220  126.13660    0.32690    2.42810    1.57800  191.95460    0.00000    0.00000    0.00000    0.00000    0.09791    0.00000    0.13179    0.90000    2.66000    0.02114    0.74290  115.93130    1.28410    0.00000
 3860.59690  100.58870  128.78000    0.30040    2.42100    1.56600  191.76540    0.00000    0.00000    0.00000    0.00000    0.09804    0.00000    0.13579    0.90000    2.66000    0.02114    0.72200  115.93480    1.31280    0.00000
 3860.74930  100.18590  132.87030    0.30410    2.43600    1.57200  191.39080    0.00000    0.00000    0.00000    0.00000    0.09935    0.00000    0.12728    0.90000    2.66000    0.02114    0.78050  115.93840    1.35730    0.00000
 3860.90160   99.78790  129.77420    0.34030    2.47190    1.62090  191.06270    0.00000    0.00000    0.00000    0.00000    0.09278    0.00000    0.10684    0.90000    2.66000    0.02114    0.86830  115.94190    1.32360    0.00000
 3861.05420   99.80990  131.37980    0.31730    2.44910    1.68380  191.07800    0.00000    0.00000    0.00000    0.00000    0.09510    0.00000    0.11987    0.90000    2.66000    0.02114    0.79340  115.94540    1.34110    0.00000
 3861.20650  100.06940  136.32500    0.31750    2.47890    1.55130  191.42990    0.00000    0.00000    0.00000    0.00000    0.09176    0.00000    0.10286    0.90000    2.66000    0.02114    0.89210  115.94900    1.39480    0.00000
 3861.35890  100.27660  138.84540    0.32770    2.44010    1.57190  191.80920    0.00000    0.00000    0.00000    0.00000    0.09741    0.00000    0.12497    0.90000    2.66000    0.02113    0.77940  115.95250    1.42220    0.00000
 3861.51120  100.37080  129.19140    0.31020    2.45300    1.66180  192.23110    0.00000    0.00000    0.00000    0.00000    0.09725    0.00000    0.11762    0.90000    2.66000    0.02113    0.82680  115.95610    1.31730    0.00000
 3861.66380  100.41190  133.44870    0.35470    2.41010    1.65100  192.48450    0.00000    0.00000    0.00000    0.00000    0.10221    0.00000    0.14201    0.90000    2.66000    0.02113    0.71970  115.95960    1.36360    0.00000
 3861.81620  100.56570  135.03590    0.34490    2.45190    1.61810  192.63570    0.00000    0.00000    0.00000    0.00000    0.09613    0.00000    0.11821    0.90000    2.66000    0.02113    0.81320  115.96320    1.38080    0.00000
 3861.96850  100.82640  132.03390    0.30190    2.45200    1.57110  192.72350    0.00000    0.00000    0.00000    0.00000    0.09627    0.00000    0.11818    0.90000    2.66000    0.02113    0.81460  115.96670    1.34820    0.00000
 3862.12080  101.43170  133.02940    0.35180    2.46100    1.54810  192.36880    0.00000    0.00000    0.00000    0.00000    0.09665    0.00000    0.11307    0.90000    2.66000    0.02113    0.85480  115.97030    1.35900    0.00000
 3862.27320  101.52280  132.94320    0.31090    2.44300    1.59090  191.91000    0.00000    0.00000    0.00000    0.00000    0.09838    0.00000    0.12328    0.90000    2.66000    0.02113    0.79800  115.97380    1.35810    0.00000
 3862.42580  101.34740  133.37090    0.29120    2.47490    1.61190  191.08280    0.00000    0.00000    0.00000    0.00000    0.09311    0.00000    0.10514    0.90000    2.66000    0.02113    0.88560  115.97730    1.36270    0.00000
 3862.57810  100.11870  134.45810    0.31110    2.47100    1.55320  190.03430    0.00000    0.00000    0.00000    0.00000    0.09464    0.00000    0.10738    0.90000    2.66000    0.02113    0.88130  115.98090    1.37450    0.00000
 3862.73050   98.93220  125.39880    0.30700    2.47800    1.54700  188.93570    0.00000    0.00000    0.00000    0.00000    0.09351    0.00000    0.10341    0.90000    2.66000    0.02113    0.90420  115.98440    1.27610    0.00000
 3862.88280   97.26160  125.36800    0.28570    2.51290    1.60880  187.38630    0.00000    0.00000    0.00000    0.00000    0.08355    0.00000    0.08355    0.90000    2.66000    0.02113    1.00000  115.98800    1.27570    0.00000
 3863.03540   96.53960  123.23160    0.29620    2.49110    1.56410  186.20950    0.00000    0.00000    0.00000    0.00000    0.09323    0.00000    0.09601    0.90000    2.66000    0.02113    0.97100  115.99150    1.25250    0.00000
 3863.18770   96.17780  124.87570    0.27860    2.47200    1.57200  185.21220    0.00000    0.00000    0.00000    0.00000    0.09695    0.00000    0.10680    0.90000    2.66000    0.02113    0.90770  115.99510    1.27040    0.00000
 3863.34010   96.20890  125.31680    0.30260    2.48100    1.56800  184.61730    0.00000    0.00000    0.00000    0.00000    0.09630    0.00000    0.10171    0.90000    2.66000    0.02113    0.94680  115.99860    1.27520    0.00000
