~Version ---------------------------------------------------
VERS.   2.0 : CWLS log ASCII Standard -VERSION 2.0
WRAP.    NO : One line per depth step
DLM . SPACE : Column Data Section Delimiter
~Well ------------------------------------------------------
STRT  .m                3170.07250 : START DEPTH
STOP  .m                4229.86230 : STOP DEPTH
STEP  .m                   0.15240 : STEP
NULL  .                    -999.25 : NULL VALUE
COMP  .                            : COMPANY
WELL  .                15-9-19-BT2 : WELL
FLD   .                            : FIELD
LOC   .                            : LOCATION
PROV  .                            : PROVINCE
CNTY  .                            : COUNTY
STAT  .                            : STATE
CTRY  .                            : COUNTRY
SRVC  .                            : SERVICE COMPANY
DATE  . 2025-06-30 19:21:11.016592 : DATE
UWI   .                            : UNIQUE WELL ID
API   .                            : API NUMBER
LIC   .                            : 
LATI  .                            : 
LONG  .                            : 
NS    .                            : 
EW    .                            : 
XCOORD.                            : 
YCOORD.                            : 
GDAT  .                            : 
SECT  .                            : 
RANG  .                            : 
TOWN  .                            : 
~Curve Information -----------------------------------------
DEPTH    .m      : 
DT       .us/ft  : None
GR       .GAPI   : None
NPHI     .v/v    : None
RHOB     .g/cc   : None
RT       .ohm.m  : None
DTS      .us/ft  : None
CARB_FLAG.None   : None
COAL_FLAG.None   : None
SAND_FLAG.None   : None
COAL     .None   : None
BVW      .v/v    : None
KLOGH    .mD     : None
PHIF     .v/v    : None
RHOFL    .None   : None
RHOMA    .None   : None
RW       .None   : None
SW       .v/v    : None
TEMP     .None   : None
VSH      .v/v    : None
KLOGV    .None   : None
~Params ----------------------------------------------------
EKB.      : 
EGL.      : 
KB .      : 
GL .      : 
TD .      : 
TDD.      : 
TDL.      : 
~Other -----------------------------------------------------
~ASCII -----------------------------------------------------
# ...
 3799.48460  114.75620  138.03770    0.39120    2.38200    3.71310  223.38310    0.00000    0.00000    0.00000    0.00000    0.06802    0.00000    0.15797    0.90000    2.66000    0.02136    0.43060  114.51750    1.41350    0.00000
 3799.63700  114.70710  136.90100    0.35060    2.38700    3.86060  222.95090    0.00000    0.00000    0.00000    0.00000    0.07344    0.00000    0.15512    0.90000    2.66000    0.02136    0.47340  114.52100    1.40110    0.00000
 3799.78930  115.00540  140.16840    0.34450    2.31320    4.41850  222.86220    0.00000    0.00000    0.00000    0.00000    0.07582    0.00000    0.19710    0.90000    2.66000    0.02136    0.38470  114.52450    1.43660    0.00000
 3799.94170  116.03880  132.56700    0.37820    2.32300    4.30630  223.22020    0.00000    0.00000    0.00000    0.00000    0.07269    0.00000    0.19148    0.90000    2.66000    0.02136    0.37960  114.52800    1.35400    0.00000
 3800.09400  116.19470  129.11100    0.39140    2.33900    4.20130  223.87760    0.00000    0.00000    0.00000    0.00000    0.07275    0.00000    0.18240    0.90000    2.66000    0.02136    0.39890  114.53160    1.31640    0.00000
 3800.24660  116.42660  128.94740    0.38000    2.33700    4.23090  224.48930    0.00000    0.00000    0.00000    0.00000    0.07334    0.00000    0.18352    0.90000    2.66000    0.02135    0.39960  114.53510    1.31460    0.00000
 3800.39890  116.33020  131.80250    0.41060    2.32500    4.33170  225.65060    0.00000    0.00000    0.00000    0.00000    0.07383    0.00000    0.19033    0.90000    2.66000    0.02135    0.38790  114.53860    1.34570    0.00000
 3800.55130  116.23020  140.82830    0.41840    2.31500    4.51350  228.27950    0.00000    0.00000    0.00000    0.00000    0.07373    0.00000    0.19601    0.90000    2.66000    0.02135    0.37620  114.54210    1.44380    0.00000
 3800.70360  116.77980  144.52730    0.41210    2.29510    5.45050  232.84250    0.00000    0.00000    0.00000    0.00000    0.07309    0.00000    0.20737    0.90000    2.66000    0.02135    0.35250  114.54570    1.48400    0.00000
 3800.85620  117.50050  147.43840    0.38820    2.30200    5.79310  235.52440    0.00000    0.00000    0.00000    0.00000    0.06771    0.00000    0.20341    0.90000    2.66000    0.02135    0.33290  114.54920    1.51560    0.00000
 3801.00850  118.78630  147.46400    0.38850    2.29600    8.75220  235.81630    0.00000    0.00000    0.00000    0.00000    0.06353    0.00000    0.20681    0.90000    2.66000    0.02135    0.30720  114.55270    1.51590    0.00000
 3801.16090  119.49450  148.72370    0.38140    2.28300    9.24870  234.30710    0.00000    0.00000    0.00000    0.00000    0.05654    0.00000    0.21419    0.90000    2.66000    0.02135    0.26400  114.55630    1.52960    0.00000
 3801.31320  119.85320  146.99260    0.39240    2.29600    8.53290  232.94880    0.00000    0.00000    0.00000    0.00000    0.05491    0.00000    0.20683    0.90000    2.66000    0.02135    0.26550  114.55980    1.51080    0.00000
 3801.46580  119.52270  142.30930    0.38950    2.27110    6.74270  231.58090    0.00000    0.00000    0.00000    0.00000    0.05844    0.00000    0.22100    0.90000    2.66000    0.02135    0.26440  114.56330    1.45990    0.00000
 3801.61820  118.74560  143.42200    0.38020    2.25800    5.81540  230.24980    0.00000    0.00000    0.00000    0.00000    0.06578    0.00000    0.22840    0.90000    2.66000    0.02135    0.28800  114.56680    1.47200    0.00000
 3801.77050  117.20130  143.40210    0.40550    2.27100    4.87050  227.95870    0.00000    0.00000    0.00000    0.00000    0.06836    0.00000    0.22103    0.90000    2.66000    0.02135    0.30930  114.57040    1.47180    0.00000
 3801.92290  116.45160  137.90950    0.41770    2.32880    4.25560  226.42020    0.00000    0.00000    0.00000    0.00000    0.07043    0.00000    0.18811    0.90000    2.66000    0.02135    0.37440  114.57390    1.41210    0.00000
 3802.07520  116.11070  137.59180    0.40240    2.32600    4.05950  225.12570    0.00000    0.00000    0.00000    0.00000    0.07394    0.00000    0.18977    0.90000    2.66000    0.02135    0.38960  114.57740    1.40860    0.00000
 3802.22780  116.25970  135.67800    0.37650    2.33400    4.12680  224.38250    0.00000    0.00000    0.00000    0.00000    0.07484    0.00000    0.18523    0.90000    2.66000    0.02135    0.40400  114.58100    1.38780    0.00000
 3802.38010  115.89080  138.70300    0.37390    2.34700    4.24970  225.24820    0.00000    0.00000    0.00000    0.00000    0.07300    0.00000    0.17785    0.90000    2.66000    0.02135    0.41050  114.58450    1.42070    0.00000
 3802.53250  115.93970  144.92270    0.40230    2.32010    4.38460  227.39120    0.00000    0.00000    0.00000    0.00000    0.07325    0.00000    0.19316    0.90000    2.66000    0.02135    0.37920  114.58800    1.48830    0.00000
 3802.68480  116.30220  149.41320    0.43000    2.30300    4.78790  229.22920    0.00000    0.00000    0.00000    0.00000    0.07378    0.00000    0.20283    0.90000    2.66000    0.02135    0.36370  114.59150    1.53710    0.00000
 3802.83740  116.87380  153.54820    0.40980    2.31300    4.85580  229.47050    0.00000    0.00000    0.00000    0.00000    0.07114    0.00000    0.19717    0.90000    2.66000    0.02135    0.36080  114.59510    1.58200    0.00000
 3802.98970  116.96780  151.73380    0.41540    2.32600    4.72830  226.93030    0.00000    0.00000    0.00000    0.00000    0.06968    0.00000    0.18978    0.90000    2.66000    0.02134    0.36720  114.59860    1.56230    0.00000
 3803.14210  116.65370  153.03760    0.37370    2.34100    4.70710  223.71770    0.00000    0.00000    0.00000    0.00000    0.06955    0.00000    0.18126    0.90000    2.66000    0.02134    0.38370  114.60210    1.57650    0.00000
 3803.29440  116.22560  151.76240    0.32400    2.36590    4.65410  220.92970    0.00000    0.00000    0.00000    0.00000    0.06827    0.00000    0.16706    0.90000    2.66000    0.02134    0.40860  114.60570    1.56260    0.00000
 3803.44700  115.72010  150.95910    0.34410    2.38690    4.19120  219.13080    0.00000    0.00000    0.00000    0.00000    0.06721    0.00000    0.15513    0.90000    2.66000    0.02134    0.43320  114.60920    1.55390    0.00000
 3803.59940  115.05740  150.28580    0.35000    2.38200    3.83190  217.78080    0.00000    0.00000    0.00000    0.00000    0.07168    0.00000    0.15795    0.90000    2.66000    0.02134    0.45380  114.61270    1.54660    0.00000
 3803.75170  113.75770  145.27130    0.33620    2.36810    4.04520  216.28510    0.00000    0.00000    0.00000    0.00000    0.07405    0.00000    0.16585    0.90000    2.66000    0.02134    0.44650  114.61620    1.49210    0.00000
 3803.90410  112.87780  139.95910    0.34630    2.37700    4.31130  215.01760    0.00000    0.00000    0.00000    0.00000    0.07147    0.00000    0.16080    0.90000    2.66000    0.02134    0.44450  114.61980    1.43430    0.00000
 3804.05640  112.12350  141.37420    0.35000    2.38200    4.27410  214.67600    0.00000    0.00000    0.00000    0.00000    0.06969    0.00000    0.15796    0.90000    2.66000    0.02134    0.44120  114.62330    1.44970    0.00000
 3804.20900  111.94640  137.95600    0.31560    2.39800    3.69550  215.52620    0.00000    0.00000    0.00000    0.00000    0.06939    0.00000    0.14888    0.90000    2.66000    0.02134    0.46610  114.62680    1.41260    0.00000
 3804.36130  112.09070  139.15280    0.32440    2.39100    3.61520  216.15670    0.00000    0.00000    0.00000    0.00000    0.07362    0.00000    0.15284    0.90000    2.66000    0.02134    0.48170  114.63030    1.42560    0.00000
 3804.51370  112.32450  137.30790    0.35950    2.37800    3.29980  216.80660    0.00000    0.00000    0.00000    0.00000    0.07629    0.00000    0.16022    0.90000    2.66000    0.02134    0.47620  114.63390    1.40550    0.00000
 3804.66600  112.64930  131.33870    0.37060    2.36700    3.32690  217.17520    0.00000    0.00000    0.00000    0.00000    0.07879    0.00000    0.16647    0.90000    2.66000    0.02134    0.47330  114.63740    1.34060    0.00000
